[2025-04-10 05:38:55] {GCS_IP=13.213.62.184, timestamp=2025-04-10 05:38:55, systemid=3, lat=35.0735392, lon=129.0923347, alt=26.945, dist_traveled=null, wp_dist=622, dist_to_home=1.346225644328562E7, vertical_speed=-0.6108834, ground_speed=24.216747, wind_vel=0.0, airspeed=23.737926, gps_hdop=1.21, roll=40.15, pitch=-1.64, yaw=-158.49, ch3percent=59.90, ch9out=0, tot=0.0, toh=0.0, time_in_air=0.0, ch10out=0, ch11out=0, ch12out=0, battery_voltage=0, battery_current=-1, waypoints_count=0, ch3out=1599}
[2025-04-10 05:38:56] {GCS_IP=13.213.62.184, timestamp=2025-04-10 05:38:56, systemid=3, lat=35.0732571, lon=129.0921317, alt=25.852, dist_traveled=null, wp_dist=586, dist_to_home=1.3462252973413214E7, vertical_speed=-0.64225817, ground_speed=24.48276, wind_vel=0.16378291, airspeed=23.949543, gps_hdop=1.21, roll=17.31, pitch=-3.16, yaw=-144.43, ch3percent=60.60, ch9out=0, tot=0.0, toh=0.0, time_in_air=0.0, ch10out=0, ch11out=0, ch12out=0, battery_voltage=0, battery_current=-1, waypoints_count=0, ch3out=1606, waypoints=[], home_location={lon=0.0, lat=0.0}}
[2025-04-10 05:38:57] {GCS_IP=13.213.62.184, timestamp=2025-04-10 05:38:57, systemid=3, lat=35.0730863, lon=129.0919587, alt=25.431, dist_traveled=null, wp_dist=563, dist_to_home=1.3462246741819283E7, vertical_speed=-0.124431536, ground_speed=24.718401, wind_vel=0.15042959, airspeed=24.129732, gps_hdop=1.21, roll=0.14, pitch=-2.56, yaw=-140.41, ch3percent=65.50, ch9out=0, tot=0.0, toh=0.0, time_in_air=0.0, ch10out=0, ch11out=0, ch12out=0, battery_voltage=0, battery_current=-1, waypoints_count=0, ch3out=1655, waypoints=[], home_location={lon=0.0, lat=0.0}}
[2025-04-10 05:38:58] {GCS_IP=13.213.62.184, timestamp=2025-04-10 05:38:58, systemid=3, lat=35.0729156, lon=129.0917851, alt=25.524, dist_traveled=null, wp_dist=539, dist_to_home=1.3462240455919871E7, vertical_speed=0.32177463, ground_speed=24.939617, wind_vel=0.1371491, airspeed=24.358898, gps_hdop=1.21, roll=-9.00, pitch=-1.48, yaw=-141.64, ch3percent=69.20, ch9out=0, tot=0.0, toh=0.0, time_in_air=0.0, ch10out=0, ch11out=0, ch12out=0, battery_voltage=0, battery_current=-1, waypoints_count=0, ch3out=1692, waypoints=[], home_location={lon=0.0, lat=0.0}}
[2025-04-10 05:38:59] {GCS_IP=13.213.62.184, timestamp=2025-04-10 05:38:59, systemid=3, lat=35.0727358, lon=129.0916217, alt=26.009, dist_traveled=null, wp_dist=515, dist_to_home=1.3462235439036395E7, vertical_speed=0.5447481, ground_speed=25.082321, wind_vel=0.12264567, airspeed=24.53357, gps_hdop=1.21, roll=-12.50, pitch=-0.93, yaw=-145.24, ch3percent=70.00, ch9out=0, tot=0.0, toh=0.0, time_in_air=0.0, ch10out=0, ch11out=0, ch12out=0, battery_voltage=0, battery_current=-1, waypoints_count=0, ch3out=1700, waypoints=[], home_location={lon=0.0, lat=0.0}}
[2025-04-10 05:39:00] {GCS_IP=13.213.62.184, timestamp=2025-04-10 05:39:00, systemid=3, lat=35.072546, lon=129.0914749, alt=26.62, dist_traveled=null, wp_dist=491, dist_to_home=1.3462232261255795E7, vertical_speed=0.55305785, ground_speed=25.117535, wind_vel=0.10768664, airspeed=24.691402, gps_hdop=1.21, roll=-12.70, pitch=-0.91, yaw=-149.57, ch3percent=69.90, ch9out=0, tot=0.0, toh=0.0, time_in_air=0.0, ch10out=0, ch11out=0, ch12out=0, battery_voltage=0, battery_current=-1, waypoints_count=0, ch3out=1699, waypoints=[], home_location={lon=0.0, lat=0.0}}
[2025-04-10 05:39:01] {GCS_IP=13.213.62.184, timestamp=2025-04-10 05:39:01, systemid=3, lat=35.0723478, lon=129.0913456, alt=27.206, dist_traveled=null, wp_dist=466, dist_to_home=1.346223092154138E7, vertical_speed=0.4953738, ground_speed=25.158361, wind_vel=0.094014846, airspeed=24.774143, gps_hdop=1.21, roll=-11.38, pitch=-1.19, yaw=-153.74, ch3percent=68.50, ch9out=0, tot=0.0, toh=0.0, time_in_air=0.0, ch10out=0, ch11out=0, ch12out=0, battery_voltage=0, battery_current=-1, waypoints_count=0, ch3out=1685, waypoints=[], home_location={lon=0.0, lat=0.0}}
[2025-04-10 05:39:02] {GCS_IP=13.213.62.184, timestamp=2025-04-10 05:39:02, systemid=3, lat=35.0721409, lon=129.0912312, alt=27.745, dist_traveled=null, wp_dist=441, dist_to_home=1.3462231219610369E7, vertical_speed=0.4279647, ground_speed=25.191114, wind_vel=0.08399265, airspeed=24.803589, gps_hdop=1.21, roll=-8.81, pitch=-1.48, yaw=-157.22, ch3percent=67.70, ch9out=0, tot=0.0, toh=0.0, time_in_air=0.0, ch10out=0, ch11out=0, ch12out=0, battery_voltage=0, battery_current=-1, waypoints_count=0, ch3out=1677, waypoints=[], home_location={lon=0.0, lat=0.0}}
[2025-04-10 05:39:03] {GCS_IP=13.213.62.184, timestamp=2025-04-10 05:39:03, systemid=3, lat=35.0719297, lon=129.0911298, alt=28.222, dist_traveled=null, wp_dist=416, dist_to_home=1.3462232791833758E7, vertical_speed=0.39332858, ground_speed=25.233608, wind_vel=0.07843226, airspeed=24.802633, gps_hdop=1.21, roll=-6.19, pitch=-1.69, yaw=-159.84, ch3percent=66.90, ch9out=0, tot=0.0, toh=0.0, time_in_air=0.0, ch10out=0, ch11out=0, ch12out=0, battery_voltage=0, battery_current=-1, waypoints_count=0, ch3out=1669, waypoints=[], home_location={lon=0.0, lat=0.0}}
[2025-04-10 05:39:04] {GCS_IP=13.213.62.184, timestamp=2025-04-10 05:39:04, systemid=3, lat=35.071715, lon=129.0910374, alt=28.608, dist_traveled=null, wp_dist=390, dist_to_home=1.346223527074027E7, vertical_speed=0.3104451, ground_speed=25.284468, wind_vel=0.07713266, airspeed=24.780802, gps_hdop=1.21, roll=-3.74, pitch=-1.93, yaw=-161.71, ch3percent=66.70, ch9out=0, tot=0.0, toh=0.0, time_in_air=0.0, ch10out=0, ch11out=0, ch12out=0, battery_voltage=0, battery_current=-1, waypoints_count=0, ch3out=1667, waypoints=[], home_location={lon=0.0, lat=0.0}}
[2025-04-10 05:39:05] {GCS_IP=13.213.62.184, timestamp=2025-04-10 05:39:05, systemid=3, lat=35.0714985, lon=129.0909507, alt=28.948, dist_traveled=null, wp_dist=365, dist_to_home=1.3462238304247346E7, vertical_speed=0.2688368, ground_speed=25.341722, wind_vel=0.07839942, airspeed=24.774347, gps_hdop=1.21, roll=-1.64, pitch=-2.14, yaw=-162.66, ch3percent=66.20, ch9out=0, tot=0.0, toh=0.0, time_in_air=0.0, ch10out=0, ch11out=0, ch12out=0, battery_voltage=0, battery_current=-1, waypoints_count=0, ch3out=1662, waypoints=[], home_location={lon=0.0, lat=0.0}}
[2025-04-10 05:39:06] {GCS_IP=13.213.62.184, timestamp=2025-04-10 05:39:06, systemid=3, lat=35.0712819, lon=129.0908665, alt=29.242, dist_traveled=null, wp_dist=340, dist_to_home=1.3462241548516547E7, vertical_speed=0.24302442, ground_speed=25.357779, wind_vel=0.08125565, airspeed=24.77577, gps_hdop=1.21, roll=-0.57, pitch=-2.23, yaw=-163.10, ch3percent=65.60, ch9out=0, tot=0.0, toh=0.0, time_in_air=0.0, ch10out=0, ch11out=0, ch12out=0, battery_voltage=0, battery_current=-1, waypoints_count=0, ch3out=1656, waypoints=[], home_location={lon=0.0, lat=0.0}}
[2025-04-10 05:39:07] {GCS_IP=13.213.62.184, timestamp=2025-04-10 05:39:07, systemid=3, lat=35.0710651, lon=129.0907831, alt=29.473, dist_traveled=null, wp_dist=315, dist_to_home=1.3462244868064832E7, vertical_speed=0.13832696, ground_speed=25.335516, wind_vel=0.08572603, airspeed=24.79714, gps_hdop=1.21, roll=0.47, pitch=-2.43, yaw=-163.09, ch3percent=65.40, ch9out=0, tot=0.0, toh=0.0, time_in_air=0.0, ch10out=0, ch11out=0, ch12out=0, battery_voltage=0, battery_current=-1, waypoints_count=0, ch3out=1654, waypoints=[], home_location={lon=0.0, lat=0.0}}
[2025-04-10 05:39:08] {GCS_IP=13.213.62.184, timestamp=2025-04-10 05:39:08, systemid=3, lat=35.0708502, lon=129.0906995, alt=29.588, dist_traveled=null, wp_dist=289, dist_to_home=1.3462248081657376E7, vertical_speed=0.10793851, ground_speed=25.298056, wind_vel=0.092056766, airspeed=24.774109, gps_hdop=1.21, roll=0.94, pitch=-2.34, yaw=-162.83, ch3percent=65.50, ch9out=0, tot=0.0, toh=0.0, time_in_air=0.0, ch10out=0, ch11out=0, ch12out=0, battery_voltage=0, battery_current=-1, waypoints_count=0, ch3out=1655, waypoints=[], home_location={lon=0.0, lat=0.0}}
[2025-04-10 05:39:09] {GCS_IP=13.213.62.184, timestamp=2025-04-10 05:39:09, systemid=3, lat=35.0706349, lon=129.0906136, alt=29.688, dist_traveled=null, wp_dist=264, dist_to_home=1.3462251124296881E7, vertical_speed=0.06852945, ground_speed=25.305563, wind_vel=0.09917147, airspeed=24.802727, gps_hdop=1.21, roll=0.90, pitch=-2.36, yaw=-162.44, ch3percent=65.90, ch9out=0, tot=0.0, toh=0.0, time_in_air=0.0, ch10out=0, ch11out=0, ch12out=0, battery_voltage=0, battery_current=-1, waypoints_count=0, ch3out=1659, waypoints=[], home_location={lon=0.0, lat=0.0}}
[2025-04-10 05:39:10] {GCS_IP=13.213.62.184, timestamp=2025-04-10 05:39:10, systemid=3, lat=35.0704193, lon=129.0905257, alt=29.783, dist_traveled=null, wp_dist=239, dist_to_home=1.34622540160168E7, vertical_speed=0.078926325, ground_speed=25.33757, wind_vel=0.10607005, airspeed=24.786114, gps_hdop=1.21, roll=0.79, pitch=-2.43, yaw=-162.11, ch3percent=65.90, ch9out=0, tot=0.0, toh=0.0, time_in_air=0.0, ch10out=0, ch11out=0, ch12out=0, battery_voltage=0, battery_current=-1, waypoints_count=0, ch3out=1659, waypoints=[], home_location={lon=0.0, lat=0.0}}
[2025-04-10 05:39:11] {GCS_IP=13.213.62.184, timestamp=2025-04-10 05:39:11, systemid=3, lat=35.0702038, lon=129.0904363, alt=29.832, dist_traveled=null, wp_dist=214, dist_to_home=1.3462256779234376E7, vertical_speed=0.080111444, ground_speed=25.39276, wind_vel=0.11254213, airspeed=24.838764, gps_hdop=1.21, roll=0.57, pitch=-2.42, yaw=-161.83, ch3percent=66.00, ch9out=0, tot=0.0, toh=0.0, time_in_air=0.0, ch10out=0, ch11out=0, ch12out=0, battery_voltage=0, battery_current=-1, waypoints_count=0, ch3out=1660, waypoints=[], home_location={lon=0.0, lat=0.0}}
[2025-04-10 05:39:12] {GCS_IP=13.213.62.184, timestamp=2025-04-10 05:39:12, systemid=3, lat=35.0699879, lon=129.0903455, alt=29.88, dist_traveled=null, wp_dist=188, dist_to_home=1.3462259445710996E7, vertical_speed=0.070557, ground_speed=25.422592, wind_vel=0.119595006, airspeed=24.90362, gps_hdop=1.21, roll=0.53, pitch=-2.42, yaw=-161.51, ch3percent=65.60, ch9out=0, tot=0.0, toh=0.0, time_in_air=0.0, ch10out=0, ch11out=0, ch12out=0, battery_voltage=0, battery_current=-1, waypoints_count=0, ch3out=1656, waypoints=[], home_location={lon=0.0, lat=0.0}}
[2025-04-10 05:39:13] {GCS_IP=13.213.62.184, timestamp=2025-04-10 05:39:13, systemid=3, lat=35.0697718, lon=129.0902537, alt=29.937, dist_traveled=null, wp_dist=163, dist_to_home=1.3462262039024813E7, vertical_speed=-0.0062501063, ground_speed=25.451519, wind_vel=0.12633651, airspeed=24.90461, gps_hdop=1.21, roll=0.14, pitch=-2.68, yaw=-161.41, ch3percent=65.40, ch9out=0, tot=0.0, toh=0.0, time_in_air=0.0, ch10out=0, ch11out=0, ch12out=0, battery_voltage=0, battery_current=-1, waypoints_count=0, ch3out=1654, waypoints=[], home_location={lon=0.0, lat=0.0}}
[2025-04-10 05:39:14] {GCS_IP=13.213.62.184, timestamp=2025-04-10 05:39:14, systemid=3, lat=35.0695562, lon=129.0901615, alt=29.963, dist_traveled=null, wp_dist=137, dist_to_home=1.3462264575732214E7, vertical_speed=0.032081578, ground_speed=25.458315, wind_vel=0.1325507, airspeed=24.91158, gps_hdop=1.21, roll=0.11, pitch=-2.56, yaw=-161.31, ch3percent=65.80, ch9out=0, tot=0.0, toh=0.0, time_in_air=0.0, ch10out=0, ch11out=0, ch12out=0, battery_voltage=0, battery_current=-1, waypoints_count=0, ch3out=1658, waypoints=[], home_location={lon=0.0, lat=0.0}}
[2025-04-10 05:39:15] {GCS_IP=13.213.62.184, timestamp=2025-04-10 05:39:15, systemid=3, lat=35.0693406, lon=129.0900691, alt=29.971, dist_traveled=null, wp_dist=112, dist_to_home=1.3462267095842399E7, vertical_speed=0.01528026, ground_speed=25.475407, wind_vel=0.13945006, airspeed=24.92969, gps_hdop=1.21, roll=-0.17, pitch=-2.56, yaw=-161.32, ch3percent=65.60, ch9out=0, tot=0.0, toh=0.0, time_in_air=0.0, ch10out=0, ch11out=0, ch12out=0, battery_voltage=0, battery_current=-1, waypoints_count=0, ch3out=1656, waypoints=[], home_location={lon=0.0, lat=0.0}}
[2025-04-10 05:39:16] {GCS_IP=13.213.62.184, timestamp=2025-04-10 05:39:16, systemid=3, lat=35.0691254, lon=129.0899767, alt=29.981, dist_traveled=null, wp_dist=86, dist_to_home=1.346226959703611E7, vertical_speed=0.012341684, ground_speed=25.461197, wind_vel=0.146583, airspeed=24.932732, gps_hdop=1.21, roll=-0.43, pitch=-2.54, yaw=-161.33, ch3percent=65.70, ch9out=0, tot=0.0, toh=0.0, time_in_air=0.0, ch10out=0, ch11out=0, ch12out=0, battery_voltage=0, battery_current=-1, waypoints_count=0, ch3out=1657, waypoints=[], home_location={lon=0.0, lat=0.0}}
[2025-04-10 05:39:17] {GCS_IP=13.213.62.184, timestamp=2025-04-10 05:39:17, systemid=3, lat=35.06891, lon=129.0898847, alt=29.986, dist_traveled=null, wp_dist=61, dist_to_home=1.3462272140519274E7, vertical_speed=0.04103747, ground_speed=25.46628, wind_vel=0.15365677, airspeed=24.950397, gps_hdop=1.21, roll=-0.34, pitch=-2.48, yaw=-161.51, ch3percent=65.80, ch9out=0, tot=0.0, toh=0.0, time_in_air=0.0, ch10out=0, ch11out=0, ch12out=0, battery_voltage=0, battery_current=-1, waypoints_count=0, ch3out=1658, waypoints=[], home_location={lon=0.0, lat=0.0}}
[2025-04-10 05:39:18] {GCS_IP=13.213.62.184, timestamp=2025-04-10 05:39:18, systemid=3, lat=35.068694, lon=129.0897928, alt=29.979, dist_traveled=null, wp_dist=36, dist_to_home=1.346227472036395E7, vertical_speed=-0.02097227, ground_speed=25.473534, wind_vel=0.16023162, airspeed=24.92513, gps_hdop=1.21, roll=-0.07, pitch=-2.61, yaw=-161.50, ch3percent=66.00, ch9out=0, tot=0.0, toh=0.0, time_in_air=0.0, ch10out=0, ch11out=0, ch12out=0, battery_voltage=0, battery_current=-1, waypoints_count=0, ch3out=1660, waypoints=[], home_location={lon=0.0, lat=0.0}}
[2025-04-10 05:39:19] {GCS_IP=13.213.62.184, timestamp=2025-04-10 05:39:19, systemid=3, lat=35.0684803, lon=129.0896943, alt=29.948, dist_traveled=null, wp_dist=265, dist_to_home=1.3462276647645138E7, vertical_speed=-0.14681529, ground_speed=25.597784, wind_vel=0.16562814, airspeed=25.017303, gps_hdop=1.21, roll=45.04, pitch=-0.54, yaw=-155.86, ch3percent=79.40, ch9out=0, tot=0.0, toh=0.0, time_in_air=0.0, ch10out=0, ch11out=0, ch12out=0, battery_voltage=0, battery_current=-1, waypoints_count=0, ch3out=1794, waypoints=[], home_location={lon=0.0, lat=0.0}}
[2025-04-10 05:39:20] {GCS_IP=13.213.62.184, timestamp=2025-04-10 05:39:20, systemid=3, lat=35.0682909, lon=129.0895345, alt=30.494, dist_traveled=null, wp_dist=241, dist_to_home=1.3462272376672937E7, vertical_speed=-0.12635133, ground_speed=25.631311, wind_vel=0.1709301, airspeed=25.091969, gps_hdop=1.21, roll=24.07, pitch=-2.58, yaw=-143.47, ch3percent=64.10, ch9out=0, tot=0.0, toh=0.0, time_in_air=0.0, ch10out=0, ch11out=0, ch12out=0, battery_voltage=0, battery_current=-1, waypoints_count=0, ch3out=1641, waypoints=[], home_location={lon=0.0, lat=0.0}}
[2025-04-10 05:39:21] {GCS_IP=13.213.62.184, timestamp=2025-04-10 05:39:21, systemid=3, lat=35.0681238, lon=129.0893432, alt=30.34, dist_traveled=null, wp_dist=216, dist_to_home=1.346226445904485E7, vertical_speed=-0.06978579, ground_speed=25.586744, wind_vel=0.17393112, airspeed=25.049284, gps_hdop=1.21, roll=20.34, pitch=-2.11, yaw=-135.01, ch3percent=64.70, ch9out=0, tot=0.0, toh=0.0, time_in_air=0.0, ch10out=0, ch11out=0, ch12out=0, battery_voltage=0, battery_current=-1, waypoints_count=0, ch3out=1647, waypoints=[], home_location={lon=0.0, lat=0.0}}
[2025-04-10 05:39:22] {GCS_IP=13.213.62.184, timestamp=2025-04-10 05:39:22, systemid=3, lat=35.0679777, lon=129.0891291, alt=30.146, dist_traveled=null, wp_dist=191, dist_to_home=1.3462253673377592E7, vertical_speed=-0.1960244, ground_speed=25.473404, wind_vel=0.17513895, airspeed=25.028067, gps_hdop=1.21, roll=14.07, pitch=-2.59, yaw=-128.73, ch3percent=64.30, ch9out=0, tot=0.0, toh=0.0, time_in_air=0.0, ch10out=0, ch11out=0, ch12out=0, battery_voltage=0, battery_current=-1, waypoints_count=0, ch3out=1643, waypoints=[], home_location={lon=0.0, lat=0.0}}
[2025-04-10 05:39:23] {GCS_IP=13.213.62.184, timestamp=2025-04-10 05:39:23, systemid=3, lat=35.0678463, lon=129.0889019, alt=29.942, dist_traveled=null, wp_dist=166, dist_to_home=1.3462241115910558E7, vertical_speed=-0.19145565, ground_speed=25.426945, wind_vel=0.1761939, airspeed=25.005894, gps_hdop=1.21, roll=7.57, pitch=-2.75, yaw=-124.72, ch3percent=64.70, ch9out=0, tot=0.0, toh=0.0, time_in_air=0.0, ch10out=0, ch11out=0, ch12out=0, battery_voltage=0, battery_current=-1, waypoints_count=0, ch3out=1647, waypoints=[], home_location={lon=0.0, lat=0.0}}
[2025-04-10 05:39:24] {GCS_IP=13.213.62.184, timestamp=2025-04-10 05:39:24, systemid=3, lat=35.0677222, lon=129.0886667, alt=29.762, dist_traveled=null, wp_dist=140, dist_to_home=1.34622275552546E7, vertical_speed=-0.10952424, ground_speed=25.443743, wind_vel=0.17717455, airspeed=25.04099, gps_hdop=1.21, roll=2.59, pitch=-2.63, yaw=-122.71, ch3percent=65.40, ch9out=0, tot=0.0, toh=0.0, time_in_air=0.0, ch10out=0, ch11out=0, ch12out=0, battery_voltage=0, battery_current=-1, waypoints_count=0, ch3out=1654, waypoints=[], home_location={lon=0.0, lat=0.0}}
[2025-04-10 05:39:25] {GCS_IP=13.213.62.184, timestamp=2025-04-10 05:39:25, systemid=3, lat=35.067601, lon=129.0884286, alt=29.721, dist_traveled=null, wp_dist=114, dist_to_home=1.3462213618931122E7, vertical_speed=0.0014100167, ground_speed=25.470926, wind_vel=0.1783697, airspeed=25.03318, gps_hdop=1.21, roll=-0.45, pitch=-2.46, yaw=-122.18, ch3percent=65.80, ch9out=0, tot=0.0, toh=0.0, time_in_air=0.0, ch10out=0, ch11out=0, ch12out=0, battery_voltage=0, battery_current=-1, waypoints_count=0, ch3out=1658, waypoints=[], home_location={lon=0.0, lat=0.0}}
[2025-04-10 05:39:26] {GCS_IP=13.213.62.184, timestamp=2025-04-10 05:39:26, systemid=3, lat=35.0674794, lon=129.0881904, alt=29.752, dist_traveled=null, wp_dist=89, dist_to_home=1.346219969304805E7, vertical_speed=0.034833748, ground_speed=25.491228, wind_vel=0.18006168, airspeed=24.993645, gps_hdop=1.21, roll=-2.21, pitch=-2.42, yaw=-122.47, ch3percent=65.80, ch9out=0, tot=0.0, toh=0.0, time_in_air=0.0, ch10out=0, ch11out=0, ch12out=0, battery_voltage=0, battery_current=-1, waypoints_count=0, ch3out=1658, waypoints=[], home_location={lon=0.0, lat=0.0}}
[2025-04-10 05:39:27] {GCS_IP=13.213.62.184, timestamp=2025-04-10 05:39:27, systemid=3, lat=35.0673557, lon=129.0879541, alt=29.788, dist_traveled=null, wp_dist=63, dist_to_home=1.346218602249148E7, vertical_speed=-0.0014309722, ground_speed=25.516134, wind_vel=0.18211886, airspeed=24.989925, gps_hdop=1.21, roll=-2.87, pitch=-2.46, yaw=-123.27, ch3percent=66.00, ch9out=0, tot=0.0, toh=0.0, time_in_air=0.0, ch10out=0, ch11out=0, ch12out=0, battery_voltage=0, battery_current=-1, waypoints_count=0, ch3out=1660, waypoints=[], home_location={lon=0.0, lat=0.0}}
[2025-04-10 05:39:28] {GCS_IP=13.213.62.184, timestamp=2025-04-10 05:39:28, systemid=3, lat=35.0672296, lon=129.0877221, alt=29.844, dist_traveled=null, wp_dist=38, dist_to_home=1.3462172819298496E7, vertical_speed=0.06115382, ground_speed=25.459354, wind_vel=0.18636817, airspeed=24.993086, gps_hdop=1.21, roll=-2.71, pitch=-2.38, yaw=-124.33, ch3percent=65.90, ch9out=0, tot=0.0, toh=0.0, time_in_air=0.0, ch10out=0, ch11out=0, ch12out=0, battery_voltage=0, battery_current=-1, waypoints_count=0, ch3out=1659, waypoints=[], home_location={lon=0.0, lat=0.0}}
[2025-04-10 05:39:29] {GCS_IP=13.213.62.184, timestamp=2025-04-10 05:39:29, systemid=3, lat=35.0671004, lon=129.0874926, alt=29.885, dist_traveled=null, wp_dist=13, dist_to_home=1.346215996793953E7, vertical_speed=0.0313559, ground_speed=25.420263, wind_vel=0.19112736, airspeed=24.972044, gps_hdop=1.21, roll=-2.40, pitch=-2.37, yaw=-125.22, ch3percent=65.70, ch9out=0, tot=0.0, toh=0.0, time_in_air=0.0, ch10out=0, ch11out=0, ch12out=0, battery_voltage=0, battery_current=-1, waypoints_count=0, ch3out=1657, waypoints=[], home_location={lon=0.0, lat=0.0}}
[2025-04-10 05:39:30] {GCS_IP=13.213.62.184, timestamp=2025-04-10 05:39:30, systemid=3, lat=35.0669685, lon=129.0872652, alt=29.933, dist_traveled=null, wp_dist=116, dist_to_home=1.3462147416613946E7, vertical_speed=0.042784058, ground_speed=25.419333, wind_vel=0.19598897, airspeed=24.971292, gps_hdop=1.21, roll=-0.45, pitch=-2.41, yaw=-125.72, ch3percent=65.80, ch9out=0, tot=0.0, toh=0.0, time_in_air=0.0, ch10out=0, ch11out=0, ch12out=0, battery_voltage=0, battery_current=-1, waypoints_count=0, ch3out=1658, waypoints=[], home_location={lon=0.0, lat=0.0}}
[2025-04-10 05:39:31] {GCS_IP=13.213.62.184, timestamp=2025-04-10 05:39:31, systemid=3, lat=35.0668597, lon=129.0870194, alt=29.99, dist_traveled=null, wp_dist=97, dist_to_home=1.3462132261403795E7, vertical_speed=1.4272822, ground_speed=25.878115, wind_vel=0.1992556, airspeed=25.173521, gps_hdop=1.21, roll=44.67, pitch=5.16, yaw=-105.94, ch3percent=83.10, ch9out=0, tot=0.0, toh=0.0, time_in_air=0.0, ch10out=0, ch11out=0, ch12out=0, battery_voltage=0, battery_current=-1, waypoints_count=0, ch3out=1831, waypoints=[], home_location={lon=0.0, lat=0.0}}
[2025-04-10 05:39:32] {GCS_IP=13.213.62.184, timestamp=2025-04-10 05:39:32, systemid=3, lat=35.0668309, lon=129.086741, alt=31.016, dist_traveled=null, wp_dist=75, dist_to_home=1.3462110655527063E7, vertical_speed=-0.30841875, ground_speed=25.63342, wind_vel=0.20211615, airspeed=25.161615, gps_hdop=1.21, roll=41.11, pitch=-1.50, yaw=-94.22, ch3percent=67.40, ch9out=0, tot=0.0, toh=0.0, time_in_air=0.0, ch10out=0, ch11out=0, ch12out=0, battery_voltage=0, battery_current=-1, waypoints_count=0, ch3out=1674, waypoints=[], home_location={lon=0.0, lat=0.0}}
[2025-04-10 05:39:33] {GCS_IP=13.213.62.184, timestamp=2025-04-10 05:39:33, systemid=3, lat=35.066861, lon=129.0864622, alt=30.953, dist_traveled=null, wp_dist=959, dist_to_home=1.3462086246876441E7, vertical_speed=-0.22900248, ground_speed=25.850704, wind_vel=0.20364684, airspeed=25.2498, gps_hdop=1.21, roll=59.68, pitch=0.07, yaw=-72.32, ch3percent=91.90, ch9out=0, tot=0.0, toh=0.0, time_in_air=0.0, ch10out=0, ch11out=0, ch12out=0, battery_voltage=0, battery_current=-1, waypoints_count=0, ch3out=1919, waypoints=[], home_location={lon=0.0, lat=0.0}}
[2025-04-10 05:39:34] {GCS_IP=13.213.62.184, timestamp=2025-04-10 05:39:34, systemid=3, lat=35.0670049, lon=129.0862442, alt=32.056, dist_traveled=null, wp_dist=956, dist_to_home=1.3462061501194E7, vertical_speed=1.658395, ground_speed=26.046772, wind_vel=0.2017354, airspeed=25.699186, gps_hdop=1.21, roll=53.69, pitch=3.62, yaw=-38.74, ch3percent=71.00, ch9out=0, tot=0.0, toh=0.0, time_in_air=0.0, ch10out=0, ch11out=0, ch12out=0, battery_voltage=0, battery_current=-1, waypoints_count=0, ch3out=1710, waypoints=[], home_location={lon=0.0, lat=0.0}}
[2025-04-10 05:39:35] {GCS_IP=13.213.62.184, timestamp=2025-04-10 05:39:35, systemid=3, lat=35.0672126, lon=129.0861159, alt=32.605, dist_traveled=null, wp_dist=943, dist_to_home=1.3462041153156418E7, vertical_speed=-0.18323207, ground_speed=25.783506, wind_vel=0.19570541, airspeed=25.372456, gps_hdop=1.21, roll=52.43, pitch=-0.18, yaw=-18.99, ch3percent=64.80, ch9out=0, tot=0.0, toh=0.0, time_in_air=0.0, ch10out=0, ch11out=0, ch12out=0, battery_voltage=0, battery_current=-1, waypoints_count=0, ch3out=1648, waypoints=[], home_location={lon=0.0, lat=0.0}}
[2025-04-10 05:39:36] {GCS_IP=13.213.62.184, timestamp=2025-04-10 05:39:36, systemid=3, lat=35.0674415, lon=129.08609, alt=32.255, dist_traveled=null, wp_dist=923, dist_to_home=1.3462028253320344E7, vertical_speed=-0.54112214, ground_speed=25.555006, wind_vel=0.18797347, airspeed=25.136026, gps_hdop=1.21, roll=47.61, pitch=-1.31, yaw=2.48, ch3percent=59.80, ch9out=0, tot=0.0, toh=0.0, time_in_air=0.0, ch10out=0, ch11out=0, ch12out=0, battery_voltage=0, battery_current=-1, waypoints_count=0, ch3out=1598, waypoints=[], home_location={lon=0.0, lat=0.0}}
[2025-04-10 05:39:37] {GCS_IP=13.213.62.184, timestamp=2025-04-10 05:39:37, systemid=3, lat=35.0676621, lon=129.0861569, alt=31.43, dist_traveled=null, wp_dist=900, dist_to_home=1.3462023397081748E7, vertical_speed=-1.0218289, ground_speed=25.32111, wind_vel=0.17663299, airspeed=24.903507, gps_hdop=1.21, roll=39.87, pitch=-2.91, yaw=19.55, ch3percent=57.10, ch9out=0, tot=0.0, toh=0.0, time_in_air=0.0, ch10out=0, ch11out=0, ch12out=0, battery_voltage=0, battery_current=-1, waypoints_count=0, ch3out=1571, waypoints=[], home_location={lon=0.0, lat=0.0}}
[2025-04-10 05:39:38] {GCS_IP=13.213.62.184, timestamp=2025-04-10 05:39:38, systemid=3, lat=35.0678594, lon=129.08629, alt=30.34, dist_traveled=null, wp_dist=875, dist_to_home=1.346202509600312E7, vertical_speed=-1.1432488, ground_speed=25.17549, wind_vel=0.16304097, airspeed=24.730383, gps_hdop=1.21, roll=28.02, pitch=-3.97, yaw=32.29, ch3percent=57.80, ch9out=0, tot=0.0, toh=0.0, time_in_air=0.0, ch10out=0, ch11out=0, ch12out=0, battery_voltage=0, battery_current=-1, waypoints_count=0, ch3out=1578, waypoints=[], home_location={lon=0.0, lat=0.0}}
[2025-04-10 05:39:39] {GCS_IP=13.213.62.184, timestamp=2025-04-10 05:39:39, systemid=3, lat=35.0680358, lon=129.0864627, alt=29.272, dist_traveled=null, wp_dist=850, dist_to_home=1.3462031043466164E7, vertical_speed=-0.86622435, ground_speed=25.219107, wind_vel=0.14838144, airspeed=24.777164, gps_hdop=1.21, roll=14.60, pitch=-4.01, yaw=40.34, ch3percent=60.90, ch9out=0, tot=0.0, toh=0.0, time_in_air=0.0, ch10out=0, ch11out=0, ch12out=0, battery_voltage=0, battery_current=-1, waypoints_count=0, ch3out=1609, waypoints=[], home_location={lon=0.0, lat=0.0}}
[2025-04-10 05:39:40] {GCS_IP=13.213.62.184, timestamp=2025-04-10 05:39:40, systemid=3, lat=35.0682004, lon=129.0866544, alt=28.561, dist_traveled=null, wp_dist=825, dist_to_home=1.3462039112636667E7, vertical_speed=-0.42900714, ground_speed=25.328566, wind_vel=0.13285172, airspeed=24.856855, gps_hdop=1.21, roll=3.51, pitch=-3.25, yaw=44.04, ch3percent=64.10, ch9out=0, tot=0.0, toh=0.0, time_in_air=0.0, ch10out=0, ch11out=0, ch12out=0, battery_voltage=0, battery_current=-1, waypoints_count=0, ch3out=1641, waypoints=[], home_location={lon=0.0, lat=0.0}}
[2025-04-10 05:39:41] {GCS_IP=13.213.62.184, timestamp=2025-04-10 05:39:41, systemid=3, lat=35.0683628, lon=129.0868509, alt=28.275, dist_traveled=null, wp_dist=800, dist_to_home=1.3462047680987785E7, vertical_speed=-0.04482736, ground_speed=25.442238, wind_vel=0.11820249, airspeed=24.909264, gps_hdop=1.21, roll=-3.50, pitch=-2.44, yaw=44.30, ch3percent=66.60, ch9out=0, tot=0.0, toh=0.0, time_in_air=0.0, ch10out=0, ch11out=0, ch12out=0, battery_voltage=0, battery_current=-1, waypoints_count=0, ch3out=1666, waypoints=[], home_location={lon=0.0, lat=0.0}}
[2025-04-10 05:39:42] {GCS_IP=13.213.62.184, timestamp=2025-04-10 05:39:42, systemid=3, lat=35.0685286, lon=129.0870437, alt=28.375, dist_traveled=null, wp_dist=775, dist_to_home=1.3462055784177769E7, vertical_speed=0.15475638, ground_speed=25.495998, wind_vel=0.10434894, airspeed=24.944248, gps_hdop=1.21, roll=-6.60, pitch=-1.95, yaw=42.90, ch3percent=67.50, ch9out=0, tot=0.0, toh=0.0, time_in_air=0.0, ch10out=0, ch11out=0, ch12out=0, battery_voltage=0, battery_current=-1, waypoints_count=0, ch3out=1675, waypoints=[], home_location={lon=0.0, lat=0.0}}
[2025-04-10 05:39:43] {GCS_IP=13.213.62.184, timestamp=2025-04-10 05:39:43, systemid=3, lat=35.0687003, lon=129.0872287, alt=28.598, dist_traveled=null, wp_dist=749, dist_to_home=1.346206296651474E7, vertical_speed=0.26230595, ground_speed=25.490597, wind_vel=0.09072662, airspeed=24.9816, gps_hdop=1.21, roll=-7.40, pitch=-1.79, yaw=40.52, ch3percent=67.50, ch9out=0, tot=0.0, toh=0.0, time_in_air=0.0, ch10out=0, ch11out=0, ch12out=0, battery_voltage=0, battery_current=-1, waypoints_count=0, ch3out=1675, waypoints=[], home_location={lon=0.0, lat=0.0}}
[2025-04-10 05:39:44] {GCS_IP=13.213.62.184, timestamp=2025-04-10 05:39:44, systemid=3, lat=35.0688781, lon=129.0874043, alt=28.868, dist_traveled=null, wp_dist=724, dist_to_home=1.346206908664343E7, vertical_speed=0.23063305, ground_speed=25.466085, wind_vel=0.077838905, airspeed=24.975628, gps_hdop=1.21, roll=-6.75, pitch=-1.75, yaw=38.16, ch3percent=67.00, ch9out=0, tot=0.0, toh=0.0, time_in_air=0.0, ch10out=0, ch11out=0, ch12out=0, battery_voltage=0, battery_current=-1, waypoints_count=0, ch3out=1670, waypoints=[], home_location={lon=0.0, lat=0.0}}
[2025-04-10 05:39:45] {GCS_IP=13.213.62.184, timestamp=2025-04-10 05:39:45, systemid=3, lat=35.0690601, lon=129.0875705, alt=29.124, dist_traveled=null, wp_dist=699, dist_to_home=1.3462074233918607E7, vertical_speed=0.1700867, ground_speed=25.376125, wind_vel=0.06497775, airspeed=24.983435, gps_hdop=1.21, roll=-5.47, pitch=-1.95, yaw=36.03, ch3percent=66.60, ch9out=0, tot=0.0, toh=0.0, time_in_air=0.0, ch10out=0, ch11out=0, ch12out=0, battery_voltage=0, battery_current=-1, waypoints_count=0, ch3out=1666, waypoints=[], home_location={lon=0.0, lat=0.0}}
[2025-04-10 05:39:46] {GCS_IP=13.213.62.184, timestamp=2025-04-10 05:39:46, systemid=3, lat=35.0692472, lon=129.0877301, alt=29.322, dist_traveled=null, wp_dist=673, dist_to_home=1.3462078596930273E7, vertical_speed=0.13091071, ground_speed=25.351189, wind_vel=0.0560717, airspeed=24.971664, gps_hdop=1.21, roll=-3.94, pitch=-2.09, yaw=34.35, ch3percent=66.10, ch9out=0, tot=0.0, toh=0.0, time_in_air=0.0, ch10out=0, ch11out=0, ch12out=0, battery_voltage=0, battery_current=-1, waypoints_count=0, ch3out=1661, waypoints=[], home_location={lon=0.0, lat=0.0}}
[2025-04-10 05:39:47] {GCS_IP=13.213.62.184, timestamp=2025-04-10 05:39:47, systemid=3, lat=35.0694373, lon=129.0878848, alt=29.48, dist_traveled=null, wp_dist=648, dist_to_home=1.3462082414634462E7, vertical_speed=0.11514612, ground_speed=25.35313, wind_vel=0.050834496, airspeed=24.960218, gps_hdop=1.21, roll=-2.39, pitch=-2.15, yaw=33.36, ch3percent=65.90, ch9out=0, tot=0.0, toh=0.0, time_in_air=0.0, ch10out=0, ch11out=0, ch12out=0, battery_voltage=0, battery_current=-1, waypoints_count=0, ch3out=1659, waypoints=[], home_location={lon=0.0, lat=0.0}}
[2025-04-10 05:39:48] {GCS_IP=13.213.62.184, timestamp=2025-04-10 05:39:48, systemid=3, lat=35.0696291, lon=129.0880366, alt=29.622, dist_traveled=null, wp_dist=623, dist_to_home=1.3462085913105333E7, vertical_speed=0.14618781, ground_speed=25.361197, wind_vel=0.049707405, airspeed=24.918287, gps_hdop=1.21, roll=-1.43, pitch=-2.12, yaw=32.67, ch3percent=66.00, ch9out=0, tot=0.0, toh=0.0, time_in_air=0.0, ch10out=0, ch11out=0, ch12out=0, battery_voltage=0, battery_current=-1, waypoints_count=0, ch3out=1660, waypoints=[], home_location={lon=0.0, lat=0.0}}
[2025-04-10 05:39:49] {GCS_IP=13.213.62.184, timestamp=2025-04-10 05:39:49, systemid=3, lat=35.0698214, lon=129.0881862, alt=29.765, dist_traveled=null, wp_dist=597, dist_to_home=1.3462089206506135E7, vertical_speed=0.09331181, ground_speed=25.360163, wind_vel=0.051819175, airspeed=24.90864, gps_hdop=1.21, roll=-0.23, pitch=-2.24, yaw=32.29, ch3percent=65.80, ch9out=0, tot=0.0, toh=0.0, time_in_air=0.0, ch10out=0, ch11out=0, ch12out=0, battery_voltage=0, battery_current=-1, waypoints_count=0, ch3out=1658, waypoints=[], home_location={lon=0.0, lat=0.0}}
[2025-04-10 05:39:50] {GCS_IP=13.213.62.184, timestamp=2025-04-10 05:39:50, systemid=3, lat=35.0700138, lon=129.0883354, alt=29.83, dist_traveled=null, wp_dist=572, dist_to_home=1.3462092462090721E7, vertical_speed=0.038044155, ground_speed=25.372522, wind_vel=0.056461863, airspeed=24.91911, gps_hdop=1.21, roll=0.03, pitch=-2.28, yaw=32.33, ch3percent=65.50, ch9out=0, tot=0.0, toh=0.0, time_in_air=0.0, ch10out=0, ch11out=0, ch12out=0, battery_voltage=0, battery_current=-1, waypoints_count=0, ch3out=1655, waypoints=[], home_location={lon=0.0, lat=0.0}}
[2025-04-10 05:39:51] {GCS_IP=13.213.62.184, timestamp=2025-04-10 05:39:51, systemid=3, lat=35.0702064, lon=129.088485, alt=29.881, dist_traveled=null, wp_dist=546, dist_to_home=1.3462095741129542E7, vertical_speed=0.051311158, ground_speed=25.377525, wind_vel=0.06274364, airspeed=24.907188, gps_hdop=1.21, roll=0.27, pitch=-2.34, yaw=32.38, ch3percent=65.70, ch9out=0, tot=0.0, toh=0.0, time_in_air=0.0, ch10out=0, ch11out=0, ch12out=0, battery_voltage=0, battery_current=-1, waypoints_count=0, ch3out=1657, waypoints=[], home_location={lon=0.0, lat=0.0}}
[2025-04-10 05:39:52] {GCS_IP=13.213.62.184, timestamp=2025-04-10 05:39:52, systemid=3, lat=35.0703986, lon=129.0886349, alt=29.91, dist_traveled=null, wp_dist=521, dist_to_home=1.3462099063593674E7, vertical_speed=-0.00857619, ground_speed=25.397987, wind_vel=0.0699023, airspeed=24.920645, gps_hdop=1.21, roll=0.34, pitch=-2.50, yaw=32.53, ch3percent=65.70, ch9out=0, tot=0.0, toh=0.0, time_in_air=0.0, ch10out=0, ch11out=0, ch12out=0, battery_voltage=0, battery_current=-1, waypoints_count=0, ch3out=1657, waypoints=[], home_location={lon=0.0, lat=0.0}}
[2025-04-10 05:39:53] {GCS_IP=13.213.62.184, timestamp=2025-04-10 05:39:53, systemid=3, lat=35.0705907, lon=129.0887854, alt=29.934, dist_traveled=null, wp_dist=496, dist_to_home=1.346210244011372E7, vertical_speed=0.04718113, ground_speed=25.409628, wind_vel=0.07773973, airspeed=24.92738, gps_hdop=1.21, roll=0.55, pitch=-2.24, yaw=32.63, ch3percent=65.70, ch9out=0, tot=0.0, toh=0.0, time_in_air=0.0, ch10out=0, ch11out=0, ch12out=0, battery_voltage=0, battery_current=-1, waypoints_count=0, ch3out=1657, waypoints=[], home_location={lon=0.0, lat=0.0}}
[2025-04-10 05:39:54] {GCS_IP=13.213.62.184, timestamp=2025-04-10 05:39:54, systemid=3, lat=35.0707828, lon=129.0889367, alt=29.952, dist_traveled=null, wp_dist=470, dist_to_home=1.3462105882479142E7, vertical_speed=-0.022068998, ground_speed=25.414314, wind_vel=0.085494876, airspeed=24.917019, gps_hdop=1.21, roll=0.62, pitch=-2.49, yaw=32.80, ch3percent=65.70, ch9out=0, tot=0.0, toh=0.0, time_in_air=0.0, ch10out=0, ch11out=0, ch12out=0, battery_voltage=0, battery_current=-1, waypoints_count=0, ch3out=1657, waypoints=[], home_location={lon=0.0, lat=0.0}}
[2025-04-10 05:39:55] {GCS_IP=13.213.62.184, timestamp=2025-04-10 05:39:55, systemid=3, lat=35.0709746, lon=129.0890888, alt=29.985, dist_traveled=null, wp_dist=445, dist_to_home=1.3462109404798629E7, vertical_speed=0.004681172, ground_speed=25.442005, wind_vel=0.09310956, airspeed=24.955368, gps_hdop=1.21, roll=0.27, pitch=-2.40, yaw=32.93, ch3percent=65.50, ch9out=0, tot=0.0, toh=0.0, time_in_air=0.0, ch10out=0, ch11out=0, ch12out=0, battery_voltage=0, battery_current=-1, waypoints_count=0, ch3out=1655, waypoints=[], home_location={lon=0.0, lat=0.0}}
[2025-04-10 05:39:56] {GCS_IP=13.213.62.184, timestamp=2025-04-10 05:39:56, systemid=3, lat=35.0711663, lon=129.0892414, alt=30.018, dist_traveled=null, wp_dist=419, dist_to_home=1.3462112972925851E7, vertical_speed=0.0074334564, ground_speed=25.450655, wind_vel=0.10006986, airspeed=24.96527, gps_hdop=1.21, roll=0.47, pitch=-2.43, yaw=33.08, ch3percent=65.70, ch9out=0, tot=0.0, toh=0.0, time_in_air=0.0, ch10out=0, ch11out=0, ch12out=0, battery_voltage=0, battery_current=-1, waypoints_count=0, ch3out=1657, waypoints=[], home_location={lon=0.0, lat=0.0}}
[2025-04-10 05:39:57] {GCS_IP=13.213.62.184, timestamp=2025-04-10 05:39:57, systemid=3, lat=35.0713565, lon=129.0893935, alt=30.023, dist_traveled=null, wp_dist=394, dist_to_home=1.3462116570241537E7, vertical_speed=-0.01310026, ground_speed=25.395039, wind_vel=0.10985304, airspeed=24.980782, gps_hdop=1.21, roll=0.15, pitch=-2.46, yaw=33.18, ch3percent=65.60, ch9out=0, tot=0.0, toh=0.0, time_in_air=0.0, ch10out=0, ch11out=0, ch12out=0, battery_voltage=0, battery_current=-1, waypoints_count=0, ch3out=1656, waypoints=[], home_location={lon=0.0, lat=0.0}}
[2025-04-10 05:39:58] {GCS_IP=13.213.62.184, timestamp=2025-04-10 05:39:58, systemid=3, lat=35.0715469, lon=129.0895458, alt=29.994, dist_traveled=null, wp_dist=369, dist_to_home=1.3462120174516866E7, vertical_speed=-0.050176255, ground_speed=25.375917, wind_vel=0.11919704, airspeed=24.95071, gps_hdop=1.21, roll=0.00, pitch=-2.50, yaw=33.24, ch3percent=65.80, ch9out=0, tot=0.0, toh=0.0, time_in_air=0.0, ch10out=0, ch11out=0, ch12out=0, battery_voltage=0, battery_current=-1, waypoints_count=0, ch3out=1658, waypoints=[], home_location={lon=0.0, lat=0.0}}
[2025-04-10 05:39:59] {GCS_IP=13.213.62.184, timestamp=2025-04-10 05:39:59, systemid=3, lat=35.0717383, lon=129.0896992, alt=29.996, dist_traveled=null, wp_dist=343, dist_to_home=1.3462123822342103E7, vertical_speed=0.013610802, ground_speed=25.411951, wind_vel=0.12692204, airspeed=24.974083, gps_hdop=1.21, roll=-0.05, pitch=-2.39, yaw=33.21, ch3percent=66.00, ch9out=0, tot=0.0, toh=0.0, time_in_air=0.0, ch10out=0, ch11out=0, ch12out=0, battery_voltage=0, battery_current=-1, waypoints_count=0, ch3out=1660, waypoints=[], home_location={lon=0.0, lat=0.0}}
[2025-04-10 05:40:00] {GCS_IP=13.213.62.184, timestamp=2025-04-10 05:40:00, systemid=3, lat=35.0719298, lon=129.0898524, alt=29.982, dist_traveled=null, wp_dist=318, dist_to_home=1.3462127448842878E7, vertical_speed=-0.017579284, ground_speed=25.447073, wind_vel=0.13433333, airspeed=24.95324, gps_hdop=1.21, roll=0.12, pitch=-2.50, yaw=33.28, ch3percent=65.90, ch9out=0, tot=0.0, toh=0.0, time_in_air=0.0, ch10out=0, ch11out=0, ch12out=0, battery_voltage=0, battery_current=-1, waypoints_count=0, ch3out=1659, waypoints=[], home_location={lon=0.0, lat=0.0}}
[2025-04-10 05:40:01] {GCS_IP=13.213.62.184, timestamp=2025-04-10 05:40:01, systemid=3, lat=35.0721213, lon=129.0900058, alt=29.967, dist_traveled=null, wp_dist=292, dist_to_home=1.3462131091707883E7, vertical_speed=-0.0051524346, ground_speed=25.481962, wind_vel=0.14091378, airspeed=25.037634, gps_hdop=1.21, roll=0.11, pitch=-2.40, yaw=33.34, ch3percent=65.90, ch9out=0, tot=0.0, toh=0.0, time_in_air=0.0, ch10out=0, ch11out=0, ch12out=0, battery_voltage=0, battery_current=-1, waypoints_count=0, ch3out=1659, waypoints=[], home_location={lon=0.0, lat=0.0}}
[2025-04-10 05:40:02] {GCS_IP=13.213.62.184, timestamp=2025-04-10 05:40:02, systemid=3, lat=35.072313, lon=129.0901599, alt=30.006, dist_traveled=null, wp_dist=267, dist_to_home=1.3462134782761373E7, vertical_speed=0.006423618, ground_speed=25.474186, wind_vel=0.14818253, airspeed=25.023518, gps_hdop=1.21, roll=-0.06, pitch=-2.45, yaw=33.35, ch3percent=65.60, ch9out=0, tot=0.0, toh=0.0, time_in_air=0.0, ch10out=0, ch11out=0, ch12out=0, battery_voltage=0, battery_current=-1, waypoints_count=0, ch3out=1656, waypoints=[], home_location={lon=0.0, lat=0.0}}
[2025-04-10 05:40:03] {GCS_IP=13.213.62.184, timestamp=2025-04-10 05:40:03, systemid=3, lat=35.072504, lon=129.0903134, alt=30.031, dist_traveled=null, wp_dist=241, dist_to_home=1.3462138457132727E7, vertical_speed=0.06631664, ground_speed=25.454962, wind_vel=0.15601613, airspeed=24.99716, gps_hdop=1.21, roll=-0.00, pitch=-2.27, yaw=33.27, ch3percent=65.30, ch9out=0, tot=0.0, toh=0.0, time_in_air=0.0, ch10out=0, ch11out=0, ch12out=0, battery_voltage=0, battery_current=-1, waypoints_count=0, ch3out=1653, waypoints=[], home_location={lon=0.0, lat=0.0}}
[2025-04-10 05:40:04] {GCS_IP=13.213.62.184, timestamp=2025-04-10 05:40:04, systemid=3, lat=35.0726958, lon=129.0904671, alt=30.031, dist_traveled=null, wp_dist=216, dist_to_home=1.346214211024008E7, vertical_speed=-0.015653372, ground_speed=25.447247, wind_vel=0.16279446, airspeed=24.966799, gps_hdop=1.21, roll=-0.08, pitch=-2.44, yaw=33.28, ch3percent=65.60, ch9out=0, tot=0.0, toh=0.0, time_in_air=0.0, ch10out=0, ch11out=0, ch12out=0, battery_voltage=0, battery_current=-1, waypoints_count=0, ch3out=1656, waypoints=[], home_location={lon=0.0, lat=0.0}}
[2025-04-10 05:40:05] {GCS_IP=13.213.62.184, timestamp=2025-04-10 05:40:05, systemid=3, lat=35.0728864, lon=129.0906198, alt=30.025, dist_traveled=null, wp_dist=190, dist_to_home=1.3462145737199634E7, vertical_speed=-0.0038367822, ground_speed=25.440228, wind_vel=0.16946954, airspeed=24.955069, gps_hdop=1.21, roll=0.24, pitch=-2.40, yaw=33.31, ch3percent=65.80, ch9out=0, tot=0.0, toh=0.0, time_in_air=0.0, ch10out=0, ch11out=0, ch12out=0, battery_voltage=0, battery_current=-1, waypoints_count=0, ch3out=1658, waypoints=[], home_location={lon=0.0, lat=0.0}}
[2025-04-10 05:40:06] {GCS_IP=13.213.62.184, timestamp=2025-04-10 05:40:06, systemid=3, lat=35.0730782, lon=129.0907739, alt=30.015, dist_traveled=null, wp_dist=165, dist_to_home=1.346214942303443E7, vertical_speed=-0.023539545, ground_speed=25.459927, wind_vel=0.17566863, airspeed=24.99913, gps_hdop=1.21, roll=-0.07, pitch=-2.46, yaw=33.36, ch3percent=65.60, ch9out=0, tot=0.0, toh=0.0, time_in_air=0.0, ch10out=0, ch11out=0, ch12out=0, battery_voltage=0, battery_current=-1, waypoints_count=0, ch3out=1656, waypoints=[], home_location={lon=0.0, lat=0.0}}
[2025-04-10 05:40:07] {GCS_IP=13.213.62.184, timestamp=2025-04-10 05:40:07, systemid=3, lat=35.0732699, lon=129.0909275, alt=30.013, dist_traveled=null, wp_dist=139, dist_to_home=1.3462153072213165E7, vertical_speed=-0.006930391, ground_speed=25.460611, wind_vel=0.18187328, airspeed=25.023777, gps_hdop=1.21, roll=-0.07, pitch=-2.45, yaw=33.39, ch3percent=65.60, ch9out=0, tot=0.0, toh=0.0, time_in_air=0.0, ch10out=0, ch11out=0, ch12out=0, battery_voltage=0, battery_current=-1, waypoints_count=0, ch3out=1656, waypoints=[], home_location={lon=0.0, lat=0.0}}
[2025-04-10 05:40:08] {GCS_IP=13.213.62.184, timestamp=2025-04-10 05:40:08, systemid=3, lat=35.0734613, lon=129.0910805, alt=30.019, dist_traveled=null, wp_dist=114, dist_to_home=1.3462156685897779E7, vertical_speed=0.012568589, ground_speed=25.448025, wind_vel=0.18840365, airspeed=25.016388, gps_hdop=1.21, roll=0.24, pitch=-2.42, yaw=33.35, ch3percent=65.70, ch9out=0, tot=0.0, toh=0.0, time_in_air=0.0, ch10out=0, ch11out=0, ch12out=0, battery_voltage=0, battery_current=-1, waypoints_count=0, ch3out=1657, waypoints=[], home_location={lon=0.0, lat=0.0}}
[2025-04-10 05:40:09] {GCS_IP=13.213.62.184, timestamp=2025-04-10 05:40:09, systemid=3, lat=35.0736526, lon=129.0912338, alt=30.009, dist_traveled=null, wp_dist=88, dist_to_home=1.3462160328896051E7, vertical_speed=-0.001823851, ground_speed=25.444351, wind_vel=0.19475713, airspeed=24.97858, gps_hdop=1.21, roll=0.12, pitch=-2.35, yaw=33.44, ch3percent=65.70, ch9out=0, tot=0.0, toh=0.0, time_in_air=0.0, ch10out=0, ch11out=0, ch12out=0, battery_voltage=0, battery_current=-1, waypoints_count=0, ch3out=1657, waypoints=[], home_location={lon=0.0, lat=0.0}}
[2025-04-10 05:40:10] {GCS_IP=13.213.62.184, timestamp=2025-04-10 05:40:10, systemid=3, lat=35.0738436, lon=129.0913872, alt=30.021, dist_traveled=null, wp_dist=63, dist_to_home=1.3462163994123323E7, vertical_speed=-0.017267937, ground_speed=25.451532, wind_vel=0.20073688, airspeed=25.004107, gps_hdop=1.21, roll=-0.13, pitch=-2.45, yaw=33.41, ch3percent=65.60, ch9out=0, tot=0.0, toh=0.0, time_in_air=0.0, ch10out=0, ch11out=0, ch12out=0, battery_voltage=0, battery_current=-1, waypoints_count=0, ch3out=1656, waypoints=[], home_location={lon=0.0, lat=0.0}}
[2025-04-10 05:40:11] {GCS_IP=13.213.62.184, timestamp=2025-04-10 05:40:11, systemid=3, lat=35.0740341, lon=129.0915415, alt=30.052, dist_traveled=null, wp_dist=648, dist_to_home=1.3462167756955137E7, vertical_speed=-0.046732824, ground_speed=25.404686, wind_vel=0.20688981, airspeed=24.913998, gps_hdop=1.21, roll=47.24, pitch=-4.47, yaw=38.00, ch3percent=73.20, ch9out=0, tot=0.0, toh=0.0, time_in_air=0.0, ch10out=0, ch11out=0, ch12out=0, battery_voltage=0, battery_current=-1, waypoints_count=0, ch3out=1732, waypoints=[], home_location={lon=0.0, lat=0.0}}
[2025-04-10 05:40:12] {GCS_IP=13.213.62.184, timestamp=2025-04-10 05:40:12, systemid=3, lat=35.0741314, lon=129.0917732, alt=30.578, dist_traveled=null, wp_dist=665, dist_to_home=1.3462182285990749E7, vertical_speed=2.1256435, ground_speed=23.966143, wind_vel=0.2132306, airspeed=24.25413, gps_hdop=1.21, roll=52.83, pitch=5.24, yaw=85.09, ch3percent=25.90, ch9out=0, tot=0.0, toh=0.0, time_in_air=0.0, ch10out=0, ch11out=0, ch12out=0, battery_voltage=0, battery_current=-1, waypoints_count=0, ch3out=1259, waypoints=[], home_location={lon=0.0, lat=0.0}}
[2025-04-10 05:40:13] {GCS_IP=13.213.62.184, timestamp=2025-04-10 05:40:13, systemid=3, lat=35.0741162, lon=129.0920271, alt=30.383, dist_traveled=null, wp_dist=671, dist_to_home=1.3462203937388184E7, vertical_speed=-1.6900929, ground_speed=23.005512, wind_vel=0.21598265, airspeed=22.717216, gps_hdop=1.21, roll=54.82, pitch=-2.91, yaw=102.51, ch3percent=45.30, ch9out=0, tot=0.0, toh=0.0, time_in_air=0.0, ch10out=0, ch11out=0, ch12out=0, battery_voltage=0, battery_current=-1, waypoints_count=0, ch3out=1453, waypoints=[], home_location={lon=0.0, lat=0.0}}
[2025-04-10 05:40:14] {GCS_IP=13.213.62.184, timestamp=2025-04-10 05:40:14, systemid=3, lat=35.0740164, lon=129.0922449, alt=28.72, dist_traveled=null, wp_dist=668, dist_to_home=1.3462226591490254E7, vertical_speed=-1.3788788, ground_speed=23.27508, wind_vel=0.21604659, airspeed=22.77007, gps_hdop=1.21, roll=55.26, pitch=-1.82, yaw=133.83, ch3percent=59.80, ch9out=0, tot=0.0, toh=0.0, time_in_air=0.0, ch10out=0, ch11out=0, ch12out=0, battery_voltage=0, battery_current=-1, waypoints_count=0, ch3out=1598, waypoints=[], home_location={lon=0.0, lat=0.0}}
[2025-04-10 05:40:15] {GCS_IP=13.213.62.184, timestamp=2025-04-10 05:40:15, systemid=3, lat=35.0738334, lon=129.0923662, alt=27.78, dist_traveled=null, wp_dist=654, dist_to_home=1.3462245201942915E7, vertical_speed=-0.5206388, ground_speed=23.770834, wind_vel=0.21213453, airspeed=23.19512, gps_hdop=1.21, roll=53.84, pitch=-0.06, yaw=165.29, ch3percent=64.70, ch9out=0, tot=0.0, toh=0.0, time_in_air=0.0, ch10out=0, ch11out=0, ch12out=0, battery_voltage=0, battery_current=-1, waypoints_count=0, ch3out=1647, waypoints=[], home_location={lon=0.0, lat=0.0}}
[2025-04-10 05:40:16] {GCS_IP=13.213.62.184, timestamp=2025-04-10 05:40:16, systemid=3, lat=35.0736203, lon=129.0923645, alt=27.344, dist_traveled=null, wp_dist=632, dist_to_home=1.3462255085747274E7, vertical_speed=-0.40973577, ground_speed=24.05544, wind_vel=0.2037085, airspeed=23.535934, gps_hdop=1.21, roll=47.64, pitch=-0.57, yaw=-170.20, ch3percent=61.20, ch9out=0, tot=0.0, toh=0.0, time_in_air=0.0, ch10out=0, ch11out=0, ch12out=0, battery_voltage=0, battery_current=-1, waypoints_count=0, ch3out=1612, waypoints=[], home_location={lon=0.0, lat=0.0}}
[2025-04-10 05:40:17] {GCS_IP=13.213.62.184, timestamp=2025-04-10 05:40:17, systemid=3, lat=35.0734194, lon=129.0922683, alt=26.736, dist_traveled=null, wp_dist=608, dist_to_home=1.3462256603163714E7, vertical_speed=-0.68720984, ground_speed=24.219158, wind_vel=0.19182685, airspeed=23.736593, gps_hdop=1.21, roll=34.80, pitch=-2.30, yaw=-153.31, ch3percent=58.50, ch9out=0, tot=0.0, toh=0.0, time_in_air=0.0, ch10out=0, ch11out=0, ch12out=0, battery_voltage=0, battery_current=-1, waypoints_count=0, ch3out=1585, waypoints=[], home_location={lon=0.0, lat=0.0}}
[2025-04-10 05:40:18] {GCS_IP=13.213.62.184, timestamp=2025-04-10 05:40:18, systemid=3, lat=35.0732397, lon=129.0921172, alt=25.996, dist_traveled=null, wp_dist=584, dist_to_home=1.3462252596200699E7, vertical_speed=-0.66847545, ground_speed=24.403486, wind_vel=0.17822237, airspeed=23.888662, gps_hdop=1.21, roll=15.74, pitch=-3.38, yaw=-143.45, ch3percent=60.90, ch9out=0, tot=0.0, toh=0.0, time_in_air=0.0, ch10out=0, ch11out=0, ch12out=0, battery_voltage=0, battery_current=-1, waypoints_count=0, ch3out=1609, waypoints=[], home_location={lon=0.0, lat=0.0}}
[2025-04-10 05:40:19] {GCS_IP=13.213.62.184, timestamp=2025-04-10 05:40:19, systemid=3, lat=35.0730708, lon=129.0919442, alt=25.585, dist_traveled=null, wp_dist=561, dist_to_home=1.3462246275223466E7, vertical_speed=-0.13688031, ground_speed=24.658766, wind_vel=0.16369677, airspeed=24.100384, gps_hdop=1.21, roll=-0.56, pitch=-2.58, yaw=-139.89, ch3percent=65.80, ch9out=0, tot=0.0, toh=0.0, time_in_air=0.0, ch10out=0, ch11out=0, ch12out=0, battery_voltage=0, battery_current=-1, waypoints_count=0, ch3out=1658, waypoints=[], home_location={lon=0.0, lat=0.0}}
[2025-04-10 05:40:20] {GCS_IP=13.213.62.184, timestamp=2025-04-10 05:40:20, systemid=3, lat=35.072899, lon=129.09177, alt=25.694, dist_traveled=null, wp_dist=537, dist_to_home=1.3462239991577448E7, vertical_speed=0.31559137, ground_speed=24.932684, wind_vel=0.15015481, airspeed=24.355118, gps_hdop=1.21, roll=-9.55, pitch=-1.49, yaw=-141.30, ch3percent=69.00, ch9out=0, tot=0.0, toh=0.0, time_in_air=0.0, ch10out=0, ch11out=0, ch12out=0, battery_voltage=0, battery_current=-1, waypoints_count=0, ch3out=1690, waypoints=[], home_location={lon=0.0, lat=0.0}}
[2025-04-10 05:40:21] {GCS_IP=13.213.62.184, timestamp=2025-04-10 05:40:21, systemid=3, lat=35.072718, lon=129.0916071, alt=26.168, dist_traveled=null, wp_dist=513, dist_to_home=1.3462235072357262E7, vertical_speed=0.527808, ground_speed=25.095665, wind_vel=0.13610828, airspeed=24.551107, gps_hdop=1.21, roll=-12.54, pitch=-1.01, yaw=-144.93, ch3percent=69.70, ch9out=0, tot=0.0, toh=0.0, time_in_air=0.0, ch10out=0, ch11out=0, ch12out=0, battery_voltage=0, battery_current=-1, waypoints_count=0, ch3out=1697, waypoints=[], home_location={lon=0.0, lat=0.0}}
[2025-04-10 05:40:22] {GCS_IP=13.213.62.184, timestamp=2025-04-10 05:40:22, systemid=3, lat=35.0725277, lon=129.0914614, alt=26.73, dist_traveled=null, wp_dist=489, dist_to_home=1.346223200879099E7, vertical_speed=0.5394305, ground_speed=25.153765, wind_vel=0.119949296, airspeed=24.694288, gps_hdop=1.21, roll=-12.94, pitch=-0.89, yaw=-149.31, ch3percent=69.70, ch9out=0, tot=0.0, toh=0.0, time_in_air=0.0, ch10out=0, ch11out=0, ch12out=0, battery_voltage=0, battery_current=-1, waypoints_count=0, ch3out=1697, waypoints=[], home_location={lon=0.0, lat=0.0}}
[2025-04-10 05:40:23] {GCS_IP=13.213.62.184, timestamp=2025-04-10 05:40:23, systemid=3, lat=35.0723279, lon=129.0913334, alt=27.312, dist_traveled=null, wp_dist=464, dist_to_home=1.346223085152368E7, vertical_speed=0.4953655, ground_speed=25.19557, wind_vel=0.10634163, airspeed=24.72974, gps_hdop=1.21, roll=-11.06, pitch=-1.09, yaw=-153.48, ch3percent=68.70, ch9out=0, tot=0.0, toh=0.0, time_in_air=0.0, ch10out=0, ch11out=0, ch12out=0, battery_voltage=0, battery_current=-1, waypoints_count=0, ch3out=1687, waypoints=[], home_location={lon=0.0, lat=0.0}}
[2025-04-10 05:40:24] {GCS_IP=13.213.62.184, timestamp=2025-04-10 05:40:24, systemid=3, lat=35.0721204, lon=129.0912204, alt=27.811, dist_traveled=null, wp_dist=439, dist_to_home=1.3462231293250177E7, vertical_speed=0.41006222, ground_speed=25.243801, wind_vel=0.09486096, airspeed=24.814362, gps_hdop=1.21, roll=-8.62, pitch=-1.36, yaw=-156.87, ch3percent=67.60, ch9out=0, tot=0.0, toh=0.0, time_in_air=0.0, ch10out=0, ch11out=0, ch12out=0, battery_voltage=0, battery_current=-1, waypoints_count=0, ch3out=1676, waypoints=[], home_location={lon=0.0, lat=0.0}}
[2025-04-10 05:40:25] {GCS_IP=13.213.62.184, timestamp=2025-04-10 05:40:25, systemid=3, lat=35.0719086, lon=129.0911202, alt=28.197, dist_traveled=null, wp_dist=413, dist_to_home=1.346223299263937E7, vertical_speed=0.30164903, ground_speed=25.277945, wind_vel=0.0867589, airspeed=24.832495, gps_hdop=1.21, roll=-5.92, pitch=-1.62, yaw=-159.38, ch3percent=67.40, ch9out=0, tot=0.0, toh=0.0, time_in_air=0.0, ch10out=0, ch11out=0, ch12out=0, battery_voltage=0, battery_current=-1, waypoints_count=0, ch3out=1674, waypoints=[], home_location={lon=0.0, lat=0.0}}
[2025-04-10 05:40:26] {GCS_IP=13.213.62.184, timestamp=2025-04-10 05:40:26, systemid=3, lat=35.0716937, lon=129.0910283, alt=28.524, dist_traveled=null, wp_dist=388, dist_to_home=1.34622355221741E7, vertical_speed=0.2534832, ground_speed=25.294777, wind_vel=0.08144355, airspeed=24.889414, gps_hdop=1.21, roll=-3.49, pitch=-1.83, yaw=-161.00, ch3percent=66.70, ch9out=0, tot=0.0, toh=0.0, time_in_air=0.0, ch10out=0, ch11out=0, ch12out=0, battery_voltage=0, battery_current=-1, waypoints_count=0, ch3out=1667, waypoints=[], home_location={lon=0.0, lat=0.0}}
[2025-04-10 05:40:27] {GCS_IP=13.213.62.184, timestamp=2025-04-10 05:40:27, systemid=3, lat=35.0714772, lon=129.0909415, alt=28.784, dist_traveled=null, wp_dist=363, dist_to_home=1.3462238547424734E7, vertical_speed=0.2531376, ground_speed=25.325058, wind_vel=0.07944904, airspeed=24.86272, gps_hdop=1.21, roll=-1.83, pitch=-1.87, yaw=-162.07, ch3percent=66.70, ch9out=0, tot=0.0, toh=0.0, time_in_air=0.0, ch10out=0, ch11out=0, ch12out=0, battery_voltage=0, battery_current=-1, waypoints_count=0, ch3out=1667, waypoints=[], home_location={lon=0.0, lat=0.0}}
[2025-04-10 05:40:28] {GCS_IP=13.213.62.184, timestamp=2025-04-10 05:40:28, systemid=3, lat=35.0712597, lon=129.0908574, alt=29.016, dist_traveled=null, wp_dist=337, dist_to_home=1.3462241842261251E7, vertical_speed=0.16929495, ground_speed=25.349152, wind_vel=0.080199525, airspeed=24.872496, gps_hdop=1.21, roll=-0.07, pitch=-2.03, yaw=-162.54, ch3percent=66.40, ch9out=0, tot=0.0, toh=0.0, time_in_air=0.0, ch10out=0, ch11out=0, ch12out=0, battery_voltage=0, battery_current=-1, waypoints_count=0, ch3out=1664, waypoints=[], home_location={lon=0.0, lat=0.0}}
[2025-04-10 05:40:29] {GCS_IP=13.213.62.184, timestamp=2025-04-10 05:40:29, systemid=3, lat=35.0710422, lon=129.0907738, alt=29.209, dist_traveled=null, wp_dist=312, dist_to_home=1.346224517823031E7, vertical_speed=0.11547358, ground_speed=25.367908, wind_vel=0.08295324, airspeed=24.862556, gps_hdop=1.21, roll=0.58, pitch=-2.12, yaw=-162.48, ch3percent=66.40, ch9out=0, tot=0.0, toh=0.0, time_in_air=0.0, ch10out=0, ch11out=0, ch12out=0, battery_voltage=0, battery_current=-1, waypoints_count=0, ch3out=1664, waypoints=[], home_location={lon=0.0, lat=0.0}}
[2025-04-10 05:40:30] {GCS_IP=13.213.62.184, timestamp=2025-04-10 05:40:30, systemid=3, lat=35.0708248, lon=129.0906893, alt=29.374, dist_traveled=null, wp_dist=287, dist_to_home=1.3462248435178796E7, vertical_speed=0.13446411, ground_speed=25.373022, wind_vel=0.08730048, airspeed=24.916779, gps_hdop=1.21, roll=1.10, pitch=-2.15, yaw=-162.24, ch3percent=66.10, ch9out=0, tot=0.0, toh=0.0, time_in_air=0.0, ch10out=0, ch11out=0, ch12out=0, battery_voltage=0, battery_current=-1, waypoints_count=0, ch3out=1661, waypoints=[], home_location={lon=0.0, lat=0.0}}
[2025-04-10 05:40:31] {GCS_IP=13.213.62.184, timestamp=2025-04-10 05:40:31, systemid=3, lat=35.0706081, lon=129.0906032, alt=29.514, dist_traveled=null, wp_dist=261, dist_to_home=1.346225152716044E7, vertical_speed=0.123268485, ground_speed=25.361923, wind_vel=0.092888765, airspeed=24.918644, gps_hdop=1.21, roll=1.07, pitch=-2.15, yaw=-161.82, ch3percent=65.90, ch9out=0, tot=0.0, toh=0.0, time_in_air=0.0, ch10out=0, ch11out=0, ch12out=0, battery_voltage=0, battery_current=-1, waypoints_count=0, ch3out=1659, waypoints=[], home_location={lon=0.0, lat=0.0}}
[2025-04-10 05:40:32] {GCS_IP=13.213.62.184, timestamp=2025-04-10 05:40:32, systemid=3, lat=35.0703918, lon=129.0905156, alt=29.614, dist_traveled=null, wp_dist=236, dist_to_home=1.3462254476530736E7, vertical_speed=0.073641874, ground_speed=25.363522, wind_vel=0.099277474, airspeed=24.915318, gps_hdop=1.21, roll=0.95, pitch=-2.22, yaw=-161.50, ch3percent=66.00, ch9out=0, tot=0.0, toh=0.0, time_in_air=0.0, ch10out=0, ch11out=0, ch12out=0, battery_voltage=0, battery_current=-1, waypoints_count=0, ch3out=1660, waypoints=[], home_location={lon=0.0, lat=0.0}}
[2025-04-10 05:40:34] {GCS_IP=13.213.62.184, timestamp=2025-04-10 05:40:33, systemid=3, lat=35.0701756, lon=129.0904264, alt=29.707, dist_traveled=null, wp_dist=210, dist_to_home=1.3462257289151825E7, vertical_speed=0.046133008, ground_speed=25.362816, wind_vel=0.106014036, airspeed=24.896465, gps_hdop=1.21, roll=1.01, pitch=-2.34, yaw=-161.12, ch3percent=66.10, ch9out=0, tot=0.0, toh=0.0, time_in_air=0.0, ch10out=0, ch11out=0, ch12out=0, battery_voltage=0, battery_current=-1, waypoints_count=0, ch3out=1661, waypoints=[], home_location={lon=0.0, lat=0.0}}
[2025-04-10 05:40:35] {GCS_IP=13.213.62.184, timestamp=2025-04-10 05:40:34, systemid=3, lat=35.0699611, lon=129.090336, alt=29.771, dist_traveled=null, wp_dist=185, dist_to_home=1.3462259922756527E7, vertical_speed=0.043658476, ground_speed=25.336477, wind_vel=0.11409125, airspeed=24.92264, gps_hdop=1.21, roll=0.50, pitch=-2.22, yaw=-160.63, ch3percent=65.90, ch9out=0, tot=0.0, toh=0.0, time_in_air=0.0, ch10out=0, ch11out=0, ch12out=0, battery_voltage=0, battery_current=-1, waypoints_count=0, ch3out=1659, waypoints=[], home_location={lon=0.0, lat=0.0}}
[2025-04-10 05:40:36] {GCS_IP=13.213.62.184, timestamp=2025-04-10 05:40:35, systemid=3, lat=35.0697461, lon=129.0902443, alt=29.846, dist_traveled=null, wp_dist=160, dist_to_home=1.3462262472569382E7, vertical_speed=0.07216123, ground_speed=25.32846, wind_vel=0.122085795, airspeed=24.925638, gps_hdop=1.21, roll=-0.00, pitch=-2.26, yaw=-160.59, ch3percent=65.90, ch9out=0, tot=0.0, toh=0.0, time_in_air=0.0, ch10out=0, ch11out=0, ch12out=0, battery_voltage=0, battery_current=-1, waypoints_count=0, ch3out=1659, waypoints=[], home_location={lon=0.0, lat=0.0}}
[2025-04-10 05:40:37] {GCS_IP=13.213.62.184, timestamp=2025-04-10 05:40:36, systemid=3, lat=35.069531, lon=129.0901525, alt=29.891, dist_traveled=null, wp_dist=135, dist_to_home=1.3462265018735657E7, vertical_speed=-0.0012310748, ground_speed=25.352924, wind_vel=0.12990868, airspeed=24.930506, gps_hdop=1.21, roll=-0.12, pitch=-2.36, yaw=-160.59, ch3percent=65.90, ch9out=0, tot=0.0, toh=0.0, time_in_air=0.0, ch10out=0, ch11out=0, ch12out=0, battery_voltage=0, battery_current=-1, waypoints_count=0, ch3out=1659, waypoints=[], home_location={lon=0.0, lat=0.0}}
[2025-04-10 05:40:38] {GCS_IP=13.213.62.184, timestamp=2025-04-10 05:40:37, systemid=3, lat=35.0693147, lon=129.0900603, alt=29.936, dist_traveled=null, wp_dist=109, dist_to_home=1.3462267588249706E7, vertical_speed=0.015759017, ground_speed=25.378153, wind_vel=0.13717526, airspeed=24.950317, gps_hdop=1.21, roll=0.09, pitch=-2.41, yaw=-160.64, ch3percent=65.80, ch9out=0, tot=0.0, toh=0.0, time_in_air=0.0, ch10out=0, ch11out=0, ch12out=0, battery_voltage=0, battery_current=-1, waypoints_count=0, ch3out=1658, waypoints=[], home_location={lon=0.0, lat=0.0}}
[2025-04-10 05:40:39] {GCS_IP=13.213.62.184, timestamp=2025-04-10 05:40:38, systemid=3, lat=35.0690996, lon=129.0899687, alt=29.973, dist_traveled=null, wp_dist=84, dist_to_home=1.3462270150702396E7, vertical_speed=0.033615045, ground_speed=25.389307, wind_vel=0.14473826, airspeed=24.934725, gps_hdop=1.21, roll=0.20, pitch=-2.40, yaw=-160.60, ch3percent=65.50, ch9out=0, tot=0.0, toh=0.0, time_in_air=0.0, ch10out=0, ch11out=0, ch12out=0, battery_voltage=0, battery_current=-1, waypoints_count=0, ch3out=1655, waypoints=[], home_location={lon=0.0, lat=0.0}}
[2025-04-10 05:40:40] {GCS_IP=13.213.62.184, timestamp=2025-04-10 05:40:39, systemid=3, lat=35.0688839, lon=129.0898768, alt=30.01, dist_traveled=null, wp_dist=58, dist_to_home=1.3462272716530195E7, vertical_speed=0.026411992, ground_speed=25.397251, wind_vel=0.15180627, airspeed=24.94431, gps_hdop=1.21, roll=0.13, pitch=-2.47, yaw=-160.55, ch3percent=65.60, ch9out=0, tot=0.0, toh=0.0, time_in_air=0.0, ch10out=0, ch11out=0, ch12out=0, battery_voltage=0, battery_current=-1, waypoints_count=0, ch3out=1656, waypoints=[], home_location={lon=0.0, lat=0.0}}
[2025-04-10 05:40:41] {GCS_IP=13.213.62.184, timestamp=2025-04-10 05:40:40, systemid=3, lat=35.0686671, lon=129.0897843, alt=30.038, dist_traveled=null, wp_dist=33, dist_to_home=1.3462275284507053E7, vertical_speed=-0.010251315, ground_speed=25.428747, wind_vel=0.15806949, airspeed=24.945932, gps_hdop=1.21, roll=0.07, pitch=-2.53, yaw=-160.62, ch3percent=65.50, ch9out=0, tot=0.0, toh=0.0, time_in_air=0.0, ch10out=0, ch11out=0, ch12out=0, battery_voltage=0, battery_current=-1, waypoints_count=0, ch3out=1655, waypoints=[], home_location={lon=0.0, lat=0.0}}
[2025-04-10 05:40:42] {GCS_IP=13.213.62.184, timestamp=2025-04-10 05:40:41, systemid=3, lat=35.0684552, lon=129.0896814, alt=30.029, dist_traveled=null, wp_dist=263, dist_to_home=1.346227676426159E7, vertical_speed=0.1306671, ground_speed=25.563131, wind_vel=0.16217707, airspeed=24.96532, gps_hdop=1.21, roll=44.00, pitch=1.09, yaw=-152.84, ch3percent=79.70, ch9out=0, tot=0.0, toh=0.0, time_in_air=0.0, ch10out=0, ch11out=0, ch12out=0, battery_voltage=0, battery_current=-1, waypoints_count=0, ch3out=1797, waypoints=[], home_location={lon=0.0, lat=0.0}}
