[2025-04-10 04:38:08] {GCS_IP=13.213.62.184, timestamp=2025-04-10 04:38:08, systemid=3, lat=35.0674927, lon=129.086094, alt=31.895, dist_traveled=null, wp_dist=919, dist_to_home=1.3462026175565667E7, vertical_speed=-0.6590012, ground_speed=25.542599, wind_vel=0.19297527, airspeed=25.180548, gps_hdop=1.21, roll=46.40, pitch=-1.66, yaw=6.71, ch3percent=59.70, ch9out=0, tot=0.0, toh=0.0, time_in_air=0.0, ch10out=0, ch11out=0, ch12out=0, battery_voltage=0, battery_current=-1, waypoints_count=0, ch3out=1597}
[2025-04-10 04:38:10] {GCS_IP=13.213.62.184, timestamp=2025-04-10 04:38:09, systemid=3, lat=35.0677081, lon=129.0861794, alt=31.023, dist_traveled=null, wp_dist=895, dist_to_home=1.3462023089553729E7, vertical_speed=-1.002894, ground_speed=25.274899, wind_vel=0.18045756, airspeed=24.963171, gps_hdop=1.21, roll=37.29, pitch=-3.01, yaw=22.89, ch3percent=57.00, ch9out=0, tot=0.0, toh=0.0, time_in_air=0.0, ch10out=0, ch11out=0, ch12out=0, battery_voltage=0, battery_current=-1, waypoints_count=0, ch3out=1570, waypoints=[], home_location={lon=0.0, lat=0.0}}
[2025-04-10 04:38:11] {GCS_IP=13.213.62.184, timestamp=2025-04-10 04:38:10, systemid=3, lat=35.0679016, lon=129.0863258, alt=29.86, dist_traveled=null, wp_dist=870, dist_to_home=1.34620260640065E7, vertical_speed=-1.0212249, ground_speed=25.26641, wind_vel=0.1672375, airspeed=24.850746, gps_hdop=1.21, roll=25.00, pitch=-3.75, yaw=34.44, ch3percent=58.60, ch9out=0, tot=0.0, toh=0.0, time_in_air=0.0, ch10out=0, ch11out=0, ch12out=0, battery_voltage=0, battery_current=-1, waypoints_count=0, ch3out=1586, waypoints=[], home_location={lon=0.0, lat=0.0}}
[2025-04-10 04:38:12] {GCS_IP=13.213.62.184, timestamp=2025-04-10 04:38:11, systemid=3, lat=35.0680739, lon=129.0865055, alt=28.96, dist_traveled=null, wp_dist=845, dist_to_home=1.3462032781537598E7, vertical_speed=-0.664896, ground_speed=25.253939, wind_vel=0.15097864, airspeed=24.81057, gps_hdop=1.21, roll=11.26, pitch=-3.58, yaw=41.40, ch3percent=61.40, ch9out=0, tot=0.0, toh=0.0, time_in_air=0.0, ch10out=0, ch11out=0, ch12out=0, battery_voltage=0, battery_current=-1, waypoints_count=0, ch3out=1614, waypoints=[], home_location={lon=0.0, lat=0.0}}
[2025-04-10 04:38:13] {GCS_IP=13.213.62.184, timestamp=2025-04-10 04:38:12, systemid=3, lat=35.0682365, lon=129.0866998, alt=28.391, dist_traveled=null, wp_dist=820, dist_to_home=1.3462041159151936E7, vertical_speed=-0.30315563, ground_speed=25.343683, wind_vel=0.13697053, airspeed=24.84675, gps_hdop=1.21, roll=1.13, pitch=-2.93, yaw=43.95, ch3percent=65.00, ch9out=0, tot=0.0, toh=0.0, time_in_air=0.0, ch10out=0, ch11out=0, ch12out=0, battery_voltage=0, battery_current=-1, waypoints_count=0, ch3out=1650, waypoints=[], home_location={lon=0.0, lat=0.0}}
[2025-04-10 04:38:14] {GCS_IP=13.213.62.184, timestamp=2025-04-10 04:38:13, systemid=3, lat=35.0683996, lon=129.0868977, alt=28.221, dist_traveled=null, wp_dist=795, dist_to_home=1.3462049810012154E7, vertical_speed=0.074207775, ground_speed=25.479284, wind_vel=0.1251566, airspeed=24.933455, gps_hdop=1.21, roll=-4.75, pitch=-2.12, yaw=43.57, ch3percent=67.20, ch9out=0, tot=0.0, toh=0.0, time_in_air=0.0, ch10out=0, ch11out=0, ch12out=0, battery_voltage=0, battery_current=-1, waypoints_count=0, ch3out=1672, waypoints=[], home_location={lon=0.0, lat=0.0}}
[2025-04-10 04:38:15] {GCS_IP=13.213.62.184, timestamp=2025-04-10 04:38:14, systemid=3, lat=35.0685661, lon=129.0870886, alt=28.39, dist_traveled=null, wp_dist=770, dist_to_home=1.3462057723560428E7, vertical_speed=0.19501257, ground_speed=25.469255, wind_vel=0.111814395, airspeed=24.93226, gps_hdop=1.21, roll=-6.96, pitch=-1.82, yaw=41.69, ch3percent=67.50, ch9out=0, tot=0.0, toh=0.0, time_in_air=0.0, ch10out=0, ch11out=0, ch12out=0, battery_voltage=0, battery_current=-1, waypoints_count=0, ch3out=1675, waypoints=[], home_location={lon=0.0, lat=0.0}}
[2025-04-10 04:38:16] {GCS_IP=13.213.62.184, timestamp=2025-04-10 04:38:15, systemid=3, lat=35.0687387, lon=129.0872709, alt=28.666, dist_traveled=null, wp_dist=744, dist_to_home=1.3462064640875664E7, vertical_speed=0.2580472, ground_speed=25.432264, wind_vel=0.09910852, airspeed=24.964018, gps_hdop=1.21, roll=-7.56, pitch=-1.77, yaw=39.18, ch3percent=67.20, ch9out=0, tot=0.0, toh=0.0, time_in_air=0.0, ch10out=0, ch11out=0, ch12out=0, battery_voltage=0, battery_current=-1, waypoints_count=0, ch3out=1672, waypoints=[], home_location={lon=0.0, lat=0.0}}
[2025-04-10 04:38:17] {GCS_IP=13.213.62.184, timestamp=2025-04-10 04:38:16, systemid=3, lat=35.0689163, lon=129.0874427, alt=28.938, dist_traveled=null, wp_dist=719, dist_to_home=1.3462070456998369E7, vertical_speed=0.2247774, ground_speed=25.351892, wind_vel=0.08683311, airspeed=24.966366, gps_hdop=1.21, roll=-6.62, pitch=-1.76, yaw=36.80, ch3percent=66.90, ch9out=0, tot=0.0, toh=0.0, time_in_air=0.0, ch10out=0, ch11out=0, ch12out=0, battery_voltage=0, battery_current=-1, waypoints_count=0, ch3out=1669, waypoints=[], home_location={lon=0.0, lat=0.0}}
[2025-04-10 04:38:18] {GCS_IP=13.213.62.184, timestamp=2025-04-10 04:38:18, systemid=3, lat=35.0691007, lon=129.0876075, alt=29.232, dist_traveled=null, wp_dist=694, dist_to_home=1.3462075375922374E7, vertical_speed=0.20529944, ground_speed=25.350609, wind_vel=0.07998936, airspeed=24.935455, gps_hdop=1.21, roll=-5.13, pitch=-2.01, yaw=34.67, ch3percent=66.30, ch9out=0, tot=0.0, toh=0.0, time_in_air=0.0, ch10out=0, ch11out=0, ch12out=0, battery_voltage=0, battery_current=-1, waypoints_count=0, ch3out=1663, waypoints=[], home_location={lon=0.0, lat=0.0}}
[2025-04-10 04:38:19] {GCS_IP=13.213.62.184, timestamp=2025-04-10 04:38:18, systemid=3, lat=35.0692896, lon=129.0877666, alt=29.494, dist_traveled=null, wp_dist=668, dist_to_home=1.3462079613020215E7, vertical_speed=0.18711072, ground_speed=25.39495, wind_vel=0.07678661, airspeed=24.876896, gps_hdop=1.21, roll=-3.57, pitch=-2.11, yaw=33.35, ch3percent=65.70, ch9out=0, tot=0.0, toh=0.0, time_in_air=0.0, ch10out=0, ch11out=0, ch12out=0, battery_voltage=0, battery_current=-1, waypoints_count=0, ch3out=1657, waypoints=[], home_location={lon=0.0, lat=0.0}}
[2025-04-10 04:38:20] {GCS_IP=13.213.62.184, timestamp=2025-04-10 04:38:19, systemid=3, lat=35.0694789, lon=129.0879194, alt=29.67, dist_traveled=null, wp_dist=643, dist_to_home=1.3462083311629288E7, vertical_speed=0.12018262, ground_speed=25.350443, wind_vel=0.07547089, airspeed=24.874485, gps_hdop=1.21, roll=-2.34, pitch=-2.27, yaw=32.16, ch3percent=65.60, ch9out=0, tot=0.0, toh=0.0, time_in_air=0.0, ch10out=0, ch11out=0, ch12out=0, battery_voltage=0, battery_current=-1, waypoints_count=0, ch3out=1656, waypoints=[], home_location={lon=0.0, lat=0.0}}
[2025-04-10 04:38:21] {GCS_IP=13.213.62.184, timestamp=2025-04-10 04:38:21, systemid=3, lat=35.0696705, lon=129.0880697, alt=29.767, dist_traveled=null, wp_dist=618, dist_to_home=1.3462086695776578E7, vertical_speed=0.041020133, ground_speed=25.339453, wind_vel=0.07708303, airspeed=24.85609, gps_hdop=1.21, roll=-0.79, pitch=-2.44, yaw=31.53, ch3percent=65.60, ch9out=0, tot=0.0, toh=0.0, time_in_air=0.0, ch10out=0, ch11out=0, ch12out=0, battery_voltage=0, battery_current=-1, waypoints_count=0, ch3out=1656, waypoints=[], home_location={lon=0.0, lat=0.0}}
[2025-04-10 04:38:22] {GCS_IP=13.213.62.184, timestamp=2025-04-10 04:38:22, systemid=3, lat=35.0698624, lon=129.0882186, alt=29.85, dist_traveled=null, wp_dist=593, dist_to_home=1.3462089950234663E7, vertical_speed=0.047817808, ground_speed=25.390493, wind_vel=0.08044339, airspeed=24.860815, gps_hdop=1.21, roll=-0.26, pitch=-2.47, yaw=31.43, ch3percent=65.60, ch9out=0, tot=0.0, toh=0.0, time_in_air=0.0, ch10out=0, ch11out=0, ch12out=0, battery_voltage=0, battery_current=-1, waypoints_count=0, ch3out=1656, waypoints=[], home_location={lon=0.0, lat=0.0}}
[2025-04-10 04:38:23] {GCS_IP=13.213.62.184, timestamp=2025-04-10 04:38:23, systemid=3, lat=35.070055, lon=129.0883677, alt=29.893, dist_traveled=null, wp_dist=567, dist_to_home=1.3462093188139478E7, vertical_speed=0.02596309, ground_speed=25.393929, wind_vel=0.08502894, airspeed=24.895315, gps_hdop=1.21, roll=0.19, pitch=-2.47, yaw=31.48, ch3percent=65.70, ch9out=0, tot=0.0, toh=0.0, time_in_air=0.0, ch10out=0, ch11out=0, ch12out=0, battery_voltage=0, battery_current=-1, waypoints_count=0, ch3out=1657, waypoints=[], home_location={lon=0.0, lat=0.0}}
[2025-04-10 04:38:24] {GCS_IP=13.213.62.184, timestamp=2025-04-10 04:38:24, systemid=3, lat=35.0702471, lon=129.0885171, alt=29.935, dist_traveled=null, wp_dist=542, dist_to_home=1.3462096474172924E7, vertical_speed=-0.0141711505, ground_speed=25.440273, wind_vel=0.09010817, airspeed=24.914162, gps_hdop=1.21, roll=0.29, pitch=-2.56, yaw=31.56, ch3percent=65.90, ch9out=0, tot=0.0, toh=0.0, time_in_air=0.0, ch10out=0, ch11out=0, ch12out=0, battery_voltage=0, battery_current=-1, waypoints_count=0, ch3out=1659, waypoints=[], home_location={lon=0.0, lat=0.0}}
[2025-04-10 04:38:25] {GCS_IP=13.213.62.184, timestamp=2025-04-10 04:38:25, systemid=3, lat=35.0704396, lon=129.0886679, alt=29.975, dist_traveled=null, wp_dist=516, dist_to_home=1.346209985672037E7, vertical_speed=-0.009409574, ground_speed=25.412832, wind_vel=0.09662997, airspeed=24.905495, gps_hdop=1.21, roll=0.35, pitch=-2.51, yaw=31.89, ch3percent=65.40, ch9out=0, tot=0.0, toh=0.0, time_in_air=0.0, ch10out=0, ch11out=0, ch12out=0, battery_voltage=0, battery_current=-1, waypoints_count=0, ch3out=1654, waypoints=[], home_location={lon=0.0, lat=0.0}}
[2025-04-10 04:38:26] {GCS_IP=13.213.62.184, timestamp=2025-04-10 04:38:26, systemid=3, lat=35.0706297, lon=129.0888185, alt=29.965, dist_traveled=null, wp_dist=491, dist_to_home=1.3462103335521635E7, vertical_speed=-0.059369933, ground_speed=25.435791, wind_vel=0.10346978, airspeed=24.94675, gps_hdop=1.21, roll=0.12, pitch=-2.67, yaw=32.08, ch3percent=65.90, ch9out=0, tot=0.0, toh=0.0, time_in_air=0.0, ch10out=0, ch11out=0, ch12out=0, battery_voltage=0, battery_current=-1, waypoints_count=0, ch3out=1659, waypoints=[], home_location={lon=0.0, lat=0.0}}
[2025-04-10 04:38:27] {GCS_IP=13.213.62.184, timestamp=2025-04-10 04:38:27, systemid=3, lat=35.0708218, lon=129.088971, alt=29.966, dist_traveled=null, wp_dist=466, dist_to_home=1.3462106876818784E7, vertical_speed=-0.024712725, ground_speed=25.463518, wind_vel=0.110673204, airspeed=24.989656, gps_hdop=1.21, roll=0.28, pitch=-2.61, yaw=32.09, ch3percent=65.80, ch9out=0, tot=0.0, toh=0.0, time_in_air=0.0, ch10out=0, ch11out=0, ch12out=0, battery_voltage=0, battery_current=-1, waypoints_count=0, ch3out=1658, waypoints=[], home_location={lon=0.0, lat=0.0}}
[2025-04-10 04:38:28] {GCS_IP=13.213.62.184, timestamp=2025-04-10 04:38:28, systemid=3, lat=35.0710145, lon=129.0891249, alt=29.987, dist_traveled=null, wp_dist=440, dist_to_home=1.346211050521952E7, vertical_speed=0.015936602, ground_speed=25.524412, wind_vel=0.11620313, airspeed=24.9458, gps_hdop=1.21, roll=-0.02, pitch=-2.59, yaw=32.32, ch3percent=65.70, ch9out=0, tot=0.0, toh=0.0, time_in_air=0.0, ch10out=0, ch11out=0, ch12out=0, battery_voltage=0, battery_current=-1, waypoints_count=0, ch3out=1657, waypoints=[], home_location={lon=0.0, lat=0.0}}
[2025-04-10 04:38:29] {GCS_IP=13.213.62.184, timestamp=2025-04-10 04:38:29, systemid=3, lat=35.0712056, lon=129.0892783, alt=30.02, dist_traveled=null, wp_dist=415, dist_to_home=1.3462114167509653E7, vertical_speed=0.012631198, ground_speed=25.48284, wind_vel=0.12315145, airspeed=24.959276, gps_hdop=1.21, roll=-0.37, pitch=-2.54, yaw=32.36, ch3percent=65.50, ch9out=0, tot=0.0, toh=0.0, time_in_air=0.0, ch10out=0, ch11out=0, ch12out=0, battery_voltage=0, battery_current=-1, waypoints_count=0, ch3out=1655, waypoints=[], home_location={lon=0.0, lat=0.0}}
[2025-04-10 04:38:30] {GCS_IP=13.213.62.184, timestamp=2025-04-10 04:38:30, systemid=3, lat=35.071397, lon=129.0894321, alt=29.994, dist_traveled=null, wp_dist=389, dist_to_home=1.3462117848547552E7, vertical_speed=0.019970886, ground_speed=25.519468, wind_vel=0.12899458, airspeed=24.964724, gps_hdop=1.21, roll=-0.27, pitch=-2.52, yaw=32.34, ch3percent=65.70, ch9out=0, tot=0.0, toh=0.0, time_in_air=0.0, ch10out=0, ch11out=0, ch12out=0, battery_voltage=0, battery_current=-1, waypoints_count=0, ch3out=1657, waypoints=[], home_location={lon=0.0, lat=0.0}}
[2025-04-10 04:38:31] {GCS_IP=13.213.62.184, timestamp=2025-04-10 04:38:31, systemid=3, lat=35.0715882, lon=129.0895853, alt=29.996, dist_traveled=null, wp_dist=364, dist_to_home=1.3462121489384957E7, vertical_speed=-0.008132959, ground_speed=25.484592, wind_vel=0.13572289, airspeed=25.00974, gps_hdop=1.21, roll=-0.28, pitch=-2.52, yaw=32.30, ch3percent=65.80, ch9out=0, tot=0.0, toh=0.0, time_in_air=0.0, ch10out=0, ch11out=0, ch12out=0, battery_voltage=0, battery_current=-1, waypoints_count=0, ch3out=1658, waypoints=[], home_location={lon=0.0, lat=0.0}}
[2025-04-10 04:38:32] {GCS_IP=13.213.62.184, timestamp=2025-04-10 04:38:32, systemid=3, lat=35.0717795, lon=129.0897382, alt=29.99, dist_traveled=null, wp_dist=338, dist_to_home=1.34621251006518E7, vertical_speed=7.075216E-4, ground_speed=25.486568, wind_vel=0.14267044, airspeed=24.989769, gps_hdop=1.21, roll=-0.35, pitch=-2.55, yaw=32.20, ch3percent=65.60, ch9out=0, tot=0.0, toh=0.0, time_in_air=0.0, ch10out=0, ch11out=0, ch12out=0, battery_voltage=0, battery_current=-1, waypoints_count=0, ch3out=1656, waypoints=[], home_location={lon=0.0, lat=0.0}}
[2025-04-10 04:38:33] {GCS_IP=13.213.62.184, timestamp=2025-04-10 04:38:33, systemid=3, lat=35.0719709, lon=129.089891, alt=29.977, dist_traveled=null, wp_dist=313, dist_to_home=1.3462128698840931E7, vertical_speed=-0.028596593, ground_speed=25.466814, wind_vel=0.15013473, airspeed=24.965288, gps_hdop=1.21, roll=-0.17, pitch=-2.53, yaw=32.12, ch3percent=66.00, ch9out=0, tot=0.0, toh=0.0, time_in_air=0.0, ch10out=0, ch11out=0, ch12out=0, battery_voltage=0, battery_current=-1, waypoints_count=0, ch3out=1660, waypoints=[], home_location={lon=0.0, lat=0.0}}
[2025-04-10 04:38:34] {GCS_IP=13.213.62.184, timestamp=2025-04-10 04:38:34, systemid=3, lat=35.0721623, lon=129.0900433, alt=29.965, dist_traveled=null, wp_dist=287, dist_to_home=1.3462132255670575E7, vertical_speed=-0.017653644, ground_speed=25.487947, wind_vel=0.15700953, airspeed=25.008493, gps_hdop=1.21, roll=0.22, pitch=-2.48, yaw=32.24, ch3percent=66.00, ch9out=0, tot=0.0, toh=0.0, time_in_air=0.0, ch10out=0, ch11out=0, ch12out=0, battery_voltage=0, battery_current=-1, waypoints_count=0, ch3out=1660, waypoints=[], home_location={lon=0.0, lat=0.0}}
[2025-04-10 04:38:35] {GCS_IP=13.213.62.184, timestamp=2025-04-10 04:38:35, systemid=3, lat=35.0723535, lon=129.0901961, alt=29.952, dist_traveled=null, wp_dist=262, dist_to_home=1.3462135863010768E7, vertical_speed=0.007348194, ground_speed=25.494522, wind_vel=0.16449946, airspeed=25.001019, gps_hdop=1.21, roll=-0.12, pitch=-2.46, yaw=32.33, ch3percent=65.90, ch9out=0, tot=0.0, toh=0.0, time_in_air=0.0, ch10out=0, ch11out=0, ch12out=0, battery_voltage=0, battery_current=-1, waypoints_count=0, ch3out=1659, waypoints=[], home_location={lon=0.0, lat=0.0}}
[2025-04-10 04:38:36] {GCS_IP=13.213.62.184, timestamp=2025-04-10 04:38:36, systemid=3, lat=35.0725461, lon=129.0903502, alt=29.994, dist_traveled=null, wp_dist=236, dist_to_home=1.3462139511575095E7, vertical_speed=0.02127774, ground_speed=25.527546, wind_vel=0.1693568, airspeed=25.02725, gps_hdop=1.21, roll=-0.10, pitch=-2.45, yaw=32.29, ch3percent=65.90, ch9out=0, tot=0.0, toh=0.0, time_in_air=0.0, ch10out=0, ch11out=0, ch12out=0, battery_voltage=0, battery_current=-1, waypoints_count=0, ch3out=1659, waypoints=[], home_location={lon=0.0, lat=0.0}}
[2025-04-10 04:38:37] {GCS_IP=13.213.62.184, timestamp=2025-04-10 04:38:37, systemid=3, lat=35.0727382, lon=129.0905039, alt=30.049, dist_traveled=null, wp_dist=211, dist_to_home=1.3462143150542473E7, vertical_speed=-0.0052034254, ground_speed=25.533632, wind_vel=0.17460138, airspeed=24.991327, gps_hdop=1.21, roll=-0.04, pitch=-2.54, yaw=32.31, ch3percent=65.40, ch9out=0, tot=0.0, toh=0.0, time_in_air=0.0, ch10out=0, ch11out=0, ch12out=0, battery_voltage=0, battery_current=-1, waypoints_count=0, ch3out=1654, waypoints=[], home_location={lon=0.0, lat=0.0}}
[2025-04-10 04:38:38] {GCS_IP=13.213.62.184, timestamp=2025-04-10 04:38:38, systemid=3, lat=35.0729287, lon=129.0906563, alt=30.059, dist_traveled=null, wp_dist=185, dist_to_home=1.3462146757437838E7, vertical_speed=-0.02536595, ground_speed=25.432072, wind_vel=0.182452, airspeed=24.990448, gps_hdop=1.21, roll=-0.07, pitch=-2.48, yaw=32.31, ch3percent=65.50, ch9out=0, tot=0.0, toh=0.0, time_in_air=0.0, ch10out=0, ch11out=0, ch12out=0, battery_voltage=0, battery_current=-1, waypoints_count=0, ch3out=1655, waypoints=[], home_location={lon=0.0, lat=0.0}}
[2025-04-10 04:38:39] {GCS_IP=13.213.62.184, timestamp=2025-04-10 04:38:39, systemid=3, lat=35.073119, lon=129.0908088, alt=30.026, dist_traveled=null, wp_dist=160, dist_to_home=1.3462150381859524E7, vertical_speed=0.009974382, ground_speed=25.442135, wind_vel=0.18990216, airspeed=25.002483, gps_hdop=1.21, roll=-0.21, pitch=-2.46, yaw=32.36, ch3percent=65.50, ch9out=0, tot=0.0, toh=0.0, time_in_air=0.0, ch10out=0, ch11out=0, ch12out=0, battery_voltage=0, battery_current=-1, waypoints_count=0, ch3out=1655, waypoints=[], home_location={lon=0.0, lat=0.0}}
[2025-04-10 04:38:40] {GCS_IP=13.213.62.184, timestamp=2025-04-10 04:38:40, systemid=3, lat=35.0733106, lon=129.0909621, alt=30.017, dist_traveled=null, wp_dist=135, dist_to_home=1.3462154010975474E7, vertical_speed=-0.070373535, ground_speed=25.474417, wind_vel=0.19571921, airspeed=24.990545, gps_hdop=1.21, roll=0.10, pitch=-2.65, yaw=32.48, ch3percent=65.90, ch9out=0, tot=0.0, toh=0.0, time_in_air=0.0, ch10out=0, ch11out=0, ch12out=0, battery_voltage=0, battery_current=-1, waypoints_count=0, ch3out=1659, waypoints=[], home_location={lon=0.0, lat=0.0}}
[2025-04-10 04:38:41] {GCS_IP=13.213.62.184, timestamp=2025-04-10 04:38:41, systemid=3, lat=35.0735025, lon=129.091116, alt=29.995, dist_traveled=null, wp_dist=109, dist_to_home=1.3462157675328147E7, vertical_speed=0.044196464, ground_speed=25.486599, wind_vel=0.20090123, airspeed=24.994398, gps_hdop=1.21, roll=-0.27, pitch=-2.38, yaw=32.46, ch3percent=65.80, ch9out=0, tot=0.0, toh=0.0, time_in_air=0.0, ch10out=0, ch11out=0, ch12out=0, battery_voltage=0, battery_current=-1, waypoints_count=0, ch3out=1658, waypoints=[], home_location={lon=0.0, lat=0.0}}
[2025-04-10 04:38:42] {GCS_IP=13.213.62.184, timestamp=2025-04-10 04:38:42, systemid=3, lat=35.0736939, lon=129.0912694, alt=29.994, dist_traveled=null, wp_dist=84, dist_to_home=1.3462161321840217E7, vertical_speed=0.0378243, ground_speed=25.51487, wind_vel=0.20567654, airspeed=24.992327, gps_hdop=1.21, roll=0.06, pitch=-2.47, yaw=32.47, ch3percent=65.90, ch9out=0, tot=0.0, toh=0.0, time_in_air=0.0, ch10out=0, ch11out=0, ch12out=0, battery_voltage=0, battery_current=-1, waypoints_count=0, ch3out=1659, waypoints=[], home_location={lon=0.0, lat=0.0}}
[2025-04-10 04:38:43] {GCS_IP=13.213.62.184, timestamp=2025-04-10 04:38:43, systemid=3, lat=35.0738861, lon=129.0914236, alt=30.016, dist_traveled=null, wp_dist=58, dist_to_home=1.3462164996561559E7, vertical_speed=0.038467318, ground_speed=25.507824, wind_vel=0.20994936, airspeed=24.958147, gps_hdop=1.21, roll=-0.49, pitch=-2.48, yaw=32.42, ch3percent=65.50, ch9out=0, tot=0.0, toh=0.0, time_in_air=0.0, ch10out=0, ch11out=0, ch12out=0, battery_voltage=0, battery_current=-1, waypoints_count=0, ch3out=1655, waypoints=[], home_location={lon=0.0, lat=0.0}}
[2025-04-10 04:38:44] {GCS_IP=13.213.62.184, timestamp=2025-04-10 04:38:44, systemid=3, lat=35.0740726, lon=129.0915834, alt=29.924, dist_traveled=null, wp_dist=653, dist_to_home=1.3462169401043918E7, vertical_speed=-0.24804012, ground_speed=25.510527, wind_vel=0.21397653, airspeed=24.952929, gps_hdop=1.21, roll=67.84, pitch=4.01, yaw=63.91, ch3percent=75.50, ch9out=0, tot=0.0, toh=0.0, time_in_air=0.0, ch10out=0, ch11out=0, ch12out=0, battery_voltage=0, battery_current=-1, waypoints_count=0, ch3out=1755, waypoints=[], home_location={lon=0.0, lat=0.0}}
[2025-04-10 04:38:45] {GCS_IP=13.213.62.184, timestamp=2025-04-10 04:38:45, systemid=3, lat=35.0741321, lon=129.0918338, alt=30.879, dist_traveled=null, wp_dist=667, dist_to_home=1.3462187250098394E7, vertical_speed=-0.4800848, ground_speed=23.351345, wind_vel=0.21630938, airspeed=23.264124, gps_hdop=1.21, roll=56.65, pitch=-1.07, yaw=89.38, ch3percent=32.50, ch9out=0, tot=0.0, toh=0.0, time_in_air=0.0, ch10out=0, ch11out=0, ch12out=0, battery_voltage=0, battery_current=-1, waypoints_count=0, ch3out=1325, waypoints=[], home_location={lon=0.0, lat=0.0}}
[2025-04-10 04:38:46] {GCS_IP=13.213.62.184, timestamp=2025-04-10 04:38:46, systemid=3, lat=35.074101, lon=129.0920834, alt=29.86, dist_traveled=null, wp_dist=671, dist_to_home=1.3462209294832125E7, vertical_speed=-1.7443062, ground_speed=23.14884, wind_vel=0.2123905, airspeed=22.789951, gps_hdop=1.21, roll=55.24, pitch=-3.02, yaw=116.83, ch3percent=48.00, ch9out=0, tot=0.0, toh=0.0, time_in_air=0.0, ch10out=0, ch11out=0, ch12out=0, battery_voltage=0, battery_current=-1, waypoints_count=0, ch3out=1480, waypoints=[], home_location={lon=0.0, lat=0.0}}
[2025-04-10 04:38:47] {GCS_IP=13.213.62.184, timestamp=2025-04-10 04:38:47, systemid=3, lat=35.0739775, lon=129.0922841, alt=28.213, dist_traveled=null, wp_dist=666, dist_to_home=1.346223165371041E7, vertical_speed=-0.828404, ground_speed=23.599653, wind_vel=0.20606793, airspeed=23.103687, gps_hdop=1.21, roll=55.17, pitch=-0.52, yaw=150.02, ch3percent=62.30, ch9out=0, tot=0.0, toh=0.0, time_in_air=0.0, ch10out=0, ch11out=0, ch12out=0, battery_voltage=0, battery_current=-1, waypoints_count=0, ch3out=1623, waypoints=[], home_location={lon=0.0, lat=0.0}}
[2025-04-10 04:38:48] {GCS_IP=13.213.62.184, timestamp=2025-04-10 04:38:48, systemid=3, lat=35.0737802, lon=129.0923746, alt=27.436, dist_traveled=null, wp_dist=649, dist_to_home=1.3462248397075377E7, vertical_speed=-0.37088534, ground_speed=24.064993, wind_vel=0.1965589, airspeed=23.567404, gps_hdop=1.21, roll=51.54, pitch=0.10, yaw=178.16, ch3percent=64.70, ch9out=0, tot=0.0, toh=0.0, time_in_air=0.0, ch10out=0, ch11out=0, ch12out=0, battery_voltage=0, battery_current=-1, waypoints_count=0, ch3out=1647, waypoints=[], home_location={lon=0.0, lat=0.0}}
[2025-04-10 04:38:49] {GCS_IP=13.213.62.184, timestamp=2025-04-10 04:38:49, systemid=3, lat=35.0735663, lon=129.0923458, alt=26.964, dist_traveled=null, wp_dist=626, dist_to_home=1.3462256083841532E7, vertical_speed=-0.5599065, ground_speed=24.316746, wind_vel=0.18399498, airspeed=23.757221, gps_hdop=1.21, roll=42.25, pitch=-1.20, yaw=-161.37, ch3percent=60.70, ch9out=0, tot=0.0, toh=0.0, time_in_air=0.0, ch10out=0, ch11out=0, ch12out=0, battery_voltage=0, battery_current=-1, waypoints_count=0, ch3out=1607, waypoints=[], home_location={lon=0.0, lat=0.0}}
[2025-04-10 04:38:50] {GCS_IP=13.213.62.184, timestamp=2025-04-10 04:38:50, systemid=3, lat=35.0733691, lon=129.0922315, alt=26.328, dist_traveled=null, wp_dist=602, dist_to_home=1.34622559346638E7, vertical_speed=-0.71511626, ground_speed=24.464031, wind_vel=0.17108472, airspeed=23.895538, gps_hdop=1.21, roll=25.48, pitch=-2.79, yaw=-148.25, ch3percent=58.80, ch9out=0, tot=0.0, toh=0.0, time_in_air=0.0, ch10out=0, ch11out=0, ch12out=0, battery_voltage=0, battery_current=-1, waypoints_count=0, ch3out=1588, waypoints=[], home_location={lon=0.0, lat=0.0}}
[2025-04-10 04:38:51] {GCS_IP=13.213.62.184, timestamp=2025-04-10 04:38:51, systemid=3, lat=35.0731934, lon=129.0920732, alt=25.733, dist_traveled=null, wp_dist=579, dist_to_home=1.346225114580236E7, vertical_speed=-0.4060052, ground_speed=24.587847, wind_vel=0.15545233, airspeed=24.044014, gps_hdop=1.21, roll=6.58, pitch=-2.94, yaw=-141.72, ch3percent=61.70, ch9out=0, tot=0.0, toh=0.0, time_in_air=0.0, ch10out=0, ch11out=0, ch12out=0, battery_voltage=0, battery_current=-1, waypoints_count=0, ch3out=1617, waypoints=[], home_location={lon=0.0, lat=0.0}}
[2025-04-10 04:38:52] {GCS_IP=13.213.62.184, timestamp=2025-04-10 04:38:52, systemid=3, lat=35.0730242, lon=129.0918985, alt=25.454, dist_traveled=null, wp_dist=555, dist_to_home=1.346224469872027E7, vertical_speed=0.12774834, ground_speed=24.818241, wind_vel=0.1416562, airspeed=24.297663, gps_hdop=1.21, roll=-5.62, pitch=-1.86, yaw=-141.11, ch3percent=66.60, ch9out=0, tot=0.0, toh=0.0, time_in_air=0.0, ch10out=0, ch11out=0, ch12out=0, battery_voltage=0, battery_current=-1, waypoints_count=0, ch3out=1666, waypoints=[], home_location={lon=0.0, lat=0.0}}
[2025-04-10 04:38:53] {GCS_IP=13.213.62.184, timestamp=2025-04-10 04:38:53, systemid=3, lat=35.0728517, lon=129.0917278, alt=25.708, dist_traveled=null, wp_dist=532, dist_to_home=1.3462238736580314E7, vertical_speed=0.44940117, ground_speed=24.927946, wind_vel=0.12449205, airspeed=24.453527, gps_hdop=1.21, roll=-11.24, pitch=-1.10, yaw=-143.85, ch3percent=69.10, ch9out=0, tot=0.0, toh=0.0, time_in_air=0.0, ch10out=0, ch11out=0, ch12out=0, battery_voltage=0, battery_current=-1, waypoints_count=0, ch3out=1691, waypoints=[], home_location={lon=0.0, lat=0.0}}
[2025-04-10 04:38:54] {GCS_IP=13.213.62.184, timestamp=2025-04-10 04:38:54, systemid=3, lat=35.0726683, lon=129.0915689, alt=26.238, dist_traveled=null, wp_dist=508, dist_to_home=1.346223426006122E7, vertical_speed=0.57121223, ground_speed=25.076632, wind_vel=0.11036074, airspeed=24.65622, gps_hdop=1.21, roll=-13.04, pitch=-0.83, yaw=-148.06, ch3percent=69.80, ch9out=0, tot=0.0, toh=0.0, time_in_air=0.0, ch10out=0, ch11out=0, ch12out=0, battery_voltage=0, battery_current=-1, waypoints_count=0, ch3out=1698, waypoints=[], home_location={lon=0.0, lat=0.0}}
[2025-04-10 04:38:55] {GCS_IP=13.213.62.184, timestamp=2025-04-10 04:38:55, systemid=3, lat=35.0724756, lon=129.0914278, alt=26.862, dist_traveled=null, wp_dist=483, dist_to_home=1.3462231688674541E7, vertical_speed=0.5618311, ground_speed=25.087357, wind_vel=0.09341967, airspeed=24.715794, gps_hdop=1.21, roll=-12.30, pitch=-0.95, yaw=-152.47, ch3percent=69.10, ch9out=0, tot=0.0, toh=0.0, time_in_air=0.0, ch10out=0, ch11out=0, ch12out=0, battery_voltage=0, battery_current=-1, waypoints_count=0, ch3out=1691, waypoints=[], home_location={lon=0.0, lat=0.0}}
[2025-04-10 04:38:56] {GCS_IP=13.213.62.184, timestamp=2025-04-10 04:38:56, systemid=3, lat=35.0722728, lon=129.0913035, alt=27.457, dist_traveled=null, wp_dist=458, dist_to_home=1.346223097759452E7, vertical_speed=0.5076669, ground_speed=25.17934, wind_vel=0.08072115, airspeed=24.710676, gps_hdop=1.21, roll=-9.87, pitch=-1.25, yaw=-156.34, ch3percent=68.10, ch9out=0, tot=0.0, toh=0.0, time_in_air=0.0, ch10out=0, ch11out=0, ch12out=0, battery_voltage=0, battery_current=-1, waypoints_count=0, ch3out=1681, waypoints=[], home_location={lon=0.0, lat=0.0}}
[2025-04-10 04:38:57] {GCS_IP=13.213.62.184, timestamp=2025-04-10 04:38:57, systemid=3, lat=35.072064, lon=129.0911947, alt=27.999, dist_traveled=null, wp_dist=433, dist_to_home=1.3462231826779952E7, vertical_speed=0.4024578, ground_speed=25.255146, wind_vel=0.07174684, airspeed=24.740047, gps_hdop=1.21, roll=-7.15, pitch=-1.66, yaw=-159.33, ch3percent=67.40, ch9out=0, tot=0.0, toh=0.0, time_in_air=0.0, ch10out=0, ch11out=0, ch12out=0, battery_voltage=0, battery_current=-1, waypoints_count=0, ch3out=1674, waypoints=[], home_location={lon=0.0, lat=0.0}}
[2025-04-10 04:38:58] {GCS_IP=13.213.62.184, timestamp=2025-04-10 04:38:58, systemid=3, lat=35.0718502, lon=129.0910969, alt=28.423, dist_traveled=null, wp_dist=407, dist_to_home=1.3462233818122499E7, vertical_speed=0.3517725, ground_speed=25.29723, wind_vel=0.06577674, airspeed=24.759798, gps_hdop=1.21, roll=-4.64, pitch=-1.80, yaw=-161.37, ch3percent=66.80, ch9out=0, tot=0.0, toh=0.0, time_in_air=0.0, ch10out=0, ch11out=0, ch12out=0, battery_voltage=0, battery_current=-1, waypoints_count=0, ch3out=1668, waypoints=[], home_location={lon=0.0, lat=0.0}}
[2025-04-10 04:38:59] {GCS_IP=13.213.62.184, timestamp=2025-04-10 04:38:59, systemid=3, lat=35.0716354, lon=129.0910075, alt=28.812, dist_traveled=null, wp_dist=382, dist_to_home=1.3462236549084198E7, vertical_speed=0.26778492, ground_speed=25.329868, wind_vel=0.063039795, airspeed=24.708603, gps_hdop=1.21, roll=-2.23, pitch=-2.14, yaw=-162.48, ch3percent=66.30, ch9out=0, tot=0.0, toh=0.0, time_in_air=0.0, ch10out=0, ch11out=0, ch12out=0, battery_voltage=0, battery_current=-1, waypoints_count=0, ch3out=1663, waypoints=[], home_location={lon=0.0, lat=0.0}}
[2025-04-10 04:39:00] {GCS_IP=13.213.62.184, timestamp=2025-04-10 04:39:00, systemid=3, lat=35.0714206, lon=129.0909225, alt=29.097, dist_traveled=null, wp_dist=357, dist_to_home=1.346223964278397E7, vertical_speed=0.20436496, ground_speed=25.276255, wind_vel=0.062018983, airspeed=24.763153, gps_hdop=1.21, roll=-0.76, pitch=-2.09, yaw=-163.12, ch3percent=66.30, ch9out=0, tot=0.0, toh=0.0, time_in_air=0.0, ch10out=0, ch11out=0, ch12out=0, battery_voltage=0, battery_current=-1, waypoints_count=0, ch3out=1663, waypoints=[], home_location={lon=0.0, lat=0.0}}
[2025-04-10 04:39:01] {GCS_IP=13.213.62.184, timestamp=2025-04-10 04:39:01, systemid=3, lat=35.071205, lon=129.0908389, alt=29.283, dist_traveled=null, wp_dist=332, dist_to_home=1.3462242889462233E7, vertical_speed=0.17078327, ground_speed=25.29132, wind_vel=0.06453905, airspeed=24.811636, gps_hdop=1.21, roll=0.24, pitch=-2.23, yaw=-163.31, ch3percent=66.30, ch9out=0, tot=0.0, toh=0.0, time_in_air=0.0, ch10out=0, ch11out=0, ch12out=0, battery_voltage=0, battery_current=-1, waypoints_count=0, ch3out=1663, waypoints=[], home_location={lon=0.0, lat=0.0}}
[2025-04-10 04:39:02] {GCS_IP=13.213.62.184, timestamp=2025-04-10 04:39:02, systemid=3, lat=35.0709892, lon=129.0907548, alt=29.488, dist_traveled=null, wp_dist=307, dist_to_home=1.346224610421726E7, vertical_speed=0.12607, ground_speed=25.303501, wind_vel=0.06969286, airspeed=24.817493, gps_hdop=1.21, roll=0.88, pitch=-2.29, yaw=-162.97, ch3percent=65.70, ch9out=0, tot=0.0, toh=0.0, time_in_air=0.0, ch10out=0, ch11out=0, ch12out=0, battery_voltage=0, battery_current=-1, waypoints_count=0, ch3out=1657, waypoints=[], home_location={lon=0.0, lat=0.0}}
[2025-04-10 04:39:03] {GCS_IP=13.213.62.184, timestamp=2025-04-10 04:39:03, systemid=3, lat=35.070773, lon=129.0906689, alt=29.604, dist_traveled=null, wp_dist=281, dist_to_home=1.346224918925117E7, vertical_speed=0.08251655, ground_speed=25.326698, wind_vel=0.07645311, airspeed=24.8621, gps_hdop=1.21, roll=0.70, pitch=-2.38, yaw=-162.57, ch3percent=65.70, ch9out=0, tot=0.0, toh=0.0, time_in_air=0.0, ch10out=0, ch11out=0, ch12out=0, battery_voltage=0, battery_current=-1, waypoints_count=0, ch3out=1657, waypoints=[], home_location={lon=0.0, lat=0.0}}
[2025-04-10 04:39:04] {GCS_IP=13.213.62.184, timestamp=2025-04-10 04:39:04, systemid=3, lat=35.0705574, lon=129.0905814, alt=29.701, dist_traveled=null, wp_dist=256, dist_to_home=1.3462252114021327E7, vertical_speed=0.1180057, ground_speed=25.30908, wind_vel=0.084414765, airspeed=24.798086, gps_hdop=1.21, roll=0.62, pitch=-2.28, yaw=-162.23, ch3percent=65.80, ch9out=0, tot=0.0, toh=0.0, time_in_air=0.0, ch10out=0, ch11out=0, ch12out=0, battery_voltage=0, battery_current=-1, waypoints_count=0, ch3out=1658, waypoints=[], home_location={lon=0.0, lat=0.0}}
[2025-04-10 04:39:05] {GCS_IP=13.213.62.184, timestamp=2025-04-10 04:39:05, systemid=3, lat=35.0703429, lon=129.0904929, alt=29.785, dist_traveled=null, wp_dist=231, dist_to_home=1.3462254904489279E7, vertical_speed=0.04706615, ground_speed=25.334871, wind_vel=0.09325706, airspeed=24.8725, gps_hdop=1.21, roll=0.47, pitch=-2.50, yaw=-162.00, ch3percent=66.00, ch9out=0, tot=0.0, toh=0.0, time_in_air=0.0, ch10out=0, ch11out=0, ch12out=0, battery_voltage=0, battery_current=-1, waypoints_count=0, ch3out=1660, waypoints=[], home_location={lon=0.0, lat=0.0}}
[2025-04-10 04:39:06] {GCS_IP=13.213.62.184, timestamp=2025-04-10 04:39:06, systemid=3, lat=35.070127, lon=129.0904023, alt=29.839, dist_traveled=null, wp_dist=206, dist_to_home=1.346225758752477E7, vertical_speed=0.09520154, ground_speed=25.384748, wind_vel=0.101354, airspeed=24.847992, gps_hdop=1.21, roll=0.38, pitch=-2.35, yaw=-161.79, ch3percent=65.70, ch9out=0, tot=0.0, toh=0.0, time_in_air=0.0, ch10out=0, ch11out=0, ch12out=0, battery_voltage=0, battery_current=-1, waypoints_count=0, ch3out=1657, waypoints=[], home_location={lon=0.0, lat=0.0}}
[2025-04-10 04:39:07] {GCS_IP=13.213.62.184, timestamp=2025-04-10 04:39:07, systemid=3, lat=35.0699129, lon=129.0903115, alt=29.922, dist_traveled=null, wp_dist=180, dist_to_home=1.3462260169305824E7, vertical_speed=0.027737994, ground_speed=25.391813, wind_vel=0.10992944, airspeed=24.865889, gps_hdop=1.21, roll=0.00, pitch=-2.48, yaw=-161.64, ch3percent=65.90, ch9out=0, tot=0.0, toh=0.0, time_in_air=0.0, ch10out=0, ch11out=0, ch12out=0, battery_voltage=0, battery_current=-1, waypoints_count=0, ch3out=1659, waypoints=[], home_location={lon=0.0, lat=0.0}}
[2025-04-10 04:39:08] {GCS_IP=13.213.62.184, timestamp=2025-04-10 04:39:08, systemid=3, lat=35.0696964, lon=129.0902194, alt=29.962, dist_traveled=null, wp_dist=155, dist_to_home=1.3462262756655794E7, vertical_speed=0.063224554, ground_speed=25.44101, wind_vel=0.11656735, airspeed=24.935648, gps_hdop=1.21, roll=0.06, pitch=-2.44, yaw=-161.58, ch3percent=65.80, ch9out=0, tot=0.0, toh=0.0, time_in_air=0.0, ch10out=0, ch11out=0, ch12out=0, battery_voltage=0, battery_current=-1, waypoints_count=0, ch3out=1658, waypoints=[], home_location={lon=0.0, lat=0.0}}
[2025-04-10 04:39:09] {GCS_IP=13.213.62.184, timestamp=2025-04-10 04:39:09, systemid=3, lat=35.069482, lon=129.0901279, alt=29.979, dist_traveled=null, wp_dist=129, dist_to_home=1.3462265294614716E7, vertical_speed=-0.0035784265, ground_speed=25.414259, wind_vel=0.12619834, airspeed=24.945246, gps_hdop=1.21, roll=-0.32, pitch=-2.59, yaw=-161.67, ch3percent=65.30, ch9out=0, tot=0.0, toh=0.0, time_in_air=0.0, ch10out=0, ch11out=0, ch12out=0, battery_voltage=0, battery_current=-1, waypoints_count=0, ch3out=1653, waypoints=[], home_location={lon=0.0, lat=0.0}}
[2025-04-10 04:39:10] {GCS_IP=13.213.62.184, timestamp=2025-04-10 04:39:10, systemid=3, lat=35.0692656, lon=129.0900358, alt=29.992, dist_traveled=null, wp_dist=104, dist_to_home=1.3462267877053678E7, vertical_speed=0.054049235, ground_speed=25.460077, wind_vel=0.13340005, airspeed=24.929539, gps_hdop=1.21, roll=-0.21, pitch=-2.42, yaw=-161.64, ch3percent=65.60, ch9out=0, tot=0.0, toh=0.0, time_in_air=0.0, ch10out=0, ch11out=0, ch12out=0, battery_voltage=0, battery_current=-1, waypoints_count=0, ch3out=1656, waypoints=[], home_location={lon=0.0, lat=0.0}}
[2025-04-10 04:39:11] {GCS_IP=13.213.62.184, timestamp=2025-04-10 04:39:11, systemid=3, lat=35.0690491, lon=129.089944, alt=30.037, dist_traveled=null, wp_dist=78, dist_to_home=1.3462270488831615E7, vertical_speed=0.0029210995, ground_speed=25.482035, wind_vel=0.14023481, airspeed=24.916677, gps_hdop=1.21, roll=-0.05, pitch=-2.64, yaw=-161.67, ch3percent=65.30, ch9out=0, tot=0.0, toh=0.0, time_in_air=0.0, ch10out=0, ch11out=0, ch12out=0, battery_voltage=0, battery_current=-1, waypoints_count=0, ch3out=1653, waypoints=[], home_location={lon=0.0, lat=0.0}}
[2025-04-10 04:39:12] {GCS_IP=13.213.62.184, timestamp=2025-04-10 04:39:12, systemid=3, lat=35.0688331, lon=129.0898523, alt=30.051, dist_traveled=null, wp_dist=53, dist_to_home=1.346227308523678E7, vertical_speed=-0.0066693393, ground_speed=25.453663, wind_vel=0.14735958, airspeed=24.929224, gps_hdop=1.21, roll=0.06, pitch=-2.59, yaw=-161.68, ch3percent=65.50, ch9out=0, tot=0.0, toh=0.0, time_in_air=0.0, ch10out=0, ch11out=0, ch12out=0, battery_voltage=0, battery_current=-1, waypoints_count=0, ch3out=1655, waypoints=[], home_location={lon=0.0, lat=0.0}}
[2025-04-10 04:39:13] {GCS_IP=13.213.62.184, timestamp=2025-04-10 04:39:13, systemid=3, lat=35.0686185, lon=129.0897611, alt=30.025, dist_traveled=null, wp_dist=280, dist_to_home=1.3462275656929612E7, vertical_speed=0.0068937778, ground_speed=25.428148, wind_vel=0.15635404, airspeed=24.904743, gps_hdop=1.21, roll=16.67, pitch=-3.00, yaw=-159.03, ch3percent=65.50, ch9out=0, tot=0.0, toh=0.0, time_in_air=0.0, ch10out=0, ch11out=0, ch12out=0, battery_voltage=0, battery_current=-1, waypoints_count=0, ch3out=1655, waypoints=[], home_location={lon=0.0, lat=0.0}}
[2025-04-10 04:39:14] {GCS_IP=13.213.62.184, timestamp=2025-04-10 04:39:14, systemid=3, lat=35.0684116, lon=129.0896453, alt=30.109, dist_traveled=null, wp_dist=258, dist_to_home=1.3462275837667694E7, vertical_speed=0.9275017, ground_speed=25.680868, wind_vel=0.1618707, airspeed=25.074823, gps_hdop=1.21, roll=25.51, pitch=0.20, yaw=-147.01, ch3percent=74.50, ch9out=0, tot=0.0, toh=0.0, time_in_air=0.0, ch10out=0, ch11out=0, ch12out=0, battery_voltage=0, battery_current=-1, waypoints_count=0, ch3out=1745, waypoints=[], home_location={lon=0.0, lat=0.0}}
[2025-04-10 04:39:15] {GCS_IP=13.213.62.184, timestamp=2025-04-10 04:39:15, systemid=3, lat=35.0682294, lon=129.0894727, alt=30.446, dist_traveled=null, wp_dist=233, dist_to_home=1.3462270172438657E7, vertical_speed=-0.12784056, ground_speed=25.63379, wind_vel=0.16497687, airspeed=25.064442, gps_hdop=1.21, roll=25.00, pitch=-1.88, yaw=-138.34, ch3percent=65.30, ch9out=0, tot=0.0, toh=0.0, time_in_air=0.0, ch10out=0, ch11out=0, ch12out=0, battery_voltage=0, battery_current=-1, waypoints_count=0, ch3out=1653, waypoints=[], home_location={lon=0.0, lat=0.0}}
[2025-04-10 04:39:16] {GCS_IP=13.213.62.184, timestamp=2025-04-10 04:39:16, systemid=3, lat=35.0680706, lon=129.0892722, alt=30.314, dist_traveled=null, wp_dist=208, dist_to_home=1.3462261105706956E7, vertical_speed=-0.21091759, ground_speed=25.516499, wind_vel=0.1676521, airspeed=25.049112, gps_hdop=1.21, roll=16.68, pitch=-2.58, yaw=-130.87, ch3percent=64.30, ch9out=0, tot=0.0, toh=0.0, time_in_air=0.0, ch10out=0, ch11out=0, ch12out=0, battery_voltage=0, battery_current=-1, waypoints_count=0, ch3out=1643, waypoints=[], home_location={lon=0.0, lat=0.0}}
[2025-04-10 04:39:17] {GCS_IP=13.213.62.184, timestamp=2025-04-10 04:39:17, systemid=3, lat=35.0679302, lon=129.0890517, alt=30.082, dist_traveled=null, wp_dist=183, dist_to_home=1.3462249524126802E7, vertical_speed=-0.17686053, ground_speed=25.462605, wind_vel=0.1695817, airspeed=25.004223, gps_hdop=1.21, roll=9.75, pitch=-2.64, yaw=-126.03, ch3percent=64.30, ch9out=0, tot=0.0, toh=0.0, time_in_air=0.0, ch10out=0, ch11out=0, ch12out=0, battery_voltage=0, battery_current=-1, waypoints_count=0, ch3out=1643, waypoints=[], home_location={lon=0.0, lat=0.0}}
[2025-04-10 04:39:18] {GCS_IP=13.213.62.184, timestamp=2025-04-10 04:39:18, systemid=3, lat=35.0678023, lon=129.0888207, alt=29.871, dist_traveled=null, wp_dist=158, dist_to_home=1.346223648863206E7, vertical_speed=-0.14835672, ground_speed=25.487204, wind_vel=0.17109995, airspeed=24.9938, gps_hdop=1.21, roll=4.41, pitch=-2.68, yaw=-123.33, ch3percent=65.20, ch9out=0, tot=0.0, toh=0.0, time_in_air=0.0, ch10out=0, ch11out=0, ch12out=0, battery_voltage=0, battery_current=-1, waypoints_count=0, ch3out=1652, waypoints=[], home_location={lon=0.0, lat=0.0}}
[2025-04-10 04:39:19] {GCS_IP=13.213.62.184, timestamp=2025-04-10 04:39:19, systemid=3, lat=35.0676797, lon=129.0885827, alt=29.741, dist_traveled=null, wp_dist=132, dist_to_home=1.3462222626475168E7, vertical_speed=-0.03326364, ground_speed=25.507242, wind_vel=0.17237721, airspeed=25.010967, gps_hdop=1.21, roll=0.45, pitch=-2.50, yaw=-122.27, ch3percent=65.90, ch9out=0, tot=0.0, toh=0.0, time_in_air=0.0, ch10out=0, ch11out=0, ch12out=0, battery_voltage=0, battery_current=-1, waypoints_count=0, ch3out=1659, waypoints=[], home_location={lon=0.0, lat=0.0}}
[2025-04-10 04:39:20] {GCS_IP=13.213.62.184, timestamp=2025-04-10 04:39:20, systemid=3, lat=35.0675594, lon=129.0883447, alt=29.718, dist_traveled=null, wp_dist=107, dist_to_home=1.3462208656030605E7, vertical_speed=0.021953024, ground_speed=25.511925, wind_vel=0.17415975, airspeed=25.028599, gps_hdop=1.21, roll=-1.69, pitch=-2.43, yaw=-122.47, ch3percent=65.90, ch9out=0, tot=0.0, toh=0.0, time_in_air=0.0, ch10out=0, ch11out=0, ch12out=0, battery_voltage=0, battery_current=-1, waypoints_count=0, ch3out=1659, waypoints=[], home_location={lon=0.0, lat=0.0}}
[2025-04-10 04:39:21] {GCS_IP=13.213.62.184, timestamp=2025-04-10 04:39:21, systemid=3, lat=35.0674366, lon=129.0881059, alt=29.726, dist_traveled=null, wp_dist=81, dist_to_home=1.3462194737054553E7, vertical_speed=0.07158559, ground_speed=25.552439, wind_vel=0.17584802, airspeed=25.010946, gps_hdop=1.21, roll=-2.60, pitch=-2.33, yaw=-123.12, ch3percent=66.20, ch9out=0, tot=0.0, toh=0.0, time_in_air=0.0, ch10out=0, ch11out=0, ch12out=0, battery_voltage=0, battery_current=-1, waypoints_count=0, ch3out=1662, waypoints=[], home_location={lon=0.0, lat=0.0}}
[2025-04-10 04:39:22] {GCS_IP=13.213.62.184, timestamp=2025-04-10 04:39:22, systemid=3, lat=35.0673118, lon=129.087871, alt=29.777, dist_traveled=null, wp_dist=55, dist_to_home=1.346218123364235E7, vertical_speed=0.061826684, ground_speed=25.514534, wind_vel=0.17895801, airspeed=25.018673, gps_hdop=1.21, roll=-2.89, pitch=-2.36, yaw=-123.97, ch3percent=66.10, ch9out=0, tot=0.0, toh=0.0, time_in_air=0.0, ch10out=0, ch11out=0, ch12out=0, battery_voltage=0, battery_current=-1, waypoints_count=0, ch3out=1661, waypoints=[], home_location={lon=0.0, lat=0.0}}
[2025-04-10 04:39:23] {GCS_IP=13.213.62.184, timestamp=2025-04-10 04:39:23, systemid=3, lat=35.0671846, lon=129.0876399, alt=29.845, dist_traveled=null, wp_dist=30, dist_to_home=1.3462168156358117E7, vertical_speed=0.0489446, ground_speed=25.446524, wind_vel=0.18375999, airspeed=25.030191, gps_hdop=1.21, roll=-2.56, pitch=-2.30, yaw=-124.96, ch3percent=65.80, ch9out=0, tot=0.0, toh=0.0, time_in_air=0.0, ch10out=0, ch11out=0, ch12out=0, battery_voltage=0, battery_current=-1, waypoints_count=0, ch3out=1658, waypoints=[], home_location={lon=0.0, lat=0.0}}
[2025-04-10 04:39:24] {GCS_IP=13.213.62.184, timestamp=2025-04-10 04:39:24, systemid=3, lat=35.0670549, lon=129.0874118, alt=29.892, dist_traveled=null, wp_dist=5, dist_to_home=1.3462155443927545E7, vertical_speed=0.025209757, ground_speed=25.383509, wind_vel=0.19014184, airspeed=24.949827, gps_hdop=1.21, roll=-2.28, pitch=-2.32, yaw=-125.79, ch3percent=65.80, ch9out=0, tot=0.0, toh=0.0, time_in_air=0.0, ch10out=0, ch11out=0, ch12out=0, battery_voltage=0, battery_current=-1, waypoints_count=0, ch3out=1658, waypoints=[], home_location={lon=0.0, lat=0.0}}
[2025-04-10 04:39:25] {GCS_IP=13.213.62.184, timestamp=2025-04-10 04:39:25, systemid=3, lat=35.0669223, lon=129.0871842, alt=29.917, dist_traveled=null, wp_dist=110, dist_to_home=1.346214290898092E7, vertical_speed=-0.3786189, ground_speed=25.51514, wind_vel=0.19417164, airspeed=24.988987, gps_hdop=1.21, roll=55.85, pitch=-1.72, yaw=-120.16, ch3percent=67.50, ch9out=0, tot=0.0, toh=0.0, time_in_air=0.0, ch10out=0, ch11out=0, ch12out=0, battery_voltage=0, battery_current=-1, waypoints_count=0, ch3out=1675, waypoints=[], home_location={lon=0.0, lat=0.0}}
[2025-04-10 04:39:26] {GCS_IP=13.213.62.184, timestamp=2025-04-10 04:39:26, systemid=3, lat=35.0668452, lon=129.0869227, alt=30.672, dist_traveled=null, wp_dist=90, dist_to_home=1.346212496823293E7, vertical_speed=0.7141891, ground_speed=25.636223, wind_vel=0.19830841, airspeed=25.167288, gps_hdop=1.21, roll=34.51, pitch=-0.86, yaw=-99.32, ch3percent=67.00, ch9out=0, tot=0.0, toh=0.0, time_in_air=0.0, ch10out=0, ch11out=0, ch12out=0, battery_voltage=0, battery_current=-1, waypoints_count=0, ch3out=1670, waypoints=[], home_location={lon=0.0, lat=0.0}}
[2025-04-10 04:39:27] {GCS_IP=13.213.62.184, timestamp=2025-04-10 04:39:27, systemid=3, lat=35.0668317, lon=129.0866432, alt=30.987, dist_traveled=null, wp_dist=953, dist_to_home=1.3462102552140005E7, vertical_speed=0.04920499, ground_speed=25.657576, wind_vel=0.20134358, airspeed=25.14478, gps_hdop=1.21, roll=44.36, pitch=-0.77, yaw=-83.20, ch3percent=69.70, ch9out=0, tot=0.0, toh=0.0, time_in_air=0.0, ch10out=0, ch11out=0, ch12out=0, battery_voltage=0, battery_current=-1, waypoints_count=0, ch3out=1697, waypoints=[], home_location={lon=0.0, lat=0.0}}
[2025-04-10 04:39:28] {GCS_IP=13.213.62.184, timestamp=2025-04-10 04:39:28, systemid=3, lat=35.066895, lon=129.0863733, alt=30.968, dist_traveled=null, wp_dist=960, dist_to_home=1.3462077316283254E7, vertical_speed=1.7308375, ground_speed=26.29193, wind_vel=0.20241612, airspeed=25.69609, gps_hdop=1.21, roll=55.95, pitch=5.13, yaw=-47.55, ch3percent=94.80, ch9out=0, tot=0.0, toh=0.0, time_in_air=0.0, ch10out=0, ch11out=0, ch12out=0, battery_voltage=0, battery_current=-1, waypoints_count=0, ch3out=1948, waypoints=[], home_location={lon=0.0, lat=0.0}}
[2025-04-10 04:39:29] {GCS_IP=13.213.62.184, timestamp=2025-04-10 04:39:29, systemid=3, lat=35.0670721, lon=129.0861889, alt=32.488, dist_traveled=null, wp_dist=953, dist_to_home=1.346205378047875E7, vertical_speed=0.285747, ground_speed=25.874968, wind_vel=0.19891019, airspeed=25.47283, gps_hdop=1.21, roll=52.73, pitch=0.59, yaw=-27.84, ch3percent=67.10, ch9out=0, tot=0.0, toh=0.0, time_in_air=0.0, ch10out=0, ch11out=0, ch12out=0, battery_voltage=0, battery_current=-1, waypoints_count=0, ch3out=1671, waypoints=[], home_location={lon=0.0, lat=0.0}}
[2025-04-10 04:39:30] {GCS_IP=13.213.62.184, timestamp=2025-04-10 04:39:30, systemid=3, lat=35.0672886, lon=129.086094, alt=32.55, dist_traveled=null, wp_dist=938, dist_to_home=1.3462035773196995E7, vertical_speed=-0.38028792, ground_speed=25.636875, wind_vel=0.1923528, airspeed=25.270994, gps_hdop=1.21, roll=50.08, pitch=-0.68, yaw=-5.90, ch3percent=63.30, ch9out=0, tot=0.0, toh=0.0, time_in_air=0.0, ch10out=0, ch11out=0, ch12out=0, battery_voltage=0, battery_current=-1, waypoints_count=0, ch3out=1633, waypoints=[], home_location={lon=0.0, lat=0.0}}
[2025-04-10 04:39:31] {GCS_IP=13.213.62.184, timestamp=2025-04-10 04:39:31, systemid=3, lat=35.0675164, lon=129.0861021, alt=32.024, dist_traveled=null, wp_dist=917, dist_to_home=1.3462025729109032E7, vertical_speed=-0.88561124, ground_speed=25.360867, wind_vel=0.18260919, airspeed=25.02728, gps_hdop=1.21, roll=43.39, pitch=-2.34, yaw=12.79, ch3percent=58.20, ch9out=0, tot=0.0, toh=0.0, time_in_air=0.0, ch10out=0, ch11out=0, ch12out=0, battery_voltage=0, battery_current=-1, waypoints_count=0, ch3out=1582, waypoints=[], home_location={lon=0.0, lat=0.0}}
[2025-04-10 04:39:32] {GCS_IP=13.213.62.184, timestamp=2025-04-10 04:39:32, systemid=3, lat=35.0677317, lon=129.0861951, alt=30.993, dist_traveled=null, wp_dist=892, dist_to_home=1.3462023274569338E7, vertical_speed=-1.086446, ground_speed=25.261759, wind_vel=0.17116062, airspeed=24.827826, gps_hdop=1.21, roll=33.36, pitch=-3.41, yaw=27.53, ch3percent=57.20, ch9out=0, tot=0.0, toh=0.0, time_in_air=0.0, ch10out=0, ch11out=0, ch12out=0, battery_voltage=0, battery_current=-1, waypoints_count=0, ch3out=1572, waypoints=[], home_location={lon=0.0, lat=0.0}}
[2025-04-10 04:39:33] {GCS_IP=13.213.62.184, timestamp=2025-04-10 04:39:33, systemid=3, lat=35.0679214, lon=129.0863449, alt=29.874, dist_traveled=null, wp_dist=867, dist_to_home=1.346202670810315E7, vertical_speed=-0.98888385, ground_speed=25.243774, wind_vel=0.15739714, airspeed=24.762856, gps_hdop=1.21, roll=19.98, pitch=-3.96, yaw=37.38, ch3percent=58.30, ch9out=0, tot=0.0, toh=0.0, time_in_air=0.0, ch10out=0, ch11out=0, ch12out=0, battery_voltage=0, battery_current=-1, waypoints_count=0, ch3out=1583, waypoints=[], home_location={lon=0.0, lat=0.0}}
[2025-04-10 04:39:34] {GCS_IP=13.213.62.184, timestamp=2025-04-10 04:39:34, systemid=3, lat=35.0680929, lon=129.086527, alt=28.948, dist_traveled=null, wp_dist=842, dist_to_home=1.346203366116906E7, vertical_speed=-0.5714538, ground_speed=25.270638, wind_vel=0.14234509, airspeed=24.800758, gps_hdop=1.21, roll=7.35, pitch=-3.49, yaw=42.83, ch3percent=61.90, ch9out=0, tot=0.0, toh=0.0, time_in_air=0.0, ch10out=0, ch11out=0, ch12out=0, battery_voltage=0, battery_current=-1, waypoints_count=0, ch3out=1619, waypoints=[], home_location={lon=0.0, lat=0.0}}
[2025-04-10 04:39:35] {GCS_IP=13.213.62.184, timestamp=2025-04-10 04:39:35, systemid=3, lat=35.0682549, lon=129.0867211, alt=28.421, dist_traveled=null, wp_dist=817, dist_to_home=1.3462042050489835E7, vertical_speed=-0.20818852, ground_speed=25.37713, wind_vel=0.12765427, airspeed=24.856054, gps_hdop=1.21, roll=-1.00, pitch=-2.78, yaw=44.31, ch3percent=65.20, ch9out=0, tot=0.0, toh=0.0, time_in_air=0.0, ch10out=0, ch11out=0, ch12out=0, battery_voltage=0, battery_current=-1, waypoints_count=0, ch3out=1652, waypoints=[], home_location={lon=0.0, lat=0.0}}
[2025-04-10 04:39:36] {GCS_IP=13.213.62.184, timestamp=2025-04-10 04:39:36, systemid=3, lat=35.0684183, lon=129.0869183, alt=28.245, dist_traveled=null, wp_dist=792, dist_to_home=1.3462050629498443E7, vertical_speed=0.10545829, ground_speed=25.507265, wind_vel=0.11563846, airspeed=24.939297, gps_hdop=1.21, roll=-5.81, pitch=-2.07, yaw=43.40, ch3percent=67.30, ch9out=0, tot=0.0, toh=0.0, time_in_air=0.0, ch10out=0, ch11out=0, ch12out=0, battery_voltage=0, battery_current=-1, waypoints_count=0, ch3out=1673, waypoints=[], home_location={lon=0.0, lat=0.0}}
[2025-04-10 04:39:37] {GCS_IP=13.213.62.184, timestamp=2025-04-10 04:39:37, systemid=3, lat=35.0685857, lon=129.0871088, alt=28.388, dist_traveled=null, wp_dist=767, dist_to_home=1.3462058467720216E7, vertical_speed=0.22049168, ground_speed=25.480562, wind_vel=0.101630226, airspeed=25.026407, gps_hdop=1.21, roll=-7.41, pitch=-1.76, yaw=41.13, ch3percent=67.80, ch9out=0, tot=0.0, toh=0.0, time_in_air=0.0, ch10out=0, ch11out=0, ch12out=0, battery_voltage=0, battery_current=-1, waypoints_count=0, ch3out=1678, waypoints=[], home_location={lon=0.0, lat=0.0}}
[2025-04-10 04:39:38] {GCS_IP=13.213.62.184, timestamp=2025-04-10 04:39:38, systemid=3, lat=35.0687596, lon=129.0872904, alt=28.64, dist_traveled=null, wp_dist=742, dist_to_home=1.346206526615692E7, vertical_speed=0.3217844, ground_speed=25.46985, wind_vel=0.08854461, airspeed=24.993984, gps_hdop=1.21, roll=-7.01, pitch=-1.63, yaw=38.79, ch3percent=67.20, ch9out=0, tot=0.0, toh=0.0, time_in_air=0.0, ch10out=0, ch11out=0, ch12out=0, battery_voltage=0, battery_current=-1, waypoints_count=0, ch3out=1672, waypoints=[], home_location={lon=0.0, lat=0.0}}
[2025-04-10 04:39:39] {GCS_IP=13.213.62.184, timestamp=2025-04-10 04:39:39, systemid=3, lat=35.0689392, lon=129.0874626, alt=28.954, dist_traveled=null, wp_dist=716, dist_to_home=1.3462071021197014E7, vertical_speed=0.24303174, ground_speed=25.383558, wind_vel=0.07631875, airspeed=24.95411, gps_hdop=1.21, roll=-6.08, pitch=-1.71, yaw=36.46, ch3percent=67.00, ch9out=0, tot=0.0, toh=0.0, time_in_air=0.0, ch10out=0, ch11out=0, ch12out=0, battery_voltage=0, battery_current=-1, waypoints_count=0, ch3out=1670, waypoints=[], home_location={lon=0.0, lat=0.0}}
[2025-04-10 04:39:40] {GCS_IP=13.213.62.184, timestamp=2025-04-10 04:39:40, systemid=3, lat=35.0691236, lon=129.0876262, alt=29.2, dist_traveled=null, wp_dist=691, dist_to_home=1.3462075841142898E7, vertical_speed=0.16339824, ground_speed=25.39255, wind_vel=0.06747528, airspeed=24.973824, gps_hdop=1.21, roll=-4.50, pitch=-1.95, yaw=34.74, ch3percent=66.70, ch9out=0, tot=0.0, toh=0.0, time_in_air=0.0, ch10out=0, ch11out=0, ch12out=0, battery_voltage=0, battery_current=-1, waypoints_count=0, ch3out=1667, waypoints=[], home_location={lon=0.0, lat=0.0}}
[2025-04-10 04:39:41] {GCS_IP=13.213.62.184, timestamp=2025-04-10 04:39:41, systemid=3, lat=35.0693126, lon=129.0877844, alt=29.427, dist_traveled=null, wp_dist=666, dist_to_home=1.3462079999301042E7, vertical_speed=0.13161953, ground_speed=25.365738, wind_vel=0.061594307, airspeed=24.915203, gps_hdop=1.21, roll=-2.78, pitch=-2.04, yaw=33.45, ch3percent=65.90, ch9out=0, tot=0.0, toh=0.0, time_in_air=0.0, ch10out=0, ch11out=0, ch12out=0, battery_voltage=0, battery_current=-1, waypoints_count=0, ch3out=1659, waypoints=[], home_location={lon=0.0, lat=0.0}}
[2025-04-10 04:39:42] {GCS_IP=13.213.62.184, timestamp=2025-04-10 04:39:42, systemid=3, lat=35.0695027, lon=129.0879373, alt=29.588, dist_traveled=null, wp_dist=640, dist_to_home=1.3462083668518815E7, vertical_speed=0.11210466, ground_speed=25.359026, wind_vel=0.05893141, airspeed=24.90885, gps_hdop=1.21, roll=-1.88, pitch=-2.07, yaw=32.66, ch3percent=65.90, ch9out=0, tot=0.0, toh=0.0, time_in_air=0.0, ch10out=0, ch11out=0, ch12out=0, battery_voltage=0, battery_current=-1, waypoints_count=0, ch3out=1659, waypoints=[], home_location={lon=0.0, lat=0.0}}
[2025-04-10 04:39:43] {GCS_IP=13.213.62.184, timestamp=2025-04-10 04:39:43, systemid=3, lat=35.069695, lon=129.0880883, alt=29.726, dist_traveled=null, wp_dist=615, dist_to_home=1.3462087077457443E7, vertical_speed=0.117006734, ground_speed=25.362173, wind_vel=0.059438925, airspeed=24.902218, gps_hdop=1.21, roll=-0.85, pitch=-2.15, yaw=32.22, ch3percent=65.80, ch9out=0, tot=0.0, toh=0.0, time_in_air=0.0, ch10out=0, ch11out=0, ch12out=0, battery_voltage=0, battery_current=-1, waypoints_count=0, ch3out=1658, waypoints=[], home_location={lon=0.0, lat=0.0}}
[2025-04-10 04:39:44] {GCS_IP=13.213.62.184, timestamp=2025-04-10 04:39:44, systemid=3, lat=35.069887, lon=129.0882377, alt=29.826, dist_traveled=null, wp_dist=590, dist_to_home=1.3462090368430192E7, vertical_speed=0.06687118, ground_speed=25.370476, wind_vel=0.062414378, airspeed=24.899036, gps_hdop=1.21, roll=-0.48, pitch=-2.27, yaw=32.10, ch3percent=65.60, ch9out=0, tot=0.0, toh=0.0, time_in_air=0.0, ch10out=0, ch11out=0, ch12out=0, battery_voltage=0, battery_current=-1, waypoints_count=0, ch3out=1656, waypoints=[], home_location={lon=0.0, lat=0.0}}
[2025-04-10 04:39:45] {GCS_IP=13.213.62.184, timestamp=2025-04-10 04:39:45, systemid=3, lat=35.0700797, lon=129.0883871, alt=29.892, dist_traveled=null, wp_dist=564, dist_to_home=1.3462093626355862E7, vertical_speed=0.03385989, ground_speed=25.367153, wind_vel=0.06684844, airspeed=24.877317, gps_hdop=1.21, roll=0.11, pitch=-2.28, yaw=31.97, ch3percent=65.70, ch9out=0, tot=0.0, toh=0.0, time_in_air=0.0, ch10out=0, ch11out=0, ch12out=0, battery_voltage=0, battery_current=-1, waypoints_count=0, ch3out=1657, waypoints=[], home_location={lon=0.0, lat=0.0}}
[2025-04-10 04:39:46] {GCS_IP=13.213.62.184, timestamp=2025-04-10 04:39:46, systemid=3, lat=35.0702697, lon=129.0885346, alt=29.914, dist_traveled=null, wp_dist=539, dist_to_home=1.3462096854450546E7, vertical_speed=-0.017786471, ground_speed=25.29634, wind_vel=0.07511856, airspeed=24.8961, gps_hdop=1.21, roll=0.50, pitch=-2.28, yaw=32.08, ch3percent=65.80, ch9out=0, tot=0.0, toh=0.0, time_in_air=0.0, ch10out=0, ch11out=0, ch12out=0, battery_voltage=0, battery_current=-1, waypoints_count=0, ch3out=1658, waypoints=[], home_location={lon=0.0, lat=0.0}}
[2025-04-10 04:39:47] {GCS_IP=13.213.62.184, timestamp=2025-04-10 04:39:47, systemid=3, lat=35.0704611, lon=129.0886839, alt=29.882, dist_traveled=null, wp_dist=514, dist_to_home=1.346210016501782E7, vertical_speed=-0.00618734, ground_speed=25.311522, wind_vel=0.084305406, airspeed=24.945574, gps_hdop=1.21, roll=0.58, pitch=-2.34, yaw=32.34, ch3percent=66.00, ch9out=0, tot=0.0, toh=0.0, time_in_air=0.0, ch10out=0, ch11out=0, ch12out=0, battery_voltage=0, battery_current=-1, waypoints_count=0, ch3out=1660, waypoints=[], home_location={lon=0.0, lat=0.0}}
[2025-04-10 04:39:48] {GCS_IP=13.213.62.184, timestamp=2025-04-10 04:39:48, systemid=3, lat=35.0706537, lon=129.0888354, alt=29.883, dist_traveled=null, wp_dist=488, dist_to_home=1.3462103600446682E7, vertical_speed=0.06731089, ground_speed=25.392466, wind_vel=0.09229933, airspeed=24.97272, gps_hdop=1.21, roll=0.51, pitch=-2.24, yaw=32.55, ch3percent=66.00, ch9out=0, tot=0.0, toh=0.0, time_in_air=0.0, ch10out=0, ch11out=0, ch12out=0, battery_voltage=0, battery_current=-1, waypoints_count=0, ch3out=1660, waypoints=[], home_location={lon=0.0, lat=0.0}}
[2025-04-10 04:39:49] {GCS_IP=13.213.62.184, timestamp=2025-04-10 04:39:49, systemid=3, lat=35.070846, lon=129.0889879, alt=29.932, dist_traveled=null, wp_dist=463, dist_to_home=1.3462107132322242E7, vertical_speed=0.016174048, ground_speed=25.429361, wind_vel=0.100042686, airspeed=24.972633, gps_hdop=1.21, roll=0.10, pitch=-2.41, yaw=32.67, ch3percent=65.90, ch9out=0, tot=0.0, toh=0.0, time_in_air=0.0, ch10out=0, ch11out=0, ch12out=0, battery_voltage=0, battery_current=-1, waypoints_count=0, ch3out=1659, waypoints=[], home_location={lon=0.0, lat=0.0}}
[2025-04-10 04:39:50] {GCS_IP=13.213.62.184, timestamp=2025-04-10 04:39:50, systemid=3, lat=35.071038, lon=129.0891405, alt=29.989, dist_traveled=null, wp_dist=437, dist_to_home=1.3462110686425345E7, vertical_speed=0.0545932, ground_speed=25.44625, wind_vel=0.10785248, airspeed=24.996525, gps_hdop=1.21, roll=0.34, pitch=-2.35, yaw=32.75, ch3percent=65.40, ch9out=0, tot=0.0, toh=0.0, time_in_air=0.0, ch10out=0, ch11out=0, ch12out=0, battery_voltage=0, battery_current=-1, waypoints_count=0, ch3out=1654, waypoints=[], home_location={lon=0.0, lat=0.0}}
[2025-04-10 04:39:51] {GCS_IP=13.213.62.184, timestamp=2025-04-10 04:39:51, systemid=3, lat=35.0712301, lon=129.0892939, alt=30.06, dist_traveled=null, wp_dist=412, dist_to_home=1.3462114301668588E7, vertical_speed=0.020625323, ground_speed=25.470284, wind_vel=0.113818794, airspeed=24.958305, gps_hdop=1.21, roll=0.05, pitch=-2.46, yaw=32.87, ch3percent=65.50, ch9out=0, tot=0.0, toh=0.0, time_in_air=0.0, ch10out=0, ch11out=0, ch12out=0, battery_voltage=0, battery_current=-1, waypoints_count=0, ch3out=1655, waypoints=[], home_location={lon=0.0, lat=0.0}}
[2025-04-10 04:39:52] {GCS_IP=13.213.62.184, timestamp=2025-04-10 04:39:52, systemid=3, lat=35.0714215, lon=129.0894469, alt=30.081, dist_traveled=null, wp_dist=386, dist_to_home=1.3462117916719988E7, vertical_speed=-6.986851E-5, ground_speed=25.43403, wind_vel=0.12107392, airspeed=24.935408, gps_hdop=1.21, roll=0.10, pitch=-2.44, yaw=32.93, ch3percent=65.40, ch9out=0, tot=0.0, toh=0.0, time_in_air=0.0, ch10out=0, ch11out=0, ch12out=0, battery_voltage=0, battery_current=-1, waypoints_count=0, ch3out=1654, waypoints=[], home_location={lon=0.0, lat=0.0}}
[2025-04-10 04:39:53] {GCS_IP=13.213.62.184, timestamp=2025-04-10 04:39:53, systemid=3, lat=35.0716119, lon=129.0895994, alt=30.04, dist_traveled=null, wp_dist=361, dist_to_home=1.3462121537444307E7, vertical_speed=-0.057852697, ground_speed=25.439533, wind_vel=0.12835598, airspeed=24.947542, gps_hdop=1.21, roll=0.14, pitch=-2.56, yaw=32.95, ch3percent=65.80, ch9out=0, tot=0.0, toh=0.0, time_in_air=0.0, ch10out=0, ch11out=0, ch12out=0, battery_voltage=0, battery_current=-1, waypoints_count=0, ch3out=1658, waypoints=[], home_location={lon=0.0, lat=0.0}}
[2025-04-10 04:39:54] {GCS_IP=13.213.62.184, timestamp=2025-04-10 04:39:54, systemid=3, lat=35.071803, lon=129.0897525, alt=30.014, dist_traveled=null, wp_dist=335, dist_to_home=1.3462125174596364E7, vertical_speed=0.0094288215, ground_speed=25.442081, wind_vel=0.13545239, airspeed=24.95247, gps_hdop=1.21, roll=-0.10, pitch=-2.36, yaw=32.93, ch3percent=66.10, ch9out=0, tot=0.0, toh=0.0, time_in_air=0.0, ch10out=0, ch11out=0, ch12out=0, battery_voltage=0, battery_current=-1, waypoints_count=0, ch3out=1661, waypoints=[], home_location={lon=0.0, lat=0.0}}
[2025-04-10 04:39:55] {GCS_IP=13.213.62.184, timestamp=2025-04-10 04:39:55, systemid=3, lat=35.0719936, lon=129.089905, alt=29.994, dist_traveled=null, wp_dist=310, dist_to_home=1.34621287856594E7, vertical_speed=-0.05867795, ground_speed=25.442787, wind_vel=0.14333887, airspeed=24.986536, gps_hdop=1.21, roll=0.17, pitch=-2.54, yaw=32.99, ch3percent=65.90, ch9out=0, tot=0.0, toh=0.0, time_in_air=0.0, ch10out=0, ch11out=0, ch12out=0, battery_voltage=0, battery_current=-1, waypoints_count=0, ch3out=1659, waypoints=[], home_location={lon=0.0, lat=0.0}}
