[2025-04-09 18:23:28] {GCS_IP=13.213.62.184, timestamp=2025-04-09 18:23:28, systemid=3, lat=null, lon=null, alt=null, dist_traveled=null, wp_dist=null, dist_to_home=0.0, vertical_speed=0.04857224, ground_speed=24.978832, wind_vel=0.0, airspeed=24.91136, gps_hdop=0.0, roll=0.65, pitch=-2.21, yaw=32.64, ch3percent=null, ch9out=0.0, tot=0.0, toh=0.0, time_in_air=0.0, ch10out=0.0, ch11out=0.0, ch12out=0.0, battery_voltage=0.0, battery_current=0.0, waypoints_count=0}
[2025-04-09 18:23:29] {GCS_IP=13.213.62.184, timestamp=2025-04-09 18:23:29, systemid=3, lat=35.0706748, lon=129.088855, alt=29.95, dist_traveled=null, wp_dist=484, dist_to_home=1.3462104224417333E7, vertical_speed=0.053866286, ground_speed=25.013739, wind_vel=0.01568925, airspeed=24.928976, gps_hdop=1.21, roll=0.40, pitch=-2.22, yaw=32.88, ch3percent=63.50, ch9out=0, tot=0.0, toh=0.0, time_in_air=0.0, ch10out=0, ch11out=0, ch12out=0, battery_voltage=0, battery_current=-1, waypoints_count=0, waypoints=[], home_location={lon=0.0, lat=0.0}, ch3out=1635}
[2025-04-09 18:23:30] {GCS_IP=13.213.62.184, timestamp=2025-04-09 18:23:30, systemid=3, lat=35.0708623, lon=129.0890043, alt=29.956, dist_traveled=null, wp_dist=459, dist_to_home=1.3462107718140122E7, vertical_speed=-0.016286276, ground_speed=24.985723, wind_vel=0.015746659, airspeed=24.946318, gps_hdop=1.21, roll=0.41, pitch=-2.36, yaw=33.14, ch3percent=63.40, ch9out=0, tot=0.0, toh=0.0, time_in_air=0.0, ch10out=0, ch11out=0, ch12out=0, battery_voltage=0, battery_current=-1, waypoints_count=0, waypoints=[], home_location={lon=0.0, lat=0.0}, ch3out=1634}
[2025-04-09 18:23:31] {GCS_IP=13.213.62.184, timestamp=2025-04-09 18:23:31, systemid=3, lat=35.0710498, lon=129.089154, alt=29.956, dist_traveled=null, wp_dist=434, dist_to_home=1.3462111244726298E7, vertical_speed=-0.010154896, ground_speed=24.971287, wind_vel=0.016028726, airspeed=24.948994, gps_hdop=1.21, roll=0.09, pitch=-2.30, yaw=33.11, ch3percent=63.60, ch9out=0, tot=0.0, toh=0.0, time_in_air=0.0, ch10out=0, ch11out=0, ch12out=0, battery_voltage=0, battery_current=-1, waypoints_count=0, waypoints=[], home_location={lon=0.0, lat=0.0}, ch3out=1636}
[2025-04-09 18:23:32] {GCS_IP=13.213.62.184, timestamp=2025-04-09 18:23:32, systemid=3, lat=35.0712383, lon=129.0893044, alt=29.948, dist_traveled=null, wp_dist=409, dist_to_home=1.3462114781882575E7, vertical_speed=0.0065917647, ground_speed=25.0017, wind_vel=0.01615854, airspeed=24.978872, gps_hdop=1.21, roll=0.25, pitch=-2.34, yaw=33.19, ch3percent=63.40, ch9out=0, tot=0.0, toh=0.0, time_in_air=0.0, ch10out=0, ch11out=0, ch12out=0, battery_voltage=0, battery_current=-1, waypoints_count=0, waypoints=[], home_location={lon=0.0, lat=0.0}, ch3out=1634}
[2025-04-09 18:23:33] {GCS_IP=13.213.62.184, timestamp=2025-04-09 18:23:33, systemid=3, lat=35.0714272, lon=129.0894553, alt=29.993, dist_traveled=null, wp_dist=384, dist_to_home=1.346211834133382E7, vertical_speed=0.07888011, ground_speed=25.030342, wind_vel=0.015946113, airspeed=24.981241, gps_hdop=1.21, roll=0.07, pitch=-2.16, yaw=33.26, ch3percent=63.20, ch9out=0, tot=0.0, toh=0.0, time_in_air=0.0, ch10out=0, ch11out=0, ch12out=0, battery_voltage=0, battery_current=-1, waypoints_count=0, waypoints=[], home_location={lon=0.0, lat=0.0}, ch3out=1632}
[2025-04-09 18:23:34] {GCS_IP=13.213.62.184, timestamp=2025-04-09 18:23:34, systemid=3, lat=35.0716159, lon=129.0896063, alt=30.026, dist_traveled=null, wp_dist=359, dist_to_home=1.346212191831332E7, vertical_speed=-0.01673076, ground_speed=25.04337, wind_vel=0.01571158, airspeed=24.951029, gps_hdop=1.21, roll=0.34, pitch=-2.39, yaw=33.30, ch3percent=63.30, ch9out=0, tot=0.0, toh=0.0, time_in_air=0.0, ch10out=0, ch11out=0, ch12out=0, battery_voltage=0, battery_current=-1, waypoints_count=0, waypoints=[], home_location={lon=0.0, lat=0.0}, ch3out=1633}
[2025-04-09 18:23:35] {GCS_IP=13.213.62.184, timestamp=2025-04-09 18:23:35, systemid=3, lat=35.0718042, lon=129.0897572, alt=30.041, dist_traveled=null, wp_dist=334, dist_to_home=1.3462125505735163E7, vertical_speed=0.012880052, ground_speed=25.053373, wind_vel=0.015689796, airspeed=24.957796, gps_hdop=1.21, roll=0.02, pitch=-2.40, yaw=33.35, ch3percent=63.30, ch9out=0, tot=0.0, toh=0.0, time_in_air=0.0, ch10out=0, ch11out=0, ch12out=0, battery_voltage=0, battery_current=-1, waypoints_count=0, waypoints=[], home_location={lon=0.0, lat=0.0}, ch3out=1633}
[2025-04-09 18:23:36] {GCS_IP=13.213.62.184, timestamp=2025-04-09 18:23:36, systemid=3, lat=35.0719921, lon=129.0899076, alt=30.037, dist_traveled=null, wp_dist=309, dist_to_home=1.3462129070614621E7, vertical_speed=-0.007942974, ground_speed=25.005842, wind_vel=0.015793886, airspeed=24.983397, gps_hdop=1.21, roll=0.02, pitch=-2.30, yaw=33.30, ch3percent=63.00, ch9out=0, tot=0.0, toh=0.0, time_in_air=0.0, ch10out=0, ch11out=0, ch12out=0, battery_voltage=0, battery_current=-1, waypoints_count=0, waypoints=[], home_location={lon=0.0, lat=0.0}, ch3out=1630}
[2025-04-09 18:23:37] {GCS_IP=13.213.62.184, timestamp=2025-04-09 18:23:37, systemid=3, lat=35.0721792, lon=129.0900573, alt=30.012, dist_traveled=null, wp_dist=284, dist_to_home=1.3462132615273774E7, vertical_speed=-0.041311353, ground_speed=24.984558, wind_vel=0.015855892, airspeed=24.993532, gps_hdop=1.21, roll=0.02, pitch=-2.39, yaw=33.30, ch3percent=63.30, ch9out=0, tot=0.0, toh=0.0, time_in_air=0.0, ch10out=0, ch11out=0, ch12out=0, battery_voltage=0, battery_current=-1, waypoints_count=0, waypoints=[], home_location={lon=0.0, lat=0.0}, ch3out=1633}
[2025-04-09 18:23:38] {GCS_IP=13.213.62.184, timestamp=2025-04-09 18:23:38, systemid=3, lat=35.0723681, lon=129.0902085, alt=30.026, dist_traveled=null, wp_dist=259, dist_to_home=1.3462136198841957E7, vertical_speed=-0.015280356, ground_speed=25.01164, wind_vel=0.015769906, airspeed=24.964006, gps_hdop=1.21, roll=0.21, pitch=-2.43, yaw=33.40, ch3percent=63.10, ch9out=0, tot=0.0, toh=0.0, time_in_air=0.0, ch10out=0, ch11out=0, ch12out=0, battery_voltage=0, battery_current=-1, waypoints_count=0, waypoints=[], home_location={lon=0.0, lat=0.0}, ch3out=1631}
[2025-04-09 18:23:39] {GCS_IP=13.213.62.184, timestamp=2025-04-09 18:23:39, systemid=3, lat=35.0725562, lon=129.0903593, alt=30.012, dist_traveled=null, wp_dist=234, dist_to_home=1.3462139786928289E7, vertical_speed=0.0061143995, ground_speed=25.034693, wind_vel=0.01574431, airspeed=25.001371, gps_hdop=1.21, roll=0.00, pitch=-2.37, yaw=33.46, ch3percent=63.30, ch9out=0, tot=0.0, toh=0.0, time_in_air=0.0, ch10out=0, ch11out=0, ch12out=0, battery_voltage=0, battery_current=-1, waypoints_count=0, waypoints=[], home_location={lon=0.0, lat=0.0}, ch3out=1633}
[2025-04-09 18:23:40] {GCS_IP=13.213.62.184, timestamp=2025-04-09 18:23:40, systemid=3, lat=35.0727451, lon=129.0905105, alt=30.017, dist_traveled=null, wp_dist=209, dist_to_home=1.3462143370247005E7, vertical_speed=0.024159621, ground_speed=25.046988, wind_vel=0.015649298, airspeed=25.02731, gps_hdop=1.21, roll=0.12, pitch=-2.37, yaw=33.36, ch3percent=63.40, ch9out=0, tot=0.0, toh=0.0, time_in_air=0.0, ch10out=0, ch11out=0, ch12out=0, battery_voltage=0, battery_current=-1, waypoints_count=0, waypoints=[], home_location={lon=0.0, lat=0.0}, ch3out=1634}
[2025-04-09 18:23:41] {GCS_IP=13.213.62.184, timestamp=2025-04-09 18:23:41, systemid=3, lat=35.0729338, lon=129.0906617, alt=30.038, dist_traveled=null, wp_dist=184, dist_to_home=1.3462146962847915E7, vertical_speed=0.016937938, ground_speed=25.06163, wind_vel=0.015684504, airspeed=24.94101, gps_hdop=1.21, roll=0.20, pitch=-2.33, yaw=33.41, ch3percent=63.40, ch9out=0, tot=0.0, toh=0.0, time_in_air=0.0, ch10out=0, ch11out=0, ch12out=0, battery_voltage=0, battery_current=-1, waypoints_count=0, waypoints=[], home_location={lon=0.0, lat=0.0}, ch3out=1634}
[2025-04-09 18:23:42] {GCS_IP=13.213.62.184, timestamp=2025-04-09 18:23:42, systemid=3, lat=35.0731223, lon=129.0908129, alt=30.026, dist_traveled=null, wp_dist=159, dist_to_home=1.3462150564731253E7, vertical_speed=0.029582687, ground_speed=25.079212, wind_vel=0.016255882, airspeed=24.98201, gps_hdop=1.21, roll=0.03, pitch=-2.28, yaw=33.48, ch3percent=63.50, ch9out=0, tot=0.0, toh=0.0, time_in_air=0.0, ch10out=0, ch11out=0, ch12out=0, battery_voltage=0, battery_current=-1, waypoints_count=0, waypoints=[], home_location={lon=0.0, lat=0.0}, ch3out=1635}
[2025-04-09 18:23:43] {GCS_IP=13.213.62.184, timestamp=2025-04-09 18:23:43, systemid=3, lat=35.0733099, lon=129.0909633, alt=30.022, dist_traveled=null, wp_dist=134, dist_to_home=1.3462154142854126E7, vertical_speed=-0.015160663, ground_speed=25.039034, wind_vel=0.01619317, airspeed=24.970255, gps_hdop=1.21, roll=0.04, pitch=-2.31, yaw=33.59, ch3percent=63.30, ch9out=0, tot=0.0, toh=0.0, time_in_air=0.0, ch10out=0, ch11out=0, ch12out=0, battery_voltage=0, battery_current=-1, waypoints_count=0, waypoints=[], home_location={lon=0.0, lat=0.0}, ch3out=1633}
[2025-04-09 18:23:44] {GCS_IP=13.213.62.184, timestamp=2025-04-09 18:23:44, systemid=3, lat=35.0734973, lon=129.0911139, alt=30.024, dist_traveled=null, wp_dist=109, dist_to_home=1.3462157746753084E7, vertical_speed=-0.008446114, ground_speed=25.017511, wind_vel=0.016106337, airspeed=25.014032, gps_hdop=1.21, roll=0.01, pitch=-2.26, yaw=33.47, ch3percent=63.40, ch9out=0, tot=0.0, toh=0.0, time_in_air=0.0, ch10out=0, ch11out=0, ch12out=0, battery_voltage=0, battery_current=-1, waypoints_count=0, waypoints=[], home_location={lon=0.0, lat=0.0}, ch3out=1634}
[2025-04-09 18:23:45] {GCS_IP=13.213.62.184, timestamp=2025-04-09 18:23:45, systemid=3, lat=35.0736854, lon=129.0912649, alt=30.009, dist_traveled=null, wp_dist=84, dist_to_home=1.3462161350586617E7, vertical_speed=0.019447906, ground_speed=25.008394, wind_vel=0.015889106, airspeed=24.993635, gps_hdop=1.21, roll=0.03, pitch=-2.29, yaw=33.61, ch3percent=63.20, ch9out=0, tot=0.0, toh=0.0, time_in_air=0.0, ch10out=0, ch11out=0, ch12out=0, battery_voltage=0, battery_current=-1, waypoints_count=0, waypoints=[], home_location={lon=0.0, lat=0.0}, ch3out=1632}
[2025-04-09 18:23:46] {GCS_IP=13.213.62.184, timestamp=2025-04-09 18:23:46, systemid=3, lat=35.0738734, lon=129.0914158, alt=30.013, dist_traveled=null, wp_dist=59, dist_to_home=1.3462164950753722E7, vertical_speed=0.029849604, ground_speed=25.020573, wind_vel=0.01593617, airspeed=25.001314, gps_hdop=1.21, roll=-0.35, pitch=-2.17, yaw=33.44, ch3percent=63.30, ch9out=0, tot=0.0, toh=0.0, time_in_air=0.0, ch10out=0, ch11out=0, ch12out=0, battery_voltage=0, battery_current=-1, waypoints_count=0, waypoints=[], home_location={lon=0.0, lat=0.0}, ch3out=1633}
[2025-04-09 18:23:47] {GCS_IP=13.213.62.184, timestamp=2025-04-09 18:23:47, systemid=3, lat=35.0740602, lon=129.0915691, alt=30.013, dist_traveled=null, wp_dist=652, dist_to_home=1.3462168805145388E7, vertical_speed=-0.35618284, ground_speed=25.021585, wind_vel=0.01425193, airspeed=24.988682, gps_hdop=1.21, roll=60.74, pitch=-3.90, yaw=39.15, ch3percent=76.60, ch9out=0, tot=0.0, toh=0.0, time_in_air=0.0, ch10out=0, ch11out=0, ch12out=0, battery_voltage=0, battery_current=-1, waypoints_count=0, waypoints=[], home_location={lon=0.0, lat=0.0}, ch3out=1766}
[2025-04-09 18:23:48] {GCS_IP=13.213.62.184, timestamp=2025-04-09 18:23:48, systemid=3, lat=35.0741389, lon=129.0918065, alt=30.796, dist_traveled=null, wp_dist=667, dist_to_home=1.346218467909747E7, vertical_speed=1.9264225, ground_speed=23.307014, wind_vel=0.01619339, airspeed=24.067417, gps_hdop=1.21, roll=52.75, pitch=4.30, yaw=87.29, ch3percent=26.00, ch9out=0, tot=0.0, toh=0.0, time_in_air=0.0, ch10out=0, ch11out=0, ch12out=0, battery_voltage=0, battery_current=-1, waypoints_count=0, waypoints=[], home_location={lon=0.0, lat=0.0}, ch3out=1260}
[2025-04-09 18:23:49] {GCS_IP=13.213.62.184, timestamp=2025-04-09 18:23:49, systemid=3, lat=35.0741169, lon=129.0920545, alt=30.23, dist_traveled=null, wp_dist=672, dist_to_home=1.3462206163843445E7, vertical_speed=-2.0788279, ground_speed=22.574787, wind_vel=0.0077712303, airspeed=22.663157, gps_hdop=1.21, roll=54.05, pitch=-4.26, yaw=104.20, ch3percent=43.40, ch9out=0, tot=0.0, toh=0.0, time_in_air=0.0, ch10out=0, ch11out=0, ch12out=0, battery_voltage=0, battery_current=-1, waypoints_count=0, waypoints=[], home_location={lon=0.0, lat=0.0}, ch3out=1434}
[2025-04-09 18:23:50] {GCS_IP=13.213.62.184, timestamp=2025-04-09 18:23:50, systemid=3, lat=35.0740154, lon=129.0922678, alt=27.895, dist_traveled=null, wp_dist=669, dist_to_home=1.3462228526845815E7, vertical_speed=-2.1434982, ground_speed=23.148005, wind_vel=0.008881623, airspeed=22.995865, gps_hdop=1.21, roll=54.77, pitch=-4.00, yaw=134.41, ch3percent=60.20, ch9out=0, tot=0.0, toh=0.0, time_in_air=0.0, ch10out=0, ch11out=0, ch12out=0, battery_voltage=0, battery_current=-1, waypoints_count=0, waypoints=[], home_location={lon=0.0, lat=0.0}, ch3out=1602}
[2025-04-09 18:23:51] {GCS_IP=13.213.62.184, timestamp=2025-04-09 18:23:51, systemid=3, lat=35.07383, lon=129.092387, alt=26.231, dist_traveled=null, wp_dist=654, dist_to_home=1.346224707703162E7, vertical_speed=-1.1128932, ground_speed=24.080597, wind_vel=0.013163836, airspeed=23.856386, gps_hdop=1.21, roll=54.12, pitch=-1.62, yaw=166.54, ch3percent=69.00, ch9out=0, tot=0.0, toh=0.0, time_in_air=0.0, ch10out=0, ch11out=0, ch12out=0, battery_voltage=0, battery_current=-1, waypoints_count=0, waypoints=[], home_location={lon=0.0, lat=0.0}, ch3out=1690}
[2025-04-09 18:23:52] {GCS_IP=13.213.62.184, timestamp=2025-04-09 18:23:52, systemid=3, lat=35.0736135, lon=129.0923787, alt=25.392, dist_traveled=null, wp_dist=632, dist_to_home=1.3462256576539129E7, vertical_speed=-0.69610566, ground_speed=24.655907, wind_vel=0.012723504, airspeed=24.561245, gps_hdop=1.21, roll=47.85, pitch=-1.46, yaw=-168.43, ch3percent=65.30, ch9out=0, tot=0.0, toh=0.0, time_in_air=0.0, ch10out=0, ch11out=0, ch12out=0, battery_voltage=0, battery_current=-1, waypoints_count=0, waypoints=[], home_location={lon=0.0, lat=0.0}, ch3out=1653}
[2025-04-09 18:23:53] {GCS_IP=13.213.62.184, timestamp=2025-04-09 18:23:53, systemid=3, lat=35.0734095, lon=129.0922729, alt=24.623, dist_traveled=null, wp_dist=607, dist_to_home=1.346225744816065E7, vertical_speed=-0.7999267, ground_speed=24.900686, wind_vel=0.010174144, airspeed=24.90385, gps_hdop=1.21, roll=33.96, pitch=-2.82, yaw=-151.96, ch3percent=61.10, ch9out=0, tot=0.0, toh=0.0, time_in_air=0.0, ch10out=0, ch11out=0, ch12out=0, battery_voltage=0, battery_current=-1, waypoints_count=0, waypoints=[], home_location={lon=0.0, lat=0.0}, ch3out=1611}
[2025-04-09 18:23:54] {GCS_IP=13.213.62.184, timestamp=2025-04-09 18:23:54, systemid=3, lat=35.0732266, lon=129.0921137, alt=23.842, dist_traveled=null, wp_dist=583, dist_to_home=1.3462252923787966E7, vertical_speed=-0.5648322, ground_speed=25.097837, wind_vel=0.008590739, airspeed=25.043694, gps_hdop=1.21, roll=14.33, pitch=-3.34, yaw=-142.50, ch3percent=63.20, ch9out=0, tot=0.0, toh=0.0, time_in_air=0.0, ch10out=0, ch11out=0, ch12out=0, battery_voltage=0, battery_current=-1, waypoints_count=0, waypoints=[], home_location={lon=0.0, lat=0.0}, ch3out=1632}
[2025-04-09 18:23:55] {GCS_IP=13.213.62.184, timestamp=2025-04-09 18:23:55, systemid=3, lat=35.0730533, lon=129.0919338, alt=23.534, dist_traveled=null, wp_dist=558, dist_to_home=1.3462246240790972E7, vertical_speed=0.085930005, ground_speed=25.293589, wind_vel=0.009134672, airspeed=25.191679, gps_hdop=1.21, roll=-2.12, pitch=-2.22, yaw=-139.64, ch3percent=67.20, ch9out=0, tot=0.0, toh=0.0, time_in_air=0.0, ch10out=0, ch11out=0, ch12out=0, battery_voltage=0, battery_current=-1, waypoints_count=0, waypoints=[], home_location={lon=0.0, lat=0.0}, ch3out=1672}
[2025-04-09 18:23:56] {GCS_IP=13.213.62.184, timestamp=2025-04-09 18:23:56, systemid=3, lat=35.0728777, lon=129.091756, alt=23.849, dist_traveled=null, wp_dist=534, dist_to_home=1.34622398390161E7, vertical_speed=0.54759383, ground_speed=25.403845, wind_vel=0.010418689, airspeed=25.294607, gps_hdop=1.21, roll=-10.07, pitch=-1.12, yaw=-141.39, ch3percent=69.70, ch9out=0, tot=0.0, toh=0.0, time_in_air=0.0, ch10out=0, ch11out=0, ch12out=0, battery_voltage=0, battery_current=-1, waypoints_count=0, waypoints=[], home_location={lon=0.0, lat=0.0}, ch3out=1697}
[2025-04-09 18:23:57] {GCS_IP=13.213.62.184, timestamp=2025-04-09 18:23:57, systemid=3, lat=35.0726931, lon=129.0915913, alt=24.559, dist_traveled=null, wp_dist=510, dist_to_home=1.3462234940684782E7, vertical_speed=0.79493415, ground_speed=25.432919, wind_vel=0.013099284, airspeed=25.31826, gps_hdop=1.21, roll=-12.75, pitch=-0.51, yaw=-145.18, ch3percent=70.10, ch9out=0, tot=0.0, toh=0.0, time_in_air=0.0, ch10out=0, ch11out=0, ch12out=0, battery_voltage=0, battery_current=-1, waypoints_count=0, waypoints=[], home_location={lon=0.0, lat=0.0}, ch3out=1701}
[2025-04-09 18:23:58] {GCS_IP=13.213.62.184, timestamp=2025-04-09 18:23:58, systemid=3, lat=35.0725003, lon=129.0914453, alt=25.383, dist_traveled=null, wp_dist=485, dist_to_home=1.346223196995619E7, vertical_speed=0.7739376, ground_speed=25.346518, wind_vel=0.012503582, airspeed=25.297342, gps_hdop=1.21, roll=-12.73, pitch=-0.50, yaw=-149.64, ch3percent=68.90, ch9out=0, tot=0.0, toh=0.0, time_in_air=0.0, ch10out=0, ch11out=0, ch12out=0, battery_voltage=0, battery_current=-1, waypoints_count=0, waypoints=[], home_location={lon=0.0, lat=0.0}, ch3out=1689}
[2025-04-09 18:23:59] {GCS_IP=13.213.62.184, timestamp=2025-04-09 18:23:59, systemid=3, lat=35.0722992, lon=129.0913175, alt=26.149, dist_traveled=null, wp_dist=460, dist_to_home=1.3462230890312582E7, vertical_speed=0.72816277, ground_speed=25.238062, wind_vel=0.011745441, airspeed=25.218859, gps_hdop=1.21, roll=-10.90, pitch=-0.59, yaw=-153.75, ch3percent=67.70, ch9out=0, tot=0.0, toh=0.0, time_in_air=0.0, ch10out=0, ch11out=0, ch12out=0, battery_voltage=0, battery_current=-1, waypoints_count=0, waypoints=[], home_location={lon=0.0, lat=0.0}, ch3out=1677}
[2025-04-09 18:24:00] {GCS_IP=13.213.62.184, timestamp=2025-04-09 18:24:00, systemid=3, lat=35.0720921, lon=129.0912055, alt=26.828, dist_traveled=null, wp_dist=435, dist_to_home=1.3462231395671561E7, vertical_speed=0.61663496, ground_speed=25.146822, wind_vel=0.011831714, airspeed=25.163868, gps_hdop=1.21, roll=-8.39, pitch=-0.94, yaw=-157.06, ch3percent=66.70, ch9out=0, tot=0.0, toh=0.0, time_in_air=0.0, ch10out=0, ch11out=0, ch12out=0, battery_voltage=0, battery_current=-1, waypoints_count=0, waypoints=[], home_location={lon=0.0, lat=0.0}, ch3out=1667}
[2025-04-09 18:24:01] {GCS_IP=13.213.62.184, timestamp=2025-04-09 18:24:01, systemid=3, lat=35.071881, lon=129.091106, alt=27.379, dist_traveled=null, wp_dist=410, dist_to_home=1.346223311984515E7, vertical_speed=0.4801879, ground_speed=25.091932, wind_vel=0.012034724, airspeed=25.091173, gps_hdop=1.21, roll=-5.97, pitch=-1.21, yaw=-159.45, ch3percent=65.90, ch9out=0, tot=0.0, toh=0.0, time_in_air=0.0, ch10out=0, ch11out=0, ch12out=0, battery_voltage=0, battery_current=-1, waypoints_count=0, waypoints=[], home_location={lon=0.0, lat=0.0}, ch3out=1659}
[2025-04-09 18:24:02] {GCS_IP=13.213.62.184, timestamp=2025-04-09 18:24:02, systemid=3, lat=35.0716677, lon=129.0910154, alt=27.848, dist_traveled=null, wp_dist=385, dist_to_home=1.3462235681311794E7, vertical_speed=0.4367107, ground_speed=25.044504, wind_vel=0.012315963, airspeed=25.057354, gps_hdop=1.21, roll=-3.25, pitch=-1.37, yaw=-161.13, ch3percent=65.20, ch9out=0, tot=0.0, toh=0.0, time_in_air=0.0, ch10out=0, ch11out=0, ch12out=0, battery_voltage=0, battery_current=-1, waypoints_count=0, waypoints=[], home_location={lon=0.0, lat=0.0}, ch3out=1652}
[2025-04-09 18:24:03] {GCS_IP=13.213.62.184, timestamp=2025-04-09 18:24:03, systemid=3, lat=35.0714532, lon=129.0909299, alt=28.238, dist_traveled=null, wp_dist=360, dist_to_home=1.3462238719682546E7, vertical_speed=0.34392768, ground_speed=25.023539, wind_vel=0.01307213, airspeed=24.984552, gps_hdop=1.21, roll=-1.33, pitch=-1.58, yaw=-162.15, ch3percent=64.70, ch9out=0, tot=0.0, toh=0.0, time_in_air=0.0, ch10out=0, ch11out=0, ch12out=0, battery_voltage=0, battery_current=-1, waypoints_count=0, waypoints=[], home_location={lon=0.0, lat=0.0}, ch3out=1647}
[2025-04-09 18:24:04] {GCS_IP=13.213.62.184, timestamp=2025-04-09 18:24:04, systemid=3, lat=35.0712385, lon=129.090847, alt=28.561, dist_traveled=null, wp_dist=335, dist_to_home=1.346224198176754E7, vertical_speed=0.27104077, ground_speed=25.003408, wind_vel=0.014057915, airspeed=24.909647, gps_hdop=1.21, roll=0.12, pitch=-1.71, yaw=-162.40, ch3percent=64.60, ch9out=0, tot=0.0, toh=0.0, time_in_air=0.0, ch10out=0, ch11out=0, ch12out=0, battery_voltage=0, battery_current=-1, waypoints_count=0, waypoints=[], home_location={lon=0.0, lat=0.0}, ch3out=1646}
[2025-04-09 18:24:05] {GCS_IP=13.213.62.184, timestamp=2025-04-09 18:24:05, systemid=3, lat=35.0710248, lon=129.0907645, alt=28.839, dist_traveled=null, wp_dist=310, dist_to_home=1.3462245229707211E7, vertical_speed=0.23100826, ground_speed=24.984539, wind_vel=0.0136686, airspeed=24.910376, gps_hdop=1.21, roll=0.61, pitch=-1.75, yaw=-162.43, ch3percent=64.50, ch9out=0, tot=0.0, toh=0.0, time_in_air=0.0, ch10out=0, ch11out=0, ch12out=0, battery_voltage=0, battery_current=-1, waypoints_count=0, waypoints=[], home_location={lon=0.0, lat=0.0}, ch3out=1645}
[2025-04-09 18:24:06] {GCS_IP=13.213.62.184, timestamp=2025-04-09 18:24:06, systemid=3, lat=35.0708118, lon=129.0906813, alt=29.05, dist_traveled=null, wp_dist=285, dist_to_home=1.3462248386902122E7, vertical_speed=0.17906268, ground_speed=24.948835, wind_vel=0.012544383, airspeed=24.918833, gps_hdop=1.21, roll=1.01, pitch=-1.78, yaw=-162.08, ch3percent=64.00, ch9out=0, tot=0.0, toh=0.0, time_in_air=0.0, ch10out=0, ch11out=0, ch12out=0, battery_voltage=0, battery_current=-1, waypoints_count=0, waypoints=[], home_location={lon=0.0, lat=0.0}, ch3out=1640}
[2025-04-09 18:24:07] {GCS_IP=13.213.62.184, timestamp=2025-04-09 18:24:07, systemid=3, lat=35.070598, lon=129.0905961, alt=29.221, dist_traveled=null, wp_dist=260, dist_to_home=1.3462251416698137E7, vertical_speed=0.103324994, ground_speed=24.948914, wind_vel=0.011998826, airspeed=24.972754, gps_hdop=1.21, roll=1.00, pitch=-2.01, yaw=-161.71, ch3percent=64.00, ch9out=0, tot=0.0, toh=0.0, time_in_air=0.0, ch10out=0, ch11out=0, ch12out=0, battery_voltage=0, battery_current=-1, waypoints_count=0, waypoints=[], home_location={lon=0.0, lat=0.0}, ch3out=1640}
[2025-04-09 18:24:08] {GCS_IP=13.213.62.184, timestamp=2025-04-09 18:24:08, systemid=3, lat=35.0703856, lon=129.0905098, alt=29.348, dist_traveled=null, wp_dist=235, dist_to_home=1.3462254289838238E7, vertical_speed=0.13737386, ground_speed=24.945282, wind_vel=0.010972627, airspeed=24.947084, gps_hdop=1.21, roll=0.80, pitch=-1.92, yaw=-161.50, ch3percent=64.10, ch9out=0, tot=0.0, toh=0.0, time_in_air=0.0, ch10out=0, ch11out=0, ch12out=0, battery_voltage=0, battery_current=-1, waypoints_count=0, waypoints=[], home_location={lon=0.0, lat=0.0}, ch3out=1641}
[2025-04-09 18:24:09] {GCS_IP=13.213.62.184, timestamp=2025-04-09 18:24:09, systemid=3, lat=35.070173, lon=129.090422, alt=29.467, dist_traveled=null, wp_dist=210, dist_to_home=1.3462257048588924E7, vertical_speed=0.09052964, ground_speed=24.960005, wind_vel=0.010620304, airspeed=24.947388, gps_hdop=1.21, roll=0.80, pitch=-2.08, yaw=-161.17, ch3percent=64.20, ch9out=0, tot=0.0, toh=0.0, time_in_air=0.0, ch10out=0, ch11out=0, ch12out=0, battery_voltage=0, battery_current=-1, waypoints_count=0, waypoints=[], home_location={lon=0.0, lat=0.0}, ch3out=1642}
[2025-04-09 18:24:10] {GCS_IP=13.213.62.184, timestamp=2025-04-09 18:24:10, systemid=3, lat=35.0699602, lon=129.090333, alt=29.601, dist_traveled=null, wp_dist=185, dist_to_home=1.3462259717688242E7, vertical_speed=0.09692501, ground_speed=24.978931, wind_vel=0.010376511, airspeed=24.951672, gps_hdop=1.21, roll=0.85, pitch=-2.11, yaw=-160.87, ch3percent=63.70, ch9out=0, tot=0.0, toh=0.0, time_in_air=0.0, ch10out=0, ch11out=0, ch12out=0, battery_voltage=0, battery_current=-1, waypoints_count=0, waypoints=[], home_location={lon=0.0, lat=0.0}, ch3out=1637}
[2025-04-09 18:24:11] {GCS_IP=13.213.62.184, timestamp=2025-04-09 18:24:11, systemid=3, lat=35.0697475, lon=129.0902429, alt=29.692, dist_traveled=null, wp_dist=160, dist_to_home=1.3462262291271739E7, vertical_speed=0.050268266, ground_speed=25.00909, wind_vel=0.011475667, airspeed=24.944998, gps_hdop=1.21, roll=0.46, pitch=-2.24, yaw=-160.65, ch3percent=63.50, ch9out=0, tot=0.0, toh=0.0, time_in_air=0.0, ch10out=0, ch11out=0, ch12out=0, battery_voltage=0, battery_current=-1, waypoints_count=0, waypoints=[], home_location={lon=0.0, lat=0.0}, ch3out=1635}
[2025-04-09 18:24:12] {GCS_IP=13.213.62.184, timestamp=2025-04-09 18:24:12, systemid=3, lat=35.0695343, lon=129.0901517, alt=29.755, dist_traveled=null, wp_dist=135, dist_to_home=1.346226479755748E7, vertical_speed=0.050642118, ground_speed=25.031282, wind_vel=0.012951691, airspeed=24.934797, gps_hdop=1.21, roll=0.02, pitch=-2.24, yaw=-160.50, ch3percent=63.60, ch9out=0, tot=0.0, toh=0.0, time_in_air=0.0, ch10out=0, ch11out=0, ch12out=0, battery_voltage=0, battery_current=-1, waypoints_count=0, waypoints=[], home_location={lon=0.0, lat=0.0}, ch3out=1636}
[2025-04-09 18:24:13] {GCS_IP=13.213.62.184, timestamp=2025-04-09 18:24:13, systemid=3, lat=35.0693225, lon=129.090061, alt=29.811, dist_traveled=null, wp_dist=110, dist_to_home=1.3462267279131E7, vertical_speed=0.03313091, ground_speed=25.04292, wind_vel=0.014094033, airspeed=24.973581, gps_hdop=1.21, roll=0.20, pitch=-2.19, yaw=-160.49, ch3percent=63.40, ch9out=0, tot=0.0, toh=0.0, time_in_air=0.0, ch10out=0, ch11out=0, ch12out=0, battery_voltage=0, battery_current=-1, waypoints_count=0, waypoints=[], home_location={lon=0.0, lat=0.0}, ch3out=1634}
[2025-04-09 18:24:14] {GCS_IP=13.213.62.184, timestamp=2025-04-09 18:24:14, systemid=3, lat=35.0691096, lon=129.0899697, alt=29.875, dist_traveled=null, wp_dist=85, dist_to_home=1.3462269762858167E7, vertical_speed=0.02996571, ground_speed=25.022552, wind_vel=0.014252979, airspeed=24.963194, gps_hdop=1.21, roll=-0.12, pitch=-2.27, yaw=-160.52, ch3percent=63.40, ch9out=0, tot=0.0, toh=0.0, time_in_air=0.0, ch10out=0, ch11out=0, ch12out=0, battery_voltage=0, battery_current=-1, waypoints_count=0, waypoints=[], home_location={lon=0.0, lat=0.0}, ch3out=1634}
[2025-04-09 18:24:15] {GCS_IP=13.213.62.184, timestamp=2025-04-09 18:24:15, systemid=3, lat=35.0688975, lon=129.0898791, alt=29.902, dist_traveled=null, wp_dist=60, dist_to_home=1.3462272266586503E7, vertical_speed=0.01024777, ground_speed=25.009918, wind_vel=0.014384483, airspeed=24.945972, gps_hdop=1.21, roll=0.12, pitch=-2.36, yaw=-160.51, ch3percent=63.50, ch9out=0, tot=0.0, toh=0.0, time_in_air=0.0, ch10out=0, ch11out=0, ch12out=0, battery_voltage=0, battery_current=-1, waypoints_count=0, waypoints=[], home_location={lon=0.0, lat=0.0}, ch3out=1635}
[2025-04-09 18:24:16] {GCS_IP=13.213.62.184, timestamp=2025-04-09 18:24:16, systemid=3, lat=35.0686852, lon=129.0897884, alt=29.909, dist_traveled=null, wp_dist=35, dist_to_home=1.346227477137371E7, vertical_speed=0.03813976, ground_speed=25.026186, wind_vel=0.014763891, airspeed=24.995802, gps_hdop=1.21, roll=0.17, pitch=-2.22, yaw=-160.47, ch3percent=63.60, ch9out=0, tot=0.0, toh=0.0, time_in_air=0.0, ch10out=0, ch11out=0, ch12out=0, battery_voltage=0, battery_current=-1, waypoints_count=0, waypoints=[], home_location={lon=0.0, lat=0.0}, ch3out=1636}
[2025-04-09 18:24:17] {GCS_IP=13.213.62.184, timestamp=2025-04-09 18:24:17, systemid=3, lat=35.0684752, lon=129.089691, alt=29.893, dist_traveled=null, wp_dist=265, dist_to_home=1.3462276615353847E7, vertical_speed=-0.1292894, ground_speed=25.090244, wind_vel=0.014938296, airspeed=25.014818, gps_hdop=1.21, roll=45.08, pitch=-0.09, yaw=-154.76, ch3percent=76.70, ch9out=0, tot=0.0, toh=0.0, time_in_air=0.0, ch10out=0, ch11out=0, ch12out=0, battery_voltage=0, battery_current=-1, waypoints_count=0, waypoints=[], home_location={lon=0.0, lat=0.0}, ch3out=1767}
[2025-04-09 18:24:18] {GCS_IP=13.213.62.184, timestamp=2025-04-09 18:24:18, systemid=3, lat=35.0682902, lon=129.0895337, alt=30.475, dist_traveled=null, wp_dist=241, dist_to_home=1.3462272343618926E7, vertical_speed=-0.09716275, ground_speed=25.063576, wind_vel=0.013492979, airspeed=25.061066, gps_hdop=1.21, roll=23.46, pitch=-2.38, yaw=-142.39, ch3percent=61.70, ch9out=0, tot=0.0, toh=0.0, time_in_air=0.0, ch10out=0, ch11out=0, ch12out=0, battery_voltage=0, battery_current=-1, waypoints_count=0, waypoints=[], home_location={lon=0.0, lat=0.0}, ch3out=1617}
[2025-04-09 18:24:19] {GCS_IP=13.213.62.184, timestamp=2025-04-09 18:24:19, systemid=3, lat=35.0681261, lon=129.0893451, alt=30.339, dist_traveled=null, wp_dist=216, dist_to_home=1.3462264507568244E7, vertical_speed=-0.06894879, ground_speed=25.045778, wind_vel=0.013402491, airspeed=25.042078, gps_hdop=1.21, roll=19.89, pitch=-2.07, yaw=-134.25, ch3percent=62.30, ch9out=0, tot=0.0, toh=0.0, time_in_air=0.0, ch10out=0, ch11out=0, ch12out=0, battery_voltage=0, battery_current=-1, waypoints_count=0, waypoints=[], home_location={lon=0.0, lat=0.0}, ch3out=1623}
[2025-04-09 18:24:20] {GCS_IP=13.213.62.184, timestamp=2025-04-09 18:24:20, systemid=3, lat=35.067982, lon=129.0891338, alt=30.202, dist_traveled=null, wp_dist=192, dist_to_home=1.3462253858758496E7, vertical_speed=-0.14786491, ground_speed=25.020155, wind_vel=0.012658425, airspeed=24.986246, gps_hdop=1.21, roll=14.05, pitch=-2.47, yaw=-128.21, ch3percent=61.80, ch9out=0, tot=0.0, toh=0.0, time_in_air=0.0, ch10out=0, ch11out=0, ch12out=0, battery_voltage=0, battery_current=-1, waypoints_count=0, waypoints=[], home_location={lon=0.0, lat=0.0}, ch3out=1618}
[2025-04-09 18:24:21] {GCS_IP=13.213.62.184, timestamp=2025-04-09 18:24:21, systemid=3, lat=35.0678533, lon=129.0889109, alt=30.022, dist_traveled=null, wp_dist=167, dist_to_home=1.3462241528936666E7, vertical_speed=-0.23642096, ground_speed=24.965374, wind_vel=0.010526677, airspeed=24.96587, gps_hdop=1.21, roll=7.58, pitch=-2.80, yaw=-124.13, ch3percent=62.10, ch9out=0, tot=0.0, toh=0.0, time_in_air=0.0, ch10out=0, ch11out=0, ch12out=0, battery_voltage=0, battery_current=-1, waypoints_count=0, waypoints=[], home_location={lon=0.0, lat=0.0}, ch3out=1621}
[2025-04-09 18:24:22] {GCS_IP=13.213.62.184, timestamp=2025-04-09 18:24:22, systemid=3, lat=35.0677318, lon=129.0886801, alt=29.877, dist_traveled=null, wp_dist=142, dist_to_home=1.3462228208880564E7, vertical_speed=-0.09870211, ground_speed=24.9686, wind_vel=0.00942553, airspeed=24.938002, gps_hdop=1.21, roll=3.04, pitch=-2.54, yaw=-122.08, ch3percent=62.90, ch9out=0, tot=0.0, toh=0.0, time_in_air=0.0, ch10out=0, ch11out=0, ch12out=0, battery_voltage=0, battery_current=-1, waypoints_count=0, waypoints=[], home_location={lon=0.0, lat=0.0}, ch3out=1629}
[2025-04-09 18:24:23] {GCS_IP=13.213.62.184, timestamp=2025-04-09 18:24:23, systemid=3, lat=35.0676133, lon=129.0884467, alt=29.826, dist_traveled=null, wp_dist=117, dist_to_home=1.3462214533200014E7, vertical_speed=-0.05238211, ground_speed=25.008503, wind_vel=0.00966833, airspeed=24.997168, gps_hdop=1.21, roll=-0.06, pitch=-2.51, yaw=-121.49, ch3percent=63.40, ch9out=0, tot=0.0, toh=0.0, time_in_air=0.0, ch10out=0, ch11out=0, ch12out=0, battery_voltage=0, battery_current=-1, waypoints_count=0, waypoints=[], home_location={lon=0.0, lat=0.0}, ch3out=1634}
[2025-04-09 18:24:24] {GCS_IP=13.213.62.184, timestamp=2025-04-09 18:24:24, systemid=3, lat=35.0674941, lon=129.0882127, alt=29.829, dist_traveled=null, wp_dist=92, dist_to_home=1.3462200840837969E7, vertical_speed=0.015981345, ground_speed=25.02979, wind_vel=0.010249594, airspeed=24.987196, gps_hdop=1.21, roll=-2.04, pitch=-2.39, yaw=-121.81, ch3percent=63.30, ch9out=0, tot=0.0, toh=0.0, time_in_air=0.0, ch10out=0, ch11out=0, ch12out=0, battery_voltage=0, battery_current=-1, waypoints_count=0, waypoints=[], home_location={lon=0.0, lat=0.0}, ch3out=1633}
[2025-04-09 18:24:25] {GCS_IP=13.213.62.184, timestamp=2025-04-09 18:24:25, systemid=3, lat=35.0673727, lon=129.0879804, alt=29.857, dist_traveled=null, wp_dist=66, dist_to_home=1.3462187392015558E7, vertical_speed=-0.005256867, ground_speed=25.064026, wind_vel=0.012246086, airspeed=24.944363, gps_hdop=1.21, roll=-2.68, pitch=-2.41, yaw=-122.43, ch3percent=63.60, ch9out=0, tot=0.0, toh=0.0, time_in_air=0.0, ch10out=0, ch11out=0, ch12out=0, battery_voltage=0, battery_current=-1, waypoints_count=0, waypoints=[], home_location={lon=0.0, lat=0.0}, ch3out=1636}
[2025-04-09 18:24:26] {GCS_IP=13.213.62.184, timestamp=2025-04-09 18:24:26, systemid=3, lat=35.0672482, lon=129.0877503, alt=29.871, dist_traveled=null, wp_dist=41, dist_to_home=1.346217427029053E7, vertical_speed=0.0039692614, ground_speed=25.099699, wind_vel=0.014376759, airspeed=25.012503, gps_hdop=1.21, roll=-2.74, pitch=-2.35, yaw=-123.33, ch3percent=63.40, ch9out=0, tot=0.0, toh=0.0, time_in_air=0.0, ch10out=0, ch11out=0, ch12out=0, battery_voltage=0, battery_current=-1, waypoints_count=0, waypoints=[], home_location={lon=0.0, lat=0.0}, ch3out=1634}
[2025-04-09 18:24:27] {GCS_IP=13.213.62.184, timestamp=2025-04-09 18:24:27, systemid=3, lat=35.0671211, lon=129.0875231, alt=29.917, dist_traveled=null, wp_dist=16, dist_to_home=1.3462161509877663E7, vertical_speed=0.033654194, ground_speed=25.065872, wind_vel=0.014716289, airspeed=24.975674, gps_hdop=1.21, roll=-2.31, pitch=-2.27, yaw=-124.32, ch3percent=63.30, ch9out=0, tot=0.0, toh=0.0, time_in_air=0.0, ch10out=0, ch11out=0, ch12out=0, battery_voltage=0, battery_current=-1, waypoints_count=0, waypoints=[], home_location={lon=0.0, lat=0.0}, ch3out=1633}
[2025-04-09 18:24:28] {GCS_IP=13.213.62.184, timestamp=2025-04-09 18:24:28, systemid=3, lat=35.0669925, lon=129.0872996, alt=29.929, dist_traveled=null, wp_dist=79, dist_to_home=1.3462149125025375E7, vertical_speed=0.020350555, ground_speed=25.006517, wind_vel=0.013519272, airspeed=24.993927, gps_hdop=1.21, roll=-1.71, pitch=-2.31, yaw=-124.89, ch3percent=63.50, ch9out=0, tot=0.0, toh=0.0, time_in_air=0.0, ch10out=0, ch11out=0, ch12out=0, battery_voltage=0, battery_current=-1, waypoints_count=0, waypoints=[], home_location={lon=0.0, lat=0.0}, ch3out=1635}
[2025-04-09 18:24:29] {GCS_IP=13.213.62.184, timestamp=2025-04-09 18:24:29, systemid=3, lat=35.0668737, lon=129.0870675, alt=29.835, dist_traveled=null, wp_dist=101, dist_to_home=1.3462135569949143E7, vertical_speed=0.12357174, ground_speed=25.235807, wind_vel=0.014121151, airspeed=25.043154, gps_hdop=1.21, roll=54.68, pitch=3.34, yaw=-111.07, ch3percent=95.80, ch9out=0, tot=0.0, toh=0.0, time_in_air=0.0, ch10out=0, ch11out=0, ch12out=0, battery_voltage=0, battery_current=-1, waypoints_count=0, waypoints=[], home_location={lon=0.0, lat=0.0}, ch3out=1958}
[2025-04-09 18:24:30] {GCS_IP=13.213.62.184, timestamp=2025-04-09 18:24:30, systemid=3, lat=35.0668375, lon=129.086795, alt=31.131, dist_traveled=null, wp_dist=79, dist_to_home=1.3462114798653884E7, vertical_speed=-0.2394312, ground_speed=25.042963, wind_vel=0.013150416, airspeed=25.11813, gps_hdop=1.21, roll=36.80, pitch=-2.28, yaw=-96.35, ch3percent=61.50, ch9out=0, tot=0.0, toh=0.0, time_in_air=0.0, ch10out=0, ch11out=0, ch12out=0, battery_voltage=0, battery_current=-1, waypoints_count=0, waypoints=[], home_location={lon=0.0, lat=0.0}, ch3out=1615}
[2025-04-09 18:24:31] {GCS_IP=13.213.62.184, timestamp=2025-04-09 18:24:31, systemid=3, lat=35.0668521, lon=129.0865211, alt=30.987, dist_traveled=null, wp_dist=957, dist_to_home=1.34620915230003E7, vertical_speed=-0.12693098, ground_speed=25.144932, wind_vel=0.0122332815, airspeed=25.114233, gps_hdop=1.21, roll=52.82, pitch=-1.20, yaw=-77.89, ch3percent=75.90, ch9out=0, tot=0.0, toh=0.0, time_in_air=0.0, ch10out=0, ch11out=0, ch12out=0, battery_voltage=0, battery_current=-1, waypoints_count=0, waypoints=[], home_location={lon=0.0, lat=0.0}, ch3out=1759}
[2025-04-09 18:24:32] {GCS_IP=13.213.62.184, timestamp=2025-04-09 18:24:32, systemid=3, lat=35.0669709, lon=129.0862892, alt=31.779, dist_traveled=null, wp_dist=957, dist_to_home=1.3462066811253505E7, vertical_speed=2.0105777, ground_speed=25.514767, wind_vel=0.013155778, airspeed=25.62978, gps_hdop=1.21, roll=53.21, pitch=4.83, yaw=-41.94, ch3percent=70.60, ch9out=0, tot=0.0, toh=0.0, time_in_air=0.0, ch10out=0, ch11out=0, ch12out=0, battery_voltage=0, battery_current=-1, waypoints_count=0, waypoints=[], home_location={lon=0.0, lat=0.0}, ch3out=1706}
[2025-04-09 18:24:33] {GCS_IP=13.213.62.184, timestamp=2025-04-09 18:24:33, systemid=3, lat=35.0671658, lon=129.086145, alt=32.607, dist_traveled=null, wp_dist=946, dist_to_home=1.3462045753811674E7, vertical_speed=-0.14551544, ground_speed=25.297594, wind_vel=0.012363505, airspeed=25.3207, gps_hdop=1.21, roll=52.16, pitch=-0.15, yaw=-23.82, ch3percent=63.30, ch9out=0, tot=0.0, toh=0.0, time_in_air=0.0, ch10out=0, ch11out=0, ch12out=0, battery_voltage=0, battery_current=-1, waypoints_count=0, waypoints=[], home_location={lon=0.0, lat=0.0}, ch3out=1633}
[2025-04-09 18:24:34] {GCS_IP=13.213.62.184, timestamp=2025-04-09 18:24:34, systemid=3, lat=35.0673874, lon=129.0860962, alt=32.293, dist_traveled=null, wp_dist=928, dist_to_home=1.3462031308652384E7, vertical_speed=-0.43789297, ground_speed=25.139341, wind_vel=0.01103106, airspeed=25.143606, gps_hdop=1.21, roll=48.32, pitch=-1.02, yaw=-1.61, ch3percent=59.10, ch9out=0, tot=0.0, toh=0.0, time_in_air=0.0, ch10out=0, ch11out=0, ch12out=0, battery_voltage=0, battery_current=-1, waypoints_count=0, waypoints=[], home_location={lon=0.0, lat=0.0}, ch3out=1591}
[2025-04-09 18:24:35] {GCS_IP=13.213.62.184, timestamp=2025-04-09 18:24:35, systemid=3, lat=35.0676084, lon=129.0861438, alt=31.582, dist_traveled=null, wp_dist=905, dist_to_home=1.3462024841922766E7, vertical_speed=-0.92035663, ground_speed=24.9298, wind_vel=0.010190325, airspeed=24.980955, gps_hdop=1.21, roll=41.22, pitch=-2.66, yaw=16.25, ch3percent=55.50, ch9out=0, tot=0.0, toh=0.0, time_in_air=0.0, ch10out=0, ch11out=0, ch12out=0, battery_voltage=0, battery_current=-1, waypoints_count=0, waypoints=[], home_location={lon=0.0, lat=0.0}, ch3out=1555}
[2025-04-09 18:24:36] {GCS_IP=13.213.62.184, timestamp=2025-04-09 18:24:36, systemid=3, lat=35.067809, lon=129.0862628, alt=30.527, dist_traveled=null, wp_dist=881, dist_to_home=1.3462025222846553E7, vertical_speed=-1.0614326, ground_speed=24.822725, wind_vel=0.0099908635, airspeed=24.840818, gps_hdop=1.21, roll=30.23, pitch=-3.70, yaw=30.08, ch3percent=55.00, ch9out=0, tot=0.0, toh=0.0, time_in_air=0.0, ch10out=0, ch11out=0, ch12out=0, battery_voltage=0, battery_current=-1, waypoints_count=0, waypoints=[], home_location={lon=0.0, lat=0.0}, ch3out=1550}
[2025-04-09 18:24:37] {GCS_IP=13.213.62.184, timestamp=2025-04-09 18:24:37, systemid=3, lat=35.0679867, lon=129.0864259, alt=29.512, dist_traveled=null, wp_dist=856, dist_to_home=1.3462030317488607E7, vertical_speed=-0.8870011, ground_speed=24.794764, wind_vel=0.012368685, airspeed=24.807732, gps_hdop=1.21, roll=16.86, pitch=-4.05, yaw=39.18, ch3percent=57.50, ch9out=0, tot=0.0, toh=0.0, time_in_air=0.0, ch10out=0, ch11out=0, ch12out=0, battery_voltage=0, battery_current=-1, waypoints_count=0, waypoints=[], home_location={lon=0.0, lat=0.0}, ch3out=1575}
[2025-04-09 18:24:38] {GCS_IP=13.213.62.184, timestamp=2025-04-09 18:24:38, systemid=3, lat=35.0681496, lon=129.0866106, alt=28.783, dist_traveled=null, wp_dist=832, dist_to_home=1.3462037889343427E7, vertical_speed=-0.5588351, ground_speed=24.845251, wind_vel=0.013477968, airspeed=24.799232, gps_hdop=1.21, roll=5.29, pitch=-3.63, yaw=43.69, ch3percent=61.30, ch9out=0, tot=0.0, toh=0.0, time_in_air=0.0, ch10out=0, ch11out=0, ch12out=0, battery_voltage=0, battery_current=-1, waypoints_count=0, waypoints=[], home_location={lon=0.0, lat=0.0}, ch3out=1613}
