[2025-04-10 02:55:24] {GCS_IP=13.213.62.184, timestamp=2025-04-10 02:55:24, systemid=3, lat=35.0685152, lon=129.0897116, alt=29.853, dist_traveled=null, wp_dist=269, dist_to_home=1.3462276432990892E7, vertical_speed=-0.10603938, ground_speed=25.524956, wind_vel=0.0, airspeed=24.964106, gps_hdop=1.21, roll=38.76, pitch=-2.93, yaw=-158.25, ch3percent=72.20, ch9out=0, tot=0.0, toh=0.0, time_in_air=0.0, ch10out=0, ch11out=0, ch12out=0, battery_voltage=0, battery_current=-1, waypoints_count=0, ch3out=1722}
[2025-04-10 02:55:25] {GCS_IP=13.213.62.184, timestamp=2025-04-10 02:55:25, systemid=3, lat=35.0683202, lon=129.0895616, alt=30.419, dist_traveled=null, wp_dist=245, dist_to_home=1.3462273233596994E7, vertical_speed=0.37718487, ground_speed=25.711788, wind_vel=0.2901665, airspeed=25.150724, gps_hdop=1.21, roll=23.24, pitch=-1.74, yaw=-144.94, ch3percent=64.60, ch9out=0, tot=0.0, toh=0.0, time_in_air=0.0, ch10out=0, ch11out=0, ch12out=0, battery_voltage=0, battery_current=-1, waypoints_count=0, ch3out=1646, waypoints=[], home_location={lat=0.0, lon=0.0}}
[2025-04-10 02:55:26] {GCS_IP=13.213.62.184, timestamp=2025-04-10 02:55:26, systemid=3, lat=35.0681487, lon=129.0893754, alt=30.371, dist_traveled=null, wp_dist=220, dist_to_home=1.346226594351073E7, vertical_speed=-0.04801708, ground_speed=25.625881, wind_vel=0.28987774, airspeed=25.043367, gps_hdop=1.21, roll=22.91, pitch=-1.94, yaw=-136.33, ch3percent=65.10, ch9out=0, tot=0.0, toh=0.0, time_in_air=0.0, ch10out=0, ch11out=0, ch12out=0, battery_voltage=0, battery_current=-1, waypoints_count=0, ch3out=1651, waypoints=[], home_location={lat=0.0, lon=0.0}}
[2025-04-10 02:55:27] {GCS_IP=13.213.62.184, timestamp=2025-04-10 02:55:27, systemid=3, lat=35.0679994, lon=129.0891633, alt=30.177, dist_traveled=null, wp_dist=195, dist_to_home=1.3462255473295428E7, vertical_speed=-0.25112525, ground_speed=25.550585, wind_vel=0.28794423, airspeed=25.004183, gps_hdop=1.21, roll=15.54, pitch=-2.80, yaw=-129.55, ch3percent=64.40, ch9out=0, tot=0.0, toh=0.0, time_in_air=0.0, ch10out=0, ch11out=0, ch12out=0, battery_voltage=0, battery_current=-1, waypoints_count=0, ch3out=1644, waypoints=[], home_location={lat=0.0, lon=0.0}}
[2025-04-10 02:55:28] {GCS_IP=13.213.62.184, timestamp=2025-04-10 02:55:28, systemid=3, lat=35.0678661, lon=129.0889362, alt=29.966, dist_traveled=null, wp_dist=170, dist_to_home=1.3462243013449354E7, vertical_speed=-0.18539983, ground_speed=25.50742, wind_vel=0.2844919, airspeed=25.02155, gps_hdop=1.21, roll=8.42, pitch=-2.83, yaw=-125.05, ch3percent=64.50, ch9out=0, tot=0.0, toh=0.0, time_in_air=0.0, ch10out=0, ch11out=0, ch12out=0, battery_voltage=0, battery_current=-1, waypoints_count=0, ch3out=1645, waypoints=[], home_location={lat=0.0, lon=0.0}}
[2025-04-10 02:55:29] {GCS_IP=13.213.62.184, timestamp=2025-04-10 02:55:29, systemid=3, lat=35.067742, lon=129.0887013, alt=29.799, dist_traveled=null, wp_dist=144, dist_to_home=1.3462229477553202E7, vertical_speed=-0.08962604, ground_speed=25.486116, wind_vel=0.28012484, airspeed=24.992115, gps_hdop=1.21, roll=3.17, pitch=-2.64, yaw=-122.90, ch3percent=65.20, ch9out=0, tot=0.0, toh=0.0, time_in_air=0.0, ch10out=0, ch11out=0, ch12out=0, battery_voltage=0, battery_current=-1, waypoints_count=0, ch3out=1652, waypoints=[], home_location={lat=0.0, lon=0.0}}
[2025-04-10 02:55:30] {GCS_IP=13.213.62.184, timestamp=2025-04-10 02:55:30, systemid=3, lat=35.0676214, lon=129.0884634, alt=29.706, dist_traveled=null, wp_dist=119, dist_to_home=1.3462215529526055E7, vertical_speed=-0.02264758, ground_speed=25.486532, wind_vel=0.27631062, airspeed=25.03285, gps_hdop=1.21, roll=-0.24, pitch=-2.49, yaw=-122.08, ch3percent=65.90, ch9out=0, tot=0.0, toh=0.0, time_in_air=0.0, ch10out=0, ch11out=0, ch12out=0, battery_voltage=0, battery_current=-1, waypoints_count=0, ch3out=1659, waypoints=[], home_location={lat=0.0, lon=0.0}}
[2025-04-10 02:55:31] {GCS_IP=13.213.62.184, timestamp=2025-04-10 02:55:31, systemid=3, lat=35.0675006, lon=129.0882253, alt=29.687, dist_traveled=null, wp_dist=93, dist_to_home=1.3462201574287515E7, vertical_speed=0.011177975, ground_speed=25.49408, wind_vel=0.27321798, airspeed=25.012875, gps_hdop=1.21, roll=-1.88, pitch=-2.41, yaw=-122.46, ch3percent=66.20, ch9out=0, tot=0.0, toh=0.0, time_in_air=0.0, ch10out=0, ch11out=0, ch12out=0, battery_voltage=0, battery_current=-1, waypoints_count=0, ch3out=1662, waypoints=[], home_location={lat=0.0, lon=0.0}}
[2025-04-10 02:55:32] {GCS_IP=13.213.62.184, timestamp=2025-04-10 02:55:32, systemid=3, lat=35.0673784, lon=129.0879906, alt=29.732, dist_traveled=null, wp_dist=68, dist_to_home=1.3462187965163505E7, vertical_speed=0.047302272, ground_speed=25.438196, wind_vel=0.27085662, airspeed=25.01895, gps_hdop=1.21, roll=-2.77, pitch=-2.35, yaw=-123.21, ch3percent=66.20, ch9out=0, tot=0.0, toh=0.0, time_in_air=0.0, ch10out=0, ch11out=0, ch12out=0, battery_voltage=0, battery_current=-1, waypoints_count=0, ch3out=1662, waypoints=[], home_location={lat=0.0, lon=0.0}}
[2025-04-10 02:55:33] {GCS_IP=13.213.62.184, timestamp=2025-04-10 02:55:33, systemid=3, lat=35.0672528, lon=129.0877575, alt=29.773, dist_traveled=null, wp_dist=43, dist_to_home=1.3462174647760147E7, vertical_speed=0.051550698, ground_speed=25.439678, wind_vel=0.26950422, airspeed=25.019796, gps_hdop=1.21, roll=-2.82, pitch=-2.35, yaw=-124.03, ch3percent=65.90, ch9out=0, tot=0.0, toh=0.0, time_in_air=0.0, ch10out=0, ch11out=0, ch12out=0, battery_voltage=0, battery_current=-1, waypoints_count=0, ch3out=1659, waypoints=[], home_location={lat=0.0, lon=0.0}}
[2025-04-10 02:55:34] {GCS_IP=13.213.62.184, timestamp=2025-04-10 02:55:34, systemid=3, lat=35.0671237, lon=129.0875259, alt=29.824, dist_traveled=null, wp_dist=17, dist_to_home=1.346216161852981E7, vertical_speed=0.05541464, ground_speed=25.4648, wind_vel=0.26912838, airspeed=25.030481, gps_hdop=1.21, roll=-2.51, pitch=-2.32, yaw=-124.92, ch3percent=66.00, ch9out=0, tot=0.0, toh=0.0, time_in_air=0.0, ch10out=0, ch11out=0, ch12out=0, battery_voltage=0, battery_current=-1, waypoints_count=0, ch3out=1660, waypoints=[], home_location={lat=0.0, lon=0.0}}
[2025-04-10 02:55:35] {GCS_IP=13.213.62.184, timestamp=2025-04-10 02:55:35, systemid=3, lat=35.066992, lon=129.0872969, alt=29.928, dist_traveled=null, wp_dist=119, dist_to_home=1.3462148925864987E7, vertical_speed=0.08553445, ground_speed=25.476015, wind_vel=0.2696624, airspeed=24.950733, gps_hdop=1.21, roll=-1.88, pitch=-2.37, yaw=-125.70, ch3percent=65.70, ch9out=0, tot=0.0, toh=0.0, time_in_air=0.0, ch10out=0, ch11out=0, ch12out=0, battery_voltage=0, battery_current=-1, waypoints_count=0, ch3out=1657, waypoints=[], home_location={lat=0.0, lon=0.0}}
[2025-04-10 02:55:36] {GCS_IP=13.213.62.184, timestamp=2025-04-10 02:55:36, systemid=3, lat=35.066877, lon=129.0870541, alt=29.964, dist_traveled=null, wp_dist=100, dist_to_home=1.3462134309644451E7, vertical_speed=0.9031609, ground_speed=25.90328, wind_vel=0.26843163, airspeed=25.104708, gps_hdop=1.21, roll=48.89, pitch=4.53, yaw=-107.78, ch3percent=91.60, ch9out=0, tot=0.0, toh=0.0, time_in_air=0.0, ch10out=0, ch11out=0, ch12out=0, battery_voltage=0, battery_current=-1, waypoints_count=0, ch3out=1916, waypoints=[], home_location={lat=0.0, lon=0.0}}
[2025-04-10 02:55:37] {GCS_IP=13.213.62.184, timestamp=2025-04-10 02:55:37, systemid=3, lat=35.066845, lon=129.0867773, alt=31.147, dist_traveled=null, wp_dist=78, dist_to_home=1.3462112986215133E7, vertical_speed=-0.34476936, ground_speed=25.570765, wind_vel=0.26586893, airspeed=25.091274, gps_hdop=1.21, roll=39.33, pitch=-2.09, yaw=-95.58, ch3percent=65.40, ch9out=0, tot=0.0, toh=0.0, time_in_air=0.0, ch10out=0, ch11out=0, ch12out=0, battery_voltage=0, battery_current=-1, waypoints_count=0, ch3out=1654, waypoints=[], home_location={lat=0.0, lon=0.0}}
[2025-04-10 02:55:38] {GCS_IP=13.213.62.184, timestamp=2025-04-10 02:55:38, systemid=3, lat=35.0668666, lon=129.0864997, alt=30.96, dist_traveled=null, wp_dist=956, dist_to_home=1.3462089076245736E7, vertical_speed=-0.3172866, ground_speed=25.66748, wind_vel=0.25964007, airspeed=25.127861, gps_hdop=1.21, roll=57.89, pitch=-0.83, yaw=-75.52, ch3percent=85.80, ch9out=0, tot=0.0, toh=0.0, time_in_air=0.0, ch10out=0, ch11out=0, ch12out=0, battery_voltage=0, battery_current=-1, waypoints_count=0, ch3out=1858, waypoints=[], home_location={lat=0.0, lon=0.0}}
[2025-04-10 02:55:39] {GCS_IP=13.213.62.184, timestamp=2025-04-10 02:55:39, systemid=3, lat=35.0670006, lon=129.0862729, alt=31.872, dist_traveled=null, wp_dist=955, dist_to_home=1.3462064070345165E7, vertical_speed=1.8645968, ground_speed=26.014471, wind_vel=0.24909933, airspeed=25.704086, gps_hdop=1.21, roll=53.49, pitch=4.03, yaw=-40.24, ch3percent=72.30, ch9out=0, tot=0.0, toh=0.0, time_in_air=0.0, ch10out=0, ch11out=0, ch12out=0, battery_voltage=0, battery_current=-1, waypoints_count=0, ch3out=1723, waypoints=[], home_location={lat=0.0, lon=0.0}}
[2025-04-10 02:55:40] {GCS_IP=13.213.62.184, timestamp=2025-04-10 02:55:40, systemid=3, lat=35.0672034, lon=129.0861361, alt=32.508, dist_traveled=null, wp_dist=943, dist_to_home=1.346204325170865E7, vertical_speed=-0.09302411, ground_speed=25.781197, wind_vel=0.23011929, airspeed=25.447884, gps_hdop=1.21, roll=52.57, pitch=-0.10, yaw=-21.06, ch3percent=65.80, ch9out=0, tot=0.0, toh=0.0, time_in_air=0.0, ch10out=0, ch11out=0, ch12out=0, battery_voltage=0, battery_current=-1, waypoints_count=0, ch3out=1658, waypoints=[], home_location={lat=0.0, lon=0.0}}
[2025-04-10 02:55:41] {GCS_IP=13.213.62.184, timestamp=2025-04-10 02:55:41, systemid=3, lat=35.0674316, lon=129.0861, alt=32.189, dist_traveled=null, wp_dist=924, dist_to_home=1.34620295435754E7, vertical_speed=-0.42828834, ground_speed=25.59983, wind_vel=0.2106811, airspeed=25.2283, gps_hdop=1.21, roll=48.34, pitch=-1.03, yaw=0.69, ch3percent=60.70, ch9out=0, tot=0.0, toh=0.0, time_in_air=0.0, ch10out=0, ch11out=0, ch12out=0, battery_voltage=0, battery_current=-1, waypoints_count=0, ch3out=1607, waypoints=[], home_location={lat=0.0, lon=0.0}}
[2025-04-10 02:55:42] {GCS_IP=13.213.62.184, timestamp=2025-04-10 02:55:42, systemid=3, lat=35.0676548, lon=129.0861599, alt=31.416, dist_traveled=null, wp_dist=901, dist_to_home=1.3462023987774255E7, vertical_speed=-0.9451044, ground_speed=25.389112, wind_vel=0.19159545, airspeed=24.983269, gps_hdop=1.21, roll=40.75, pitch=-2.67, yaw=18.03, ch3percent=57.50, ch9out=0, tot=0.0, toh=0.0, time_in_air=0.0, ch10out=0, ch11out=0, ch12out=0, battery_voltage=0, battery_current=-1, waypoints_count=0, ch3out=1575, waypoints=[], home_location={lat=0.0, lon=0.0}}
[2025-04-10 02:55:43] {GCS_IP=13.213.62.184, timestamp=2025-04-10 02:55:43, systemid=3, lat=35.0678562, lon=129.0862898, alt=30.305, dist_traveled=null, wp_dist=876, dist_to_home=1.3462025229988564E7, vertical_speed=-1.0422571, ground_speed=25.306707, wind_vel=0.17398031, airspeed=24.870253, gps_hdop=1.21, roll=29.22, pitch=-3.62, yaw=31.35, ch3percent=57.90, ch9out=0, tot=0.0, toh=0.0, time_in_air=0.0, ch10out=0, ch11out=0, ch12out=0, battery_voltage=0, battery_current=-1, waypoints_count=0, ch3out=1579, waypoints=[], home_location={lat=0.0, lon=0.0}}
[2025-04-10 02:55:44] {GCS_IP=13.213.62.184, timestamp=2025-04-10 02:55:44, systemid=3, lat=35.0680336, lon=129.0864605, alt=29.294, dist_traveled=null, wp_dist=850, dist_to_home=1.3462030965486638E7, vertical_speed=-0.8792253, ground_speed=25.239883, wind_vel=0.15415366, airspeed=24.79129, gps_hdop=1.21, roll=15.48, pitch=-3.96, yaw=39.75, ch3percent=60.10, ch9out=0, tot=0.0, toh=0.0, time_in_air=0.0, ch10out=0, ch11out=0, ch12out=0, battery_voltage=0, battery_current=-1, waypoints_count=0, ch3out=1601, waypoints=[], home_location={lat=0.0, lon=0.0}}
[2025-04-10 02:55:45] {GCS_IP=13.213.62.184, timestamp=2025-04-10 02:55:45, systemid=3, lat=35.0681979, lon=129.0866511, alt=28.589, dist_traveled=null, wp_dist=826, dist_to_home=1.3462038958049286E7, vertical_speed=-0.453018, ground_speed=25.284588, wind_vel=0.13571186, airspeed=24.851732, gps_hdop=1.21, roll=3.90, pitch=-3.31, yaw=43.64, ch3percent=63.70, ch9out=0, tot=0.0, toh=0.0, time_in_air=0.0, ch10out=0, ch11out=0, ch12out=0, battery_voltage=0, battery_current=-1, waypoints_count=0, ch3out=1637, waypoints=[], home_location={lat=0.0, lon=0.0}}
[2025-04-10 02:55:46] {GCS_IP=13.213.62.184, timestamp=2025-04-10 02:55:46, systemid=3, lat=35.0683593, lon=129.0868473, alt=28.299, dist_traveled=null, wp_dist=801, dist_to_home=1.3462047548687713E7, vertical_speed=-0.05057305, ground_speed=25.367765, wind_vel=0.11988318, airspeed=24.87866, gps_hdop=1.21, roll=-3.08, pitch=-2.42, yaw=44.06, ch3percent=66.50, ch9out=0, tot=0.0, toh=0.0, time_in_air=0.0, ch10out=0, ch11out=0, ch12out=0, battery_voltage=0, battery_current=-1, waypoints_count=0, ch3out=1665, waypoints=[], home_location={lat=0.0, lon=0.0}}
[2025-04-10 02:55:47] {GCS_IP=13.213.62.184, timestamp=2025-04-10 02:55:47, systemid=3, lat=35.0685246, lon=129.0870409, alt=28.317, dist_traveled=null, wp_dist=776, dist_to_home=1.3462055741369285E7, vertical_speed=0.17091754, ground_speed=25.455154, wind_vel=0.105287805, airspeed=24.970238, gps_hdop=1.21, roll=-6.25, pitch=-2.00, yaw=42.66, ch3percent=67.40, ch9out=0, tot=0.0, toh=0.0, time_in_air=0.0, ch10out=0, ch11out=0, ch12out=0, battery_voltage=0, battery_current=-1, waypoints_count=0, ch3out=1674, waypoints=[], home_location={lat=0.0, lon=0.0}}
[2025-04-10 02:55:48] {GCS_IP=13.213.62.184, timestamp=2025-04-10 02:55:48, systemid=3, lat=35.0686959, lon=129.0872267, alt=28.568, dist_traveled=null, wp_dist=750, dist_to_home=1.3462063008495027E7, vertical_speed=0.24095738, ground_speed=25.455713, wind_vel=0.09056706, airspeed=24.984915, gps_hdop=1.21, roll=-7.19, pitch=-1.83, yaw=40.28, ch3percent=67.30, ch9out=0, tot=0.0, toh=0.0, time_in_air=0.0, ch10out=0, ch11out=0, ch12out=0, battery_voltage=0, battery_current=-1, waypoints_count=0, ch3out=1673, waypoints=[], home_location={lat=0.0, lon=0.0}}
[2025-04-10 02:55:49] {GCS_IP=13.213.62.184, timestamp=2025-04-10 02:55:49, systemid=3, lat=35.068873, lon=129.0874033, alt=28.885, dist_traveled=null, wp_dist=725, dist_to_home=1.3462069244014252E7, vertical_speed=0.29211804, ground_speed=25.443691, wind_vel=0.076589875, airspeed=24.963356, gps_hdop=1.21, roll=-6.75, pitch=-1.79, yaw=38.04, ch3percent=66.90, ch9out=0, tot=0.0, toh=0.0, time_in_air=0.0, ch10out=0, ch11out=0, ch12out=0, battery_voltage=0, battery_current=-1, waypoints_count=0, ch3out=1669, waypoints=[], home_location={lat=0.0, lon=0.0}}
[2025-04-10 02:55:50] {GCS_IP=13.213.62.184, timestamp=2025-04-10 02:55:50, systemid=3, lat=35.0690552, lon=129.0875711, alt=29.181, dist_traveled=null, wp_dist=700, dist_to_home=1.3462074513835922E7, vertical_speed=0.23835665, ground_speed=25.391804, wind_vel=0.06248602, airspeed=24.914629, gps_hdop=1.21, roll=-5.87, pitch=-1.92, yaw=35.88, ch3percent=66.30, ch9out=0, tot=0.0, toh=0.0, time_in_air=0.0, ch10out=0, ch11out=0, ch12out=0, battery_voltage=0, battery_current=-1, waypoints_count=0, ch3out=1663, waypoints=[], home_location={lat=0.0, lon=0.0}}
[2025-04-10 02:55:51] {GCS_IP=13.213.62.184, timestamp=2025-04-10 02:55:51, systemid=3, lat=35.0692419, lon=129.0877317, alt=29.408, dist_traveled=null, wp_dist=674, dist_to_home=1.3462078978128813E7, vertical_speed=0.18188378, ground_speed=25.391481, wind_vel=0.049599126, airspeed=24.896074, gps_hdop=1.21, roll=-4.16, pitch=-2.14, yaw=34.13, ch3percent=65.90, ch9out=0, tot=0.0, toh=0.0, time_in_air=0.0, ch10out=0, ch11out=0, ch12out=0, battery_voltage=0, battery_current=-1, waypoints_count=0, ch3out=1659, waypoints=[], home_location={lat=0.0, lon=0.0}}
[2025-04-10 02:55:52] {GCS_IP=13.213.62.184, timestamp=2025-04-10 02:55:52, systemid=3, lat=35.0694316, lon=129.0878866, alt=29.594, dist_traveled=null, wp_dist=649, dist_to_home=1.3462082831139551E7, vertical_speed=0.09924833, ground_speed=25.393164, wind_vel=0.037555072, airspeed=24.896685, gps_hdop=1.21, roll=-2.80, pitch=-2.35, yaw=32.93, ch3percent=65.80, ch9out=0, tot=0.0, toh=0.0, time_in_air=0.0, ch10out=0, ch11out=0, ch12out=0, battery_voltage=0, battery_current=-1, waypoints_count=0, ch3out=1658, waypoints=[], home_location={lat=0.0, lon=0.0}}
[2025-04-10 02:55:53] {GCS_IP=13.213.62.184, timestamp=2025-04-10 02:55:53, systemid=3, lat=35.0696231, lon=129.0880381, alt=29.719, dist_traveled=null, wp_dist=624, dist_to_home=1.346208631898049E7, vertical_speed=0.064833194, ground_speed=25.405373, wind_vel=0.025998214, airspeed=24.839464, gps_hdop=1.21, roll=-1.53, pitch=-2.44, yaw=32.11, ch3percent=65.60, ch9out=0, tot=0.0, toh=0.0, time_in_air=0.0, ch10out=0, ch11out=0, ch12out=0, battery_voltage=0, battery_current=-1, waypoints_count=0, ch3out=1656, waypoints=[], home_location={lat=0.0, lon=0.0}}
[2025-04-10 02:55:54] {GCS_IP=13.213.62.184, timestamp=2025-04-10 02:55:54, systemid=3, lat=35.069814, lon=129.0881864, alt=29.801, dist_traveled=null, wp_dist=598, dist_to_home=1.3462089571016926E7, vertical_speed=0.035233393, ground_speed=25.352377, wind_vel=0.01304458, airspeed=24.89296, gps_hdop=1.21, roll=-0.55, pitch=-2.39, yaw=31.76, ch3percent=65.70, ch9out=0, tot=0.0, toh=0.0, time_in_air=0.0, ch10out=0, ch11out=0, ch12out=0, battery_voltage=0, battery_current=-1, waypoints_count=0, ch3out=1657, waypoints=[], home_location={lat=0.0, lon=0.0}}
[2025-04-10 02:55:55] {GCS_IP=13.213.62.184, timestamp=2025-04-10 02:55:55, systemid=3, lat=35.0700058, lon=129.0883346, alt=29.832, dist_traveled=null, wp_dist=573, dist_to_home=1.3462092772355359E7, vertical_speed=0.0088587925, ground_speed=25.360512, wind_vel=0.009088966, airspeed=24.871187, gps_hdop=1.21, roll=0.04, pitch=-2.47, yaw=31.64, ch3percent=65.80, ch9out=0, tot=0.0, toh=0.0, time_in_air=0.0, ch10out=0, ch11out=0, ch12out=0, battery_voltage=0, battery_current=-1, waypoints_count=0, ch3out=1658, waypoints=[], home_location={lat=0.0, lon=0.0}}
[2025-04-10 02:55:56] {GCS_IP=13.213.62.184, timestamp=2025-04-10 02:55:56, systemid=3, lat=35.0701986, lon=129.0884839, alt=29.902, dist_traveled=null, wp_dist=548, dist_to_home=1.3462096017251613E7, vertical_speed=0.037026938, ground_speed=25.394356, wind_vel=0.017055048, airspeed=24.917442, gps_hdop=1.21, roll=0.34, pitch=-2.46, yaw=31.81, ch3percent=65.80, ch9out=0, tot=0.0, toh=0.0, time_in_air=0.0, ch10out=0, ch11out=0, ch12out=0, battery_voltage=0, battery_current=-1, waypoints_count=0, ch3out=1658, waypoints=[], home_location={lat=0.0, lon=0.0}}
[2025-04-10 02:55:57] {GCS_IP=13.213.62.184, timestamp=2025-04-10 02:55:57, systemid=3, lat=35.0703918, lon=129.0886345, alt=29.963, dist_traveled=null, wp_dist=522, dist_to_home=1.3462099350414926E7, vertical_speed=0.05256232, ground_speed=25.461155, wind_vel=0.0250444, airspeed=24.901974, gps_hdop=1.21, roll=0.29, pitch=-2.50, yaw=31.89, ch3percent=65.80, ch9out=0, tot=0.0, toh=0.0, time_in_air=0.0, ch10out=0, ch11out=0, ch12out=0, battery_voltage=0, battery_current=-1, waypoints_count=0, ch3out=1658, waypoints=[], home_location={lat=0.0, lon=0.0}}
[2025-04-10 02:55:58] {GCS_IP=13.213.62.184, timestamp=2025-04-10 02:55:58, systemid=3, lat=35.0705846, lon=129.0887855, alt=29.997, dist_traveled=null, wp_dist=497, dist_to_home=1.3462102735249018E7, vertical_speed=-0.001478023, ground_speed=25.503689, wind_vel=0.03352153, airspeed=24.902056, gps_hdop=1.21, roll=0.55, pitch=-2.62, yaw=31.99, ch3percent=65.50, ch9out=0, tot=0.0, toh=0.0, time_in_air=0.0, ch10out=0, ch11out=0, ch12out=0, battery_voltage=0, battery_current=-1, waypoints_count=0, ch3out=1655, waypoints=[], home_location={lat=0.0, lon=0.0}}
[2025-04-10 02:55:59] {GCS_IP=13.213.62.184, timestamp=2025-04-10 02:55:59, systemid=3, lat=35.0707766, lon=129.0889369, alt=30.013, dist_traveled=null, wp_dist=471, dist_to_home=1.3462106190566475E7, vertical_speed=0.024370128, ground_speed=25.480135, wind_vel=0.04349238, airspeed=24.915382, gps_hdop=1.21, roll=0.43, pitch=-2.57, yaw=32.19, ch3percent=65.60, ch9out=0, tot=0.0, toh=0.0, time_in_air=0.0, ch10out=0, ch11out=0, ch12out=0, battery_voltage=0, battery_current=-1, waypoints_count=0, ch3out=1656, waypoints=[], home_location={lat=0.0, lon=0.0}}
[2025-04-10 02:56:00] {GCS_IP=13.213.62.184, timestamp=2025-04-10 02:56:00, systemid=3, lat=35.0709672, lon=129.0890883, alt=29.978, dist_traveled=null, wp_dist=446, dist_to_home=1.3462109711600821E7, vertical_speed=-0.053374093, ground_speed=25.4559, wind_vel=0.05400755, airspeed=24.949705, gps_hdop=1.21, roll=0.45, pitch=-2.65, yaw=32.48, ch3percent=66.00, ch9out=0, tot=0.0, toh=0.0, time_in_air=0.0, ch10out=0, ch11out=0, ch12out=0, battery_voltage=0, battery_current=-1, waypoints_count=0, ch3out=1660, waypoints=[], home_location={lat=0.0, lon=0.0}}
[2025-04-10 02:56:01] {GCS_IP=13.213.62.184, timestamp=2025-04-10 02:56:01, systemid=3, lat=35.0711581, lon=129.0892411, alt=29.972, dist_traveled=null, wp_dist=420, dist_to_home=1.3462113333849786E7, vertical_speed=0.02655459, ground_speed=25.458952, wind_vel=0.06444707, airspeed=24.98118, gps_hdop=1.21, roll=0.10, pitch=-2.48, yaw=32.58, ch3percent=65.80, ch9out=0, tot=0.0, toh=0.0, time_in_air=0.0, ch10out=0, ch11out=0, ch12out=0, battery_voltage=0, battery_current=-1, waypoints_count=0, ch3out=1658, waypoints=[], home_location={lat=0.0, lon=0.0}}
[2025-04-10 02:56:02] {GCS_IP=13.213.62.184, timestamp=2025-04-10 02:56:02, systemid=3, lat=35.0713493, lon=129.0893944, alt=29.983, dist_traveled=null, wp_dist=395, dist_to_home=1.3462116983093578E7, vertical_speed=-0.022297267, ground_speed=25.457615, wind_vel=0.074622996, airspeed=25.000935, gps_hdop=1.21, roll=-0.22, pitch=-2.64, yaw=32.64, ch3percent=65.70, ch9out=0, tot=0.0, toh=0.0, time_in_air=0.0, ch10out=0, ch11out=0, ch12out=0, battery_voltage=0, battery_current=-1, waypoints_count=0, ch3out=1657, waypoints=[], home_location={lat=0.0, lon=0.0}}
[2025-04-10 02:56:03] {GCS_IP=13.213.62.184, timestamp=2025-04-10 02:56:03, systemid=3, lat=35.0715406, lon=129.0895479, alt=29.979, dist_traveled=null, wp_dist=370, dist_to_home=1.3462120643998701E7, vertical_speed=0.02076289, ground_speed=25.468966, wind_vel=0.0842737, airspeed=25.017767, gps_hdop=1.21, roll=-0.01, pitch=-2.48, yaw=32.71, ch3percent=65.70, ch9out=0, tot=0.0, toh=0.0, time_in_air=0.0, ch10out=0, ch11out=0, ch12out=0, battery_voltage=0, battery_current=-1, waypoints_count=0, ch3out=1657, waypoints=[], home_location={lat=0.0, lon=0.0}}
[2025-04-10 02:56:04] {GCS_IP=13.213.62.184, timestamp=2025-04-10 02:56:04, systemid=3, lat=35.071732, lon=129.0897014, alt=29.984, dist_traveled=null, wp_dist=344, dist_to_home=1.346212430007208E7, vertical_speed=0.020737352, ground_speed=25.482838, wind_vel=0.092888035, airspeed=24.988657, gps_hdop=1.21, roll=-0.36, pitch=-2.51, yaw=32.59, ch3percent=65.60, ch9out=0, tot=0.0, toh=0.0, time_in_air=0.0, ch10out=0, ch11out=0, ch12out=0, battery_voltage=0, battery_current=-1, waypoints_count=0, ch3out=1656, waypoints=[], home_location={lat=0.0, lon=0.0}}
[2025-04-10 02:56:05] {GCS_IP=13.213.62.184, timestamp=2025-04-10 02:56:05, systemid=3, lat=35.071924, lon=129.0898552, alt=30.011, dist_traveled=null, wp_dist=319, dist_to_home=1.3462127952535765E7, vertical_speed=0.038703702, ground_speed=25.493828, wind_vel=0.1005032, airspeed=25.009214, gps_hdop=1.21, roll=-0.11, pitch=-2.49, yaw=32.57, ch3percent=65.70, ch9out=0, tot=0.0, toh=0.0, time_in_air=0.0, ch10out=0, ch11out=0, ch12out=0, battery_voltage=0, battery_current=-1, waypoints_count=0, ch3out=1657, waypoints=[], home_location={lat=0.0, lon=0.0}}
[2025-04-10 02:56:06] {GCS_IP=13.213.62.184, timestamp=2025-04-10 02:56:06, systemid=3, lat=35.0721146, lon=129.090008, alt=30.025, dist_traveled=null, wp_dist=293, dist_to_home=1.3462131588254958E7, vertical_speed=-0.0151615525, ground_speed=25.465422, wind_vel=0.10962584, airspeed=24.977928, gps_hdop=1.21, roll=-0.30, pitch=-2.66, yaw=32.53, ch3percent=65.70, ch9out=0, tot=0.0, toh=0.0, time_in_air=0.0, ch10out=0, ch11out=0, ch12out=0, battery_voltage=0, battery_current=-1, waypoints_count=0, ch3out=1657, waypoints=[], home_location={lat=0.0, lon=0.0}}
[2025-04-10 02:56:07] {GCS_IP=13.213.62.184, timestamp=2025-04-10 02:56:07, systemid=3, lat=35.0723054, lon=129.0901603, alt=29.994, dist_traveled=null, wp_dist=268, dist_to_home=1.3462135173208524E7, vertical_speed=-0.061409086, ground_speed=25.453625, wind_vel=0.11899587, airspeed=24.985563, gps_hdop=1.21, roll=-0.04, pitch=-2.65, yaw=32.44, ch3percent=65.80, ch9out=0, tot=0.0, toh=0.0, time_in_air=0.0, ch10out=0, ch11out=0, ch12out=0, battery_voltage=0, battery_current=-1, waypoints_count=0, ch3out=1658, waypoints=[], home_location={lat=0.0, lon=0.0}}
[2025-04-10 02:56:08] {GCS_IP=13.213.62.184, timestamp=2025-04-10 02:56:08, systemid=3, lat=35.0724966, lon=129.0903131, alt=30.009, dist_traveled=null, wp_dist=242, dist_to_home=1.3462138780452115E7, vertical_speed=-9.678578E-5, ground_speed=25.465694, wind_vel=0.12736794, airspeed=25.016344, gps_hdop=1.21, roll=0.03, pitch=-2.54, yaw=32.61, ch3percent=65.60, ch9out=0, tot=0.0, toh=0.0, time_in_air=0.0, ch10out=0, ch11out=0, ch12out=0, battery_voltage=0, battery_current=-1, waypoints_count=0, ch3out=1656, waypoints=[], home_location={lat=0.0, lon=0.0}}
[2025-04-10 02:56:09] {GCS_IP=13.213.62.184, timestamp=2025-04-10 02:56:09, systemid=3, lat=35.0726888, lon=129.090467, alt=30.007, dist_traveled=null, wp_dist=217, dist_to_home=1.3462142431240795E7, vertical_speed=-0.0059706056, ground_speed=25.484205, wind_vel=0.13431637, airspeed=25.016537, gps_hdop=1.21, roll=-0.00, pitch=-2.55, yaw=32.54, ch3percent=65.80, ch9out=0, tot=0.0, toh=0.0, time_in_air=0.0, ch10out=0, ch11out=0, ch12out=0, battery_voltage=0, battery_current=-1, waypoints_count=0, ch3out=1658, waypoints=[], home_location={lat=0.0, lon=0.0}}
[2025-04-10 02:56:10] {GCS_IP=13.213.62.184, timestamp=2025-04-10 02:56:10, systemid=3, lat=35.0728804, lon=129.0906203, alt=30.009, dist_traveled=null, wp_dist=191, dist_to_home=1.3462146060644472E7, vertical_speed=0.03135312, ground_speed=25.50032, wind_vel=0.14094323, airspeed=25.006054, gps_hdop=1.21, roll=-0.17, pitch=-2.47, yaw=32.58, ch3percent=65.80, ch9out=0, tot=0.0, toh=0.0, time_in_air=0.0, ch10out=0, ch11out=0, ch12out=0, battery_voltage=0, battery_current=-1, waypoints_count=0, ch3out=1658, waypoints=[], home_location={lat=0.0, lon=0.0}}
[2025-04-10 02:56:11] {GCS_IP=13.213.62.184, timestamp=2025-04-10 02:56:11, systemid=3, lat=35.0730723, lon=129.0907739, alt=30.008, dist_traveled=null, wp_dist=166, dist_to_home=1.3462149700547207E7, vertical_speed=0.0026932806, ground_speed=25.5083, wind_vel=0.14744854, airspeed=24.97149, gps_hdop=1.21, roll=-0.10, pitch=-2.56, yaw=32.50, ch3percent=65.90, ch9out=0, tot=0.0, toh=0.0, time_in_air=0.0, ch10out=0, ch11out=0, ch12out=0, battery_voltage=0, battery_current=-1, waypoints_count=0, ch3out=1659, waypoints=[], home_location={lat=0.0, lon=0.0}}
[2025-04-10 02:56:12] {GCS_IP=13.213.62.184, timestamp=2025-04-10 02:56:12, systemid=3, lat=35.073264, lon=129.0909271, alt=30.012, dist_traveled=null, wp_dist=140, dist_to_home=1.3462153316743884E7, vertical_speed=-0.043062456, ground_speed=25.510363, wind_vel=0.15381604, airspeed=24.99875, gps_hdop=1.21, roll=-0.07, pitch=-2.67, yaw=32.55, ch3percent=65.70, ch9out=0, tot=0.0, toh=0.0, time_in_air=0.0, ch10out=0, ch11out=0, ch12out=0, battery_voltage=0, battery_current=-1, waypoints_count=0, ch3out=1657, waypoints=[], home_location={lat=0.0, lon=0.0}}
[2025-04-10 02:56:13] {GCS_IP=13.213.62.184, timestamp=2025-04-10 02:56:13, systemid=3, lat=35.0734557, lon=129.09108, alt=30.017, dist_traveled=null, wp_dist=115, dist_to_home=1.3462156908073848E7, vertical_speed=0.0010660515, ground_speed=25.50945, wind_vel=0.1600472, airspeed=24.980518, gps_hdop=1.21, roll=-0.01, pitch=-2.60, yaw=32.52, ch3percent=65.70, ch9out=0, tot=0.0, toh=0.0, time_in_air=0.0, ch10out=0, ch11out=0, ch12out=0, battery_voltage=0, battery_current=-1, waypoints_count=0, ch3out=1657, waypoints=[], home_location={lat=0.0, lon=0.0}}
[2025-04-10 02:56:14] {GCS_IP=13.213.62.184, timestamp=2025-04-10 02:56:14, systemid=3, lat=35.0736476, lon=129.0912334, alt=30.029, dist_traveled=null, wp_dist=89, dist_to_home=1.346216053109818E7, vertical_speed=0.016424, ground_speed=25.51633, wind_vel=0.16540101, airspeed=24.9588, gps_hdop=1.21, roll=-0.11, pitch=-2.51, yaw=32.48, ch3percent=65.90, ch9out=0, tot=0.0, toh=0.0, time_in_air=0.0, ch10out=0, ch11out=0, ch12out=0, battery_voltage=0, battery_current=-1, waypoints_count=0, ch3out=1659, waypoints=[], home_location={lat=0.0, lon=0.0}}
[2025-04-10 02:56:15] {GCS_IP=13.213.62.184, timestamp=2025-04-10 02:56:15, systemid=3, lat=35.0738393, lon=129.0913865, alt=29.995, dist_traveled=null, wp_dist=64, dist_to_home=1.3462164138663236E7, vertical_speed=-0.010141052, ground_speed=25.532833, wind_vel=0.17067973, airspeed=24.952166, gps_hdop=1.21, roll=0.02, pitch=-2.55, yaw=32.57, ch3percent=66.00, ch9out=0, tot=0.0, toh=0.0, time_in_air=0.0, ch10out=0, ch11out=0, ch12out=0, battery_voltage=0, battery_current=-1, waypoints_count=0, ch3out=1660, waypoints=[], home_location={lat=0.0, lon=0.0}}
[2025-04-10 02:56:16] {GCS_IP=13.213.62.184, timestamp=2025-04-10 02:56:16, systemid=3, lat=35.0740308, lon=129.09154, alt=30.025, dist_traveled=null, wp_dist=647, dist_to_home=1.3462167788491283E7, vertical_speed=0.06392334, ground_speed=25.516052, wind_vel=0.17666647, airspeed=24.98145, gps_hdop=1.21, roll=33.27, pitch=-4.17, yaw=36.85, ch3percent=67.60, ch9out=0, tot=0.0, toh=0.0, time_in_air=0.0, ch10out=0, ch11out=0, ch12out=0, battery_voltage=0, battery_current=-1, waypoints_count=0, ch3out=1676, waypoints=[], home_location={lat=0.0, lon=0.0}}
[2025-04-10 02:56:17] {GCS_IP=13.213.62.184, timestamp=2025-04-10 02:56:17, systemid=3, lat=35.0741433, lon=129.0917654, alt=30.323, dist_traveled=null, wp_dist=666, dist_to_home=1.3462181083050389E7, vertical_speed=2.2989595, ground_speed=24.395786, wind_vel=0.18160614, airspeed=24.475967, gps_hdop=1.21, roll=53.43, pitch=6.27, yaw=84.03, ch3percent=33.10, ch9out=0, tot=0.0, toh=0.0, time_in_air=0.0, ch10out=0, ch11out=0, ch12out=0, battery_voltage=0, battery_current=-1, waypoints_count=0, ch3out=1331, waypoints=[], home_location={lat=0.0, lon=0.0}}
[2025-04-10 02:56:18] {GCS_IP=13.213.62.184, timestamp=2025-04-10 02:56:18, systemid=3, lat=35.0741304, lon=129.0920218, alt=30.376, dist_traveled=null, wp_dist=672, dist_to_home=1.3462202832403503E7, vertical_speed=-1.9398795, ground_speed=23.158699, wind_vel=0.18924043, airspeed=22.866156, gps_hdop=1.21, roll=55.39, pitch=-3.77, yaw=99.26, ch3percent=45.10, ch9out=0, tot=0.0, toh=0.0, time_in_air=0.0, ch10out=0, ch11out=0, ch12out=0, battery_voltage=0, battery_current=-1, waypoints_count=0, ch3out=1451, waypoints=[], home_location={lat=0.0, lon=0.0}}
[2025-04-10 02:56:19] {GCS_IP=13.213.62.184, timestamp=2025-04-10 02:56:19, systemid=3, lat=35.0740421, lon=129.0922497, alt=28.021, dist_traveled=null, wp_dist=671, dist_to_home=1.3462225778391998E7, vertical_speed=-2.3638585, ground_speed=23.583664, wind_vel=0.19461817, airspeed=23.01888, gps_hdop=1.21, roll=55.68, pitch=-4.32, yaw=128.28, ch3percent=61.70, ch9out=0, tot=0.0, toh=0.0, time_in_air=0.0, ch10out=0, ch11out=0, ch12out=0, battery_voltage=0, battery_current=-1, waypoints_count=0, ch3out=1617, waypoints=[], home_location={lat=0.0, lon=0.0}}
[2025-04-10 02:56:20] {GCS_IP=13.213.62.184, timestamp=2025-04-10 02:56:20, systemid=3, lat=35.0738642, lon=129.0923927, alt=26.106, dist_traveled=null, wp_dist=658, dist_to_home=1.3462245938315349E7, vertical_speed=-1.2821671, ground_speed=24.592062, wind_vel=0.19711913, airspeed=23.908285, gps_hdop=1.21, roll=55.24, pitch=-1.81, yaw=161.10, ch3percent=71.50, ch9out=0, tot=0.0, toh=0.0, time_in_air=0.0, ch10out=0, ch11out=0, ch12out=0, battery_voltage=0, battery_current=-1, waypoints_count=0, ch3out=1715, waypoints=[], home_location={lat=0.0, lon=0.0}}
[2025-04-10 02:56:21] {GCS_IP=13.213.62.184, timestamp=2025-04-10 02:56:21, systemid=3, lat=35.0736425, lon=129.092404, alt=25.169, dist_traveled=null, wp_dist=636, dist_to_home=1.3462257298643723E7, vertical_speed=-0.6131602, ground_speed=25.25309, wind_vel=0.19480382, airspeed=24.625296, gps_hdop=1.21, roll=50.13, pitch=-0.92, yaw=-171.85, ch3percent=69.10, ch9out=0, tot=0.0, toh=0.0, time_in_air=0.0, ch10out=0, ch11out=0, ch12out=0, battery_voltage=0, battery_current=-1, waypoints_count=0, ch3out=1691, waypoints=[], home_location={lat=0.0, lon=0.0}}
[2025-04-10 02:56:22] {GCS_IP=13.213.62.184, timestamp=2025-04-10 02:56:22, systemid=3, lat=35.0734314, lon=129.0923081, alt=24.495, dist_traveled=null, wp_dist=611, dist_to_home=1.3462259320611253E7, vertical_speed=-0.782791, ground_speed=25.403715, wind_vel=0.18576556, airspeed=24.91165, gps_hdop=1.21, roll=37.65, pitch=-2.43, yaw=-154.32, ch3percent=63.50, ch9out=0, tot=0.0, toh=0.0, time_in_air=0.0, ch10out=0, ch11out=0, ch12out=0, battery_voltage=0, battery_current=-1, waypoints_count=0, ch3out=1635, waypoints=[], home_location={lat=0.0, lon=0.0}}
[2025-04-10 02:56:23] {GCS_IP=13.213.62.184, timestamp=2025-04-10 02:56:23, systemid=3, lat=35.0732425, lon=129.0921515, alt=23.699, dist_traveled=null, wp_dist=586, dist_to_home=1.3462255292884698E7, vertical_speed=-0.6167869, ground_speed=25.510056, wind_vel=0.17218564, airspeed=25.031004, gps_hdop=1.21, roll=18.05, pitch=-3.25, yaw=-143.69, ch3percent=64.30, ch9out=0, tot=0.0, toh=0.0, time_in_air=0.0, ch10out=0, ch11out=0, ch12out=0, battery_voltage=0, battery_current=-1, waypoints_count=0, ch3out=1643, waypoints=[], home_location={lat=0.0, lon=0.0}}
[2025-04-10 02:56:24] {GCS_IP=13.213.62.184, timestamp=2025-04-10 02:56:24, systemid=3, lat=35.0730671, lon=129.0919704, alt=23.275, dist_traveled=null, wp_dist=562, dist_to_home=1.3462248609733239E7, vertical_speed=-0.044699464, ground_speed=25.639624, wind_vel=0.15641959, airspeed=25.13929, gps_hdop=1.21, roll=0.20, pitch=-2.50, yaw=-139.67, ch3percent=68.80, ch9out=0, tot=0.0, toh=0.0, time_in_air=0.0, ch10out=0, ch11out=0, ch12out=0, battery_voltage=0, battery_current=-1, waypoints_count=0, ch3out=1688, waypoints=[], home_location={lat=0.0, lon=0.0}}
[2025-04-10 02:56:25] {GCS_IP=13.213.62.184, timestamp=2025-04-10 02:56:25, systemid=3, lat=35.0728908, lon=129.0917879, alt=23.488, dist_traveled=null, wp_dist=537, dist_to_home=1.3462241853335597E7, vertical_speed=0.54636467, ground_speed=25.753408, wind_vel=0.14117372, airspeed=25.263037, gps_hdop=1.21, roll=-9.37, pitch=-1.09, yaw=-140.81, ch3percent=72.20, ch9out=0, tot=0.0, toh=0.0, time_in_air=0.0, ch10out=0, ch11out=0, ch12out=0, battery_voltage=0, battery_current=-1, waypoints_count=0, ch3out=1722, waypoints=[], home_location={lat=0.0, lon=0.0}}
[2025-04-10 02:56:26] {GCS_IP=13.213.62.184, timestamp=2025-04-10 02:56:26, systemid=3, lat=35.0727059, lon=129.091617, alt=24.173, dist_traveled=null, wp_dist=513, dist_to_home=1.3462236457870977E7, vertical_speed=0.80831134, ground_speed=25.791925, wind_vel=0.12773956, airspeed=25.308231, gps_hdop=1.21, roll=-12.92, pitch=-0.49, yaw=-144.40, ch3percent=72.70, ch9out=0, tot=0.0, toh=0.0, time_in_air=0.0, ch10out=0, ch11out=0, ch12out=0, battery_voltage=0, battery_current=-1, waypoints_count=0, ch3out=1727, waypoints=[], home_location={lat=0.0, lon=0.0}}
[2025-04-10 02:56:27] {GCS_IP=13.213.62.184, timestamp=2025-04-10 02:56:27, systemid=3, lat=35.0725109, lon=129.0914633, alt=25.083, dist_traveled=null, wp_dist=487, dist_to_home=1.3462232955681095E7, vertical_speed=0.9005329, ground_speed=25.76063, wind_vel=0.11665558, airspeed=25.274515, gps_hdop=1.21, roll=-13.46, pitch=-0.37, yaw=-148.82, ch3percent=71.30, ch9out=0, tot=0.0, toh=0.0, time_in_air=0.0, ch10out=0, ch11out=0, ch12out=0, battery_voltage=0, battery_current=-1, waypoints_count=0, ch3out=1713, waypoints=[], home_location={lat=0.0, lon=0.0}}
[2025-04-10 02:56:28] {GCS_IP=13.213.62.184, timestamp=2025-04-10 02:56:28, systemid=3, lat=35.0723077, lon=129.0913288, alt=25.986, dist_traveled=null, wp_dist=462, dist_to_home=1.3462231422327496E7, vertical_speed=0.83594835, ground_speed=25.672895, wind_vel=0.1086842, airspeed=25.172676, gps_hdop=1.21, roll=-12.01, pitch=-0.65, yaw=-153.03, ch3percent=70.00, ch9out=0, tot=0.0, toh=0.0, time_in_air=0.0, ch10out=0, ch11out=0, ch12out=0, battery_voltage=0, battery_current=-1, waypoints_count=0, ch3out=1700, waypoints=[], home_location={lat=0.0, lon=0.0}}
[2025-04-10 02:56:29] {GCS_IP=13.213.62.184, timestamp=2025-04-10 02:56:29, systemid=3, lat=35.0720998, lon=129.0912125, alt=26.767, dist_traveled=null, wp_dist=437, dist_to_home=1.3462231610733528E7, vertical_speed=0.66638416, ground_speed=25.524078, wind_vel=0.10277416, airspeed=25.075497, gps_hdop=1.21, roll=-9.41, pitch=-1.00, yaw=-156.69, ch3percent=68.60, ch9out=0, tot=0.0, toh=0.0, time_in_air=0.0, ch10out=0, ch11out=0, ch12out=0, battery_voltage=0, battery_current=-1, waypoints_count=0, ch3out=1686, waypoints=[], home_location={lat=0.0, lon=0.0}}
[2025-04-10 02:56:30] {GCS_IP=13.213.62.184, timestamp=2025-04-10 02:56:30, systemid=3, lat=35.0718871, lon=129.09111, alt=27.405, dist_traveled=null, wp_dist=411, dist_to_home=1.3462233162780436E7, vertical_speed=0.5416327, ground_speed=25.448843, wind_vel=0.10164078, airspeed=25.015907, gps_hdop=1.21, roll=-6.42, pitch=-1.36, yaw=-159.53, ch3percent=67.80, ch9out=0, tot=0.0, toh=0.0, time_in_air=0.0, ch10out=0, ch11out=0, ch12out=0, battery_voltage=0, battery_current=-1, waypoints_count=0, ch3out=1678, waypoints=[], home_location={lat=0.0, lon=0.0}}
[2025-04-10 02:56:31] {GCS_IP=13.213.62.184, timestamp=2025-04-10 02:56:31, systemid=3, lat=35.0716714, lon=129.0910168, alt=27.94, dist_traveled=null, wp_dist=386, dist_to_home=1.3462235622730486E7, vertical_speed=0.4166398, ground_speed=25.411678, wind_vel=0.10381047, airspeed=24.947788, gps_hdop=1.21, roll=-4.18, pitch=-1.72, yaw=-161.48, ch3percent=66.70, ch9out=0, tot=0.0, toh=0.0, time_in_air=0.0, ch10out=0, ch11out=0, ch12out=0, battery_voltage=0, battery_current=-1, waypoints_count=0, ch3out=1667, waypoints=[], home_location={lat=0.0, lon=0.0}}
[2025-04-10 02:56:32] {GCS_IP=13.213.62.184, timestamp=2025-04-10 02:56:32, systemid=3, lat=35.0714547, lon=129.0909299, alt=28.349, dist_traveled=null, wp_dist=361, dist_to_home=1.3462238649130462E7, vertical_speed=0.29510665, ground_speed=25.377377, wind_vel=0.10823643, airspeed=24.891775, gps_hdop=1.21, roll=-1.65, pitch=-2.00, yaw=-162.53, ch3percent=66.60, ch9out=0, tot=0.0, toh=0.0, time_in_air=0.0, ch10out=0, ch11out=0, ch12out=0, battery_voltage=0, battery_current=-1, waypoints_count=0, ch3out=1666, waypoints=[], home_location={lat=0.0, lon=0.0}}
[2025-04-10 02:56:33] {GCS_IP=13.213.62.184, timestamp=2025-04-10 02:56:33, systemid=3, lat=35.0712378, lon=129.0908458, alt=28.675, dist_traveled=null, wp_dist=335, dist_to_home=1.3462241915735055E7, vertical_speed=0.2503351, ground_speed=25.378016, wind_vel=0.11377688, airspeed=24.845901, gps_hdop=1.21, roll=-0.47, pitch=-2.15, yaw=-162.92, ch3percent=66.50, ch9out=0, tot=0.0, toh=0.0, time_in_air=0.0, ch10out=0, ch11out=0, ch12out=0, battery_voltage=0, battery_current=-1, waypoints_count=0, ch3out=1665, waypoints=[], home_location={lat=0.0, lon=0.0}}
[2025-04-10 02:56:34] {GCS_IP=13.213.62.184, timestamp=2025-04-10 02:56:34, systemid=3, lat=35.0710209, lon=129.0907623, alt=28.91, dist_traveled=null, wp_dist=310, dist_to_home=1.3462245231718998E7, vertical_speed=0.16269143, ground_speed=25.394175, wind_vel=0.12014027, airspeed=24.871916, gps_hdop=1.21, roll=0.40, pitch=-2.32, yaw=-162.99, ch3percent=66.30, ch9out=0, tot=0.0, toh=0.0, time_in_air=0.0, ch10out=0, ch11out=0, ch12out=0, battery_voltage=0, battery_current=-1, waypoints_count=0, ch3out=1663, waypoints=[], home_location={lat=0.0, lon=0.0}}
[2025-04-10 02:56:35] {GCS_IP=13.213.62.184, timestamp=2025-04-10 02:56:35, systemid=3, lat=35.0708039, lon=129.0906779, alt=29.083, dist_traveled=null, wp_dist=284, dist_to_home=1.3462248478089552E7, vertical_speed=0.13713478, ground_speed=25.416565, wind_vel=0.12680016, airspeed=24.899466, gps_hdop=1.21, roll=1.24, pitch=-2.29, yaw=-162.66, ch3percent=66.40, ch9out=0, tot=0.0, toh=0.0, time_in_air=0.0, ch10out=0, ch11out=0, ch12out=0, battery_voltage=0, battery_current=-1, waypoints_count=0, ch3out=1664, waypoints=[], home_location={lat=0.0, lon=0.0}}
[2025-04-10 02:56:36] {GCS_IP=13.213.62.184, timestamp=2025-04-10 02:56:36, systemid=3, lat=35.0705867, lon=129.0905911, alt=29.233, dist_traveled=null, wp_dist=259, dist_to_home=1.346225153585178E7, vertical_speed=0.11747849, ground_speed=25.450628, wind_vel=0.13289234, airspeed=24.87774, gps_hdop=1.21, roll=1.00, pitch=-2.45, yaw=-162.23, ch3percent=66.70, ch9out=0, tot=0.0, toh=0.0, time_in_air=0.0, ch10out=0, ch11out=0, ch12out=0, battery_voltage=0, battery_current=-1, waypoints_count=0, ch3out=1667, waypoints=[], home_location={lat=0.0, lon=0.0}}
[2025-04-10 02:56:37] {GCS_IP=13.213.62.184, timestamp=2025-04-10 02:56:37, systemid=3, lat=35.0703701, lon=129.0905026, alt=29.368, dist_traveled=null, wp_dist=234, dist_to_home=1.3462254425102154E7, vertical_speed=0.10927458, ground_speed=25.477034, wind_vel=0.13904527, airspeed=24.942137, gps_hdop=1.21, roll=0.76, pitch=-2.39, yaw=-161.86, ch3percent=66.40, ch9out=0, tot=0.0, toh=0.0, time_in_air=0.0, ch10out=0, ch11out=0, ch12out=0, battery_voltage=0, battery_current=-1, waypoints_count=0, ch3out=1664, waypoints=[], home_location={lat=0.0, lon=0.0}}
[2025-04-10 02:56:38] {GCS_IP=13.213.62.184, timestamp=2025-04-10 02:56:38, systemid=3, lat=35.0701546, lon=129.0904131, alt=29.477, dist_traveled=null, wp_dist=208, dist_to_home=1.3462257180048998E7, vertical_speed=0.08063703, ground_speed=25.448095, wind_vel=0.14643762, airspeed=24.931286, gps_hdop=1.21, roll=0.37, pitch=-2.40, yaw=-161.62, ch3percent=66.40, ch9out=0, tot=0.0, toh=0.0, time_in_air=0.0, ch10out=0, ch11out=0, ch12out=0, battery_voltage=0, battery_current=-1, waypoints_count=0, ch3out=1664, waypoints=[], home_location={lat=0.0, lon=0.0}}
[2025-04-10 02:56:39] {GCS_IP=13.213.62.184, timestamp=2025-04-10 02:56:39, systemid=3, lat=35.0699393, lon=129.0903229, alt=29.537, dist_traveled=null, wp_dist=183, dist_to_home=1.3462259867761316E7, vertical_speed=0.07920121, ground_speed=25.423607, wind_vel=0.15502232, airspeed=24.990526, gps_hdop=1.21, roll=0.24, pitch=-2.40, yaw=-161.46, ch3percent=66.10, ch9out=0, tot=0.0, toh=0.0, time_in_air=0.0, ch10out=0, ch11out=0, ch12out=0, battery_voltage=0, battery_current=-1, waypoints_count=0, ch3out=1661, waypoints=[], home_location={lat=0.0, lon=0.0}}
[2025-04-10 02:56:40] {GCS_IP=13.213.62.184, timestamp=2025-04-10 02:56:40, systemid=3, lat=35.069723, lon=129.0902316, alt=29.614, dist_traveled=null, wp_dist=158, dist_to_home=1.3462262511690626E7, vertical_speed=0.10551905, ground_speed=25.433033, wind_vel=0.16360141, airspeed=24.961264, gps_hdop=1.21, roll=0.28, pitch=-2.35, yaw=-161.29, ch3percent=66.00, ch9out=0, tot=0.0, toh=0.0, time_in_air=0.0, ch10out=0, ch11out=0, ch12out=0, battery_voltage=0, battery_current=-1, waypoints_count=0, ch3out=1660, waypoints=[], home_location={lat=0.0, lon=0.0}}
[2025-04-10 02:56:41] {GCS_IP=13.213.62.184, timestamp=2025-04-10 02:56:41, systemid=3, lat=35.0695074, lon=129.0901398, alt=29.7, dist_traveled=null, wp_dist=132, dist_to_home=1.3462265081360715E7, vertical_speed=0.040385026, ground_speed=25.463238, wind_vel=0.170922, airspeed=24.995426, gps_hdop=1.21, roll=0.01, pitch=-2.45, yaw=-161.19, ch3percent=66.00, ch9out=0, tot=0.0, toh=0.0, time_in_air=0.0, ch10out=0, ch11out=0, ch12out=0, battery_voltage=0, battery_current=-1, waypoints_count=0, ch3out=1660, waypoints=[], home_location={lat=0.0, lon=0.0}}
[2025-04-10 02:56:42] {GCS_IP=13.213.62.184, timestamp=2025-04-10 02:56:42, systemid=3, lat=35.0692902, lon=129.0900471, alt=29.78, dist_traveled=null, wp_dist=107, dist_to_home=1.3462267651957301E7, vertical_speed=0.06877515, ground_speed=25.499825, wind_vel=0.17699455, airspeed=24.974905, gps_hdop=1.21, roll=0.12, pitch=-2.49, yaw=-161.26, ch3percent=65.90, ch9out=0, tot=0.0, toh=0.0, time_in_air=0.0, ch10out=0, ch11out=0, ch12out=0, battery_voltage=0, battery_current=-1, waypoints_count=0, ch3out=1659, waypoints=[], home_location={lat=0.0, lon=0.0}}
[2025-04-10 02:56:43] {GCS_IP=13.213.62.184, timestamp=2025-04-10 02:56:43, systemid=3, lat=35.0690744, lon=129.0899548, alt=29.839, dist_traveled=null, wp_dist=81, dist_to_home=1.3462270189591981E7, vertical_speed=0.07342746, ground_speed=25.50539, wind_vel=0.18307193, airspeed=24.946747, gps_hdop=1.21, roll=-0.00, pitch=-2.50, yaw=-161.19, ch3percent=65.80, ch9out=0, tot=0.0, toh=0.0, time_in_air=0.0, ch10out=0, ch11out=0, ch12out=0, battery_voltage=0, battery_current=-1, waypoints_count=0, ch3out=1658, waypoints=[], home_location={lat=0.0, lon=0.0}}
[2025-04-10 02:56:44] {GCS_IP=13.213.62.184, timestamp=2025-04-10 02:56:44, systemid=3, lat=35.0688599, lon=129.089863, alt=29.886, dist_traveled=null, wp_dist=56, dist_to_home=1.3462272707216414E7, vertical_speed=0.02562323, ground_speed=25.446856, wind_vel=0.19117746, airspeed=24.947659, gps_hdop=1.21, roll=-0.04, pitch=-2.53, yaw=-161.29, ch3percent=65.90, ch9out=0, tot=0.0, toh=0.0, time_in_air=0.0, ch10out=0, ch11out=0, ch12out=0, battery_voltage=0, battery_current=-1, waypoints_count=0, ch3out=1659, waypoints=[], home_location={lat=0.0, lon=0.0}}
[2025-04-10 02:56:45] {GCS_IP=13.213.62.184, timestamp=2025-04-10 02:56:45, systemid=3, lat=35.0686439, lon=129.0897709, alt=29.889, dist_traveled=null, wp_dist=282, dist_to_home=1.3462275270543266E7, vertical_speed=-0.015427872, ground_speed=25.464455, wind_vel=0.19829507, airspeed=24.982868, gps_hdop=1.21, roll=-0.28, pitch=-2.61, yaw=-161.30, ch3percent=65.90, ch9out=0, tot=0.0, toh=0.0, time_in_air=0.0, ch10out=0, ch11out=0, ch12out=0, battery_voltage=0, battery_current=-1, waypoints_count=0, ch3out=1659, waypoints=[], home_location={lat=0.0, lon=0.0}}
[2025-04-10 02:56:46] {GCS_IP=13.213.62.184, timestamp=2025-04-10 02:56:46, systemid=3, lat=35.068434, lon=129.0896624, alt=29.899, dist_traveled=null, wp_dist=260, dist_to_home=1.3462276194402577E7, vertical_speed=1.0827419, ground_speed=25.697433, wind_vel=0.20337811, airspeed=25.12727, gps_hdop=1.21, roll=29.18, pitch=1.40, yaw=-148.09, ch3percent=77.50, ch9out=0, tot=0.0, toh=0.0, time_in_air=0.0, ch10out=0, ch11out=0, ch12out=0, battery_voltage=0, battery_current=-1, waypoints_count=0, ch3out=1775, waypoints=[], home_location={lat=0.0, lon=0.0}}
[2025-04-10 02:56:47] {GCS_IP=13.213.62.184, timestamp=2025-04-10 02:56:47, systemid=3, lat=35.068249, lon=129.0894933, alt=30.39, dist_traveled=null, wp_dist=236, dist_to_home=1.3462270949511906E7, vertical_speed=-0.14075279, ground_speed=25.622911, wind_vel=0.20742916, airspeed=25.07795, gps_hdop=1.21, roll=25.92, pitch=-1.96, yaw=-139.39, ch3percent=64.90, ch9out=0, tot=0.0, toh=0.0, time_in_air=0.0, ch10out=0, ch11out=0, ch12out=0, battery_voltage=0, battery_current=-1, waypoints_count=0, ch3out=1649, waypoints=[], home_location={lat=0.0, lon=0.0}}
[2025-04-10 02:56:48] {GCS_IP=13.213.62.184, timestamp=2025-04-10 02:56:48, systemid=3, lat=35.0680865, lon=129.0892952, alt=30.3, dist_traveled=null, wp_dist=211, dist_to_home=1.3462262254728975E7, vertical_speed=-0.21417777, ground_speed=25.565851, wind_vel=0.20944597, airspeed=25.016243, gps_hdop=1.21, roll=17.73, pitch=-2.67, yaw=-131.67, ch3percent=64.30, ch9out=0, tot=0.0, toh=0.0, time_in_air=0.0, ch10out=0, ch11out=0, ch12out=0, battery_voltage=0, battery_current=-1, waypoints_count=0, ch3out=1643, waypoints=[], home_location={lat=0.0, lon=0.0}}
[2025-04-10 02:56:49] {GCS_IP=13.213.62.184, timestamp=2025-04-10 02:56:49, systemid=3, lat=35.0679438, lon=129.0890762, alt=30.096, dist_traveled=null, wp_dist=185, dist_to_home=1.3462250905033052E7, vertical_speed=-0.20294206, ground_speed=25.530169, wind_vel=0.20988064, airspeed=25.00974, gps_hdop=1.21, roll=12.62, pitch=-2.77, yaw=-127.61, ch3percent=64.20, ch9out=0, tot=0.0, toh=0.0, time_in_air=0.0, ch10out=0, ch11out=0, ch12out=0, battery_voltage=0, battery_current=-1, waypoints_count=0, ch3out=1642, waypoints=[], home_location={lat=0.0, lon=0.0}}
[2025-04-10 02:56:50] {GCS_IP=13.213.62.184, timestamp=2025-04-10 02:56:50, systemid=3, lat=35.0678144, lon=129.0888457, alt=29.898, dist_traveled=null, wp_dist=160, dist_to_home=1.3462237981328925E7, vertical_speed=-0.1356664, ground_speed=25.50484, wind_vel=0.20928968, airspeed=24.985867, gps_hdop=1.21, roll=6.37, pitch=-2.74, yaw=-124.04, ch3percent=64.60, ch9out=0, tot=0.0, toh=0.0, time_in_air=0.0, ch10out=0, ch11out=0, ch12out=0, battery_voltage=0, battery_current=-1, waypoints_count=0, ch3out=1646, waypoints=[], home_location={lat=0.0, lon=0.0}}
[2025-04-10 02:56:51] {GCS_IP=13.213.62.184, timestamp=2025-04-10 02:56:51, systemid=3, lat=35.0676921, lon=129.0886098, alt=29.763, dist_traveled=null, wp_dist=134, dist_to_home=1.3462224278263118E7, vertical_speed=-0.025040733, ground_speed=25.488272, wind_vel=0.20863652, airspeed=25.006647, gps_hdop=1.21, roll=1.08, pitch=-2.58, yaw=-122.31, ch3percent=65.30, ch9out=0, tot=0.0, toh=0.0, time_in_air=0.0, ch10out=0, ch11out=0, ch12out=0, battery_voltage=0, battery_current=-1, waypoints_count=0, ch3out=1653, waypoints=[], home_location={lat=0.0, lon=0.0}}
[2025-04-10 02:56:52] {GCS_IP=13.213.62.184, timestamp=2025-04-10 02:56:52, systemid=3, lat=35.0675717, lon=129.0883717, alt=29.719, dist_traveled=null, wp_dist=109, dist_to_home=1.3462210304287672E7, vertical_speed=-0.014190169, ground_speed=25.476433, wind_vel=0.20843573, airspeed=25.017208, gps_hdop=1.21, roll=-1.41, pitch=-2.47, yaw=-122.13, ch3percent=65.80, ch9out=0, tot=0.0, toh=0.0, time_in_air=0.0, ch10out=0, ch11out=0, ch12out=0, battery_voltage=0, battery_current=-1, waypoints_count=0, ch3out=1658, waypoints=[], home_location={lat=0.0, lon=0.0}}
[2025-04-10 02:56:53] {GCS_IP=13.213.62.184, timestamp=2025-04-10 02:56:53, systemid=3, lat=35.0674508, lon=129.0881348, alt=29.707, dist_traveled=null, wp_dist=84, dist_to_home=1.3462196452667572E7, vertical_speed=0.040836923, ground_speed=25.474503, wind_vel=0.20898776, airspeed=24.973822, gps_hdop=1.21, roll=-2.44, pitch=-2.37, yaw=-122.69, ch3percent=66.20, ch9out=0, tot=0.0, toh=0.0, time_in_air=0.0, ch10out=0, ch11out=0, ch12out=0, battery_voltage=0, battery_current=-1, waypoints_count=0, ch3out=1662, waypoints=[], home_location={lat=0.0, lon=0.0}}
[2025-04-10 02:56:54] {GCS_IP=13.213.62.184, timestamp=2025-04-10 02:56:54, systemid=3, lat=35.0673271, lon=129.0878993, alt=29.757, dist_traveled=null, wp_dist=58, dist_to_home=1.3462182848058507E7, vertical_speed=0.07799943, ground_speed=25.47413, wind_vel=0.21038137, airspeed=24.996931, gps_hdop=1.21, roll=-3.08, pitch=-2.34, yaw=-123.48, ch3percent=65.90, ch9out=0, tot=0.0, toh=0.0, time_in_air=0.0, ch10out=0, ch11out=0, ch12out=0, battery_voltage=0, battery_current=-1, waypoints_count=0, ch3out=1659, waypoints=[], home_location={lat=0.0, lon=0.0}}
[2025-04-10 02:56:55] {GCS_IP=13.213.62.184, timestamp=2025-04-10 02:56:55, systemid=3, lat=35.0672007, lon=129.0876664, alt=29.833, dist_traveled=null, wp_dist=33, dist_to_home=1.3462169584720623E7, vertical_speed=0.043646187, ground_speed=25.470942, wind_vel=0.21267116, airspeed=24.971653, gps_hdop=1.21, roll=-3.08, pitch=-2.48, yaw=-124.48, ch3percent=66.00, ch9out=0, tot=0.0, toh=0.0, time_in_air=0.0, ch10out=0, ch11out=0, ch12out=0, battery_voltage=0, battery_current=-1, waypoints_count=0, ch3out=1660, waypoints=[], home_location={lat=0.0, lon=0.0}}
[2025-04-10 02:56:56] {GCS_IP=13.213.62.184, timestamp=2025-04-10 02:56:56, systemid=3, lat=35.0670708, lon=129.087436, alt=29.894, dist_traveled=null, wp_dist=7, dist_to_home=1.3462156692026094E7, vertical_speed=0.039205085, ground_speed=25.474009, wind_vel=0.21551341, airspeed=24.961126, gps_hdop=1.21, roll=-2.17, pitch=-2.49, yaw=-125.33, ch3percent=65.70, ch9out=0, tot=0.0, toh=0.0, time_in_air=0.0, ch10out=0, ch11out=0, ch12out=0, battery_voltage=0, battery_current=-1, waypoints_count=0, ch3out=1657, waypoints=[], home_location={lat=0.0, lon=0.0}}
[2025-04-10 02:56:57] {GCS_IP=13.213.62.184, timestamp=2025-04-10 02:56:57, systemid=3, lat=35.0669386, lon=129.0872077, alt=29.926, dist_traveled=null, wp_dist=112, dist_to_home=1.3462144080553537E7, vertical_speed=-0.09607567, ground_speed=25.48322, wind_vel=0.21852976, airspeed=24.956041, gps_hdop=1.21, roll=47.45, pitch=-3.54, yaw=-121.70, ch3percent=65.90, ch9out=0, tot=0.0, toh=0.0, time_in_air=0.0, ch10out=0, ch11out=0, ch12out=0, battery_voltage=0, battery_current=-1, waypoints_count=0, ch3out=1659, waypoints=[], home_location={lat=0.0, lon=0.0}}
[2025-04-10 02:56:58] {GCS_IP=13.213.62.184, timestamp=2025-04-10 02:56:58, systemid=3, lat=35.0668515, lon=129.0869502, alt=30.482, dist_traveled=null, wp_dist=92, dist_to_home=1.3462126939954162E7, vertical_speed=1.449319, ground_speed=25.718904, wind_vel=0.21977593, airspeed=25.242668, gps_hdop=1.21, roll=33.30, pitch=0.67, yaw=-99.57, ch3percent=69.00, ch9out=0, tot=0.0, toh=0.0, time_in_air=0.0, ch10out=0, ch11out=0, ch12out=0, battery_voltage=0, battery_current=-1, waypoints_count=0, ch3out=1690, waypoints=[], home_location={lat=0.0, lon=0.0}}
[2025-04-10 02:56:59] {GCS_IP=13.213.62.184, timestamp=2025-04-10 02:56:59, systemid=3, lat=35.066835, lon=129.0866702, alt=31.061, dist_traveled=null, wp_dist=951, dist_to_home=1.3462104623705536E7, vertical_speed=0.003108116, ground_speed=25.680258, wind_vel=0.2202324, airspeed=25.083164, gps_hdop=1.21, roll=44.57, pitch=-0.78, yaw=-84.84, ch3percent=69.10, ch9out=0, tot=0.0, toh=0.0, time_in_air=0.0, ch10out=0, ch11out=0, ch12out=0, battery_voltage=0, battery_current=-1, waypoints_count=0, ch3out=1691, waypoints=[], home_location={lat=0.0, lon=0.0}}
[2025-04-10 02:57:00] {GCS_IP=13.213.62.184, timestamp=2025-04-10 02:57:00, systemid=3, lat=35.0668921, lon=129.0863999, alt=31.019, dist_traveled=null, wp_dist=959, dist_to_home=1.3462079646411905E7, vertical_speed=1.661061, ground_speed=26.201622, wind_vel=0.21835868, airspeed=25.669325, gps_hdop=1.21, roll=55.86, pitch=4.83, yaw=-49.41, ch3percent=94.20, ch9out=0, tot=0.0, toh=0.0, time_in_air=0.0, ch10out=0, ch11out=0, ch12out=0, battery_voltage=0, battery_current=-1, waypoints_count=0, ch3out=1942, waypoints=[], home_location={lat=0.0, lon=0.0}}
[2025-04-10 02:57:01] {GCS_IP=13.213.62.184, timestamp=2025-04-10 02:57:01, systemid=3, lat=35.0670636, lon=129.0862107, alt=32.488, dist_traveled=null, wp_dist=952, dist_to_home=1.3462055978072183E7, vertical_speed=0.22335856, ground_speed=25.854242, wind_vel=0.21134913, airspeed=25.506596, gps_hdop=1.21, roll=52.89, pitch=0.40, yaw=-29.79, ch3percent=67.10, ch9out=0, tot=0.0, toh=0.0, time_in_air=0.0, ch10out=0, ch11out=0, ch12out=0, battery_voltage=0, battery_current=-1, waypoints_count=0, ch3out=1671, waypoints=[], home_location={lat=0.0, lon=0.0}}
[2025-04-10 02:57:02] {GCS_IP=13.213.62.184, timestamp=2025-04-10 02:57:02, systemid=3, lat=35.0672779, lon=129.0861072, alt=32.526, dist_traveled=null, wp_dist=938, dist_to_home=1.3462037364981601E7, vertical_speed=-0.355036, ground_speed=25.660383, wind_vel=0.20120174, airspeed=25.30773, gps_hdop=1.21, roll=50.42, pitch=-0.68, yaw=-7.50, ch3percent=63.60, ch9out=0, tot=0.0, toh=0.0, time_in_air=0.0, ch10out=0, ch11out=0, ch12out=0, battery_voltage=0, battery_current=-1, waypoints_count=0, ch3out=1636, waypoints=[], home_location={lat=0.0, lon=0.0}}
[2025-04-10 02:57:03] {GCS_IP=13.213.62.184, timestamp=2025-04-10 02:57:03, systemid=3, lat=35.0675071, lon=129.0861075, alt=32.017, dist_traveled=null, wp_dist=917, dist_to_home=1.3462026611780684E7, vertical_speed=-0.8448491, ground_speed=25.429945, wind_vel=0.18902539, airspeed=25.021013, gps_hdop=1.21, roll=43.95, pitch=-2.33, yaw=11.49, ch3percent=58.50, ch9out=0, tot=0.0, toh=0.0, time_in_air=0.0, ch10out=0, ch11out=0, ch12out=0, battery_voltage=0, battery_current=-1, waypoints_count=0, ch3out=1585, waypoints=[], home_location={lat=0.0, lon=0.0}}
[2025-04-10 02:57:04] {GCS_IP=13.213.62.184, timestamp=2025-04-10 02:57:04, systemid=3, lat=35.0677229, lon=129.086194, alt=31.045, dist_traveled=null, wp_dist=893, dist_to_home=1.346202359766782E7, vertical_speed=-1.070497, ground_speed=25.28407, wind_vel=0.17505302, airspeed=24.889967, gps_hdop=1.21, roll=34.35, pitch=-3.43, yaw=26.57, ch3percent=57.20, ch9out=0, tot=0.0, toh=0.0, time_in_air=0.0, ch10out=0, ch11out=0, ch12out=0, battery_voltage=0, battery_current=-1, waypoints_count=0, ch3out=1572, waypoints=[], home_location={lat=0.0, lon=0.0}}
[2025-04-10 02:57:05] {GCS_IP=13.213.62.184, timestamp=2025-04-10 02:57:05, systemid=3, lat=35.0679152, lon=129.0863407, alt=29.908, dist_traveled=null, wp_dist=868, dist_to_home=1.3462026653281078E7, vertical_speed=-0.9980471, ground_speed=25.22389, wind_vel=0.15895666, airspeed=24.791292, gps_hdop=1.21, roll=21.00, pitch=-4.05, yaw=36.93, ch3percent=58.30, ch9out=0, tot=0.0, toh=0.0, time_in_air=0.0, ch10out=0, ch11out=0, ch12out=0, battery_voltage=0, battery_current=-1, waypoints_count=0, ch3out=1583, waypoints=[], home_location={lat=0.0, lon=0.0}}
[2025-04-10 02:57:06] {GCS_IP=13.213.62.184, timestamp=2025-04-10 02:57:06, systemid=3, lat=35.0680875, lon=129.0865205, alt=28.932, dist_traveled=null, wp_dist=843, dist_to_home=1.3462033379048659E7, vertical_speed=-0.60687935, ground_speed=25.285723, wind_vel=0.14243752, airspeed=24.8052, gps_hdop=1.21, roll=8.13, pitch=-3.60, yaw=42.63, ch3percent=61.80, ch9out=0, tot=0.0, toh=0.0, time_in_air=0.0, ch10out=0, ch11out=0, ch12out=0, battery_voltage=0, battery_current=-1, waypoints_count=0, ch3out=1618, waypoints=[], home_location={lat=0.0, lon=0.0}}
[2025-04-10 02:57:07] {GCS_IP=13.213.62.184, timestamp=2025-04-10 02:57:07, systemid=3, lat=35.0682504, lon=129.0867144, alt=28.343, dist_traveled=null, wp_dist=818, dist_to_home=1.346204170955655E7, vertical_speed=-0.17914136, ground_speed=25.370916, wind_vel=0.12566991, airspeed=24.91162, gps_hdop=1.21, roll=-0.53, pitch=-2.70, yaw=44.30, ch3percent=65.30, ch9out=0, tot=0.0, toh=0.0, time_in_air=0.0, ch10out=0, ch11out=0, ch12out=0, battery_voltage=0, battery_current=-1, waypoints_count=0, ch3out=1653, waypoints=[], home_location={lat=0.0, lon=0.0}}
[2025-04-10 02:57:08] {GCS_IP=13.213.62.184, timestamp=2025-04-10 02:57:08, systemid=3, lat=35.0684128, lon=129.0869102, alt=28.223, dist_traveled=null, wp_dist=793, dist_to_home=1.3462050220137881E7, vertical_speed=0.090241246, ground_speed=25.442732, wind_vel=0.109696865, airspeed=24.957703, gps_hdop=1.21, roll=-5.24, pitch=-2.13, yaw=43.54, ch3percent=67.30, ch9out=0, tot=0.0, toh=0.0, time_in_air=0.0, ch10out=0, ch11out=0, ch12out=0, battery_voltage=0, battery_current=-1, waypoints_count=0, ch3out=1673, waypoints=[], home_location={lat=0.0, lon=0.0}}
[2025-04-10 02:57:09] {GCS_IP=13.213.62.184, timestamp=2025-04-10 02:57:09, systemid=3, lat=35.06858, lon=129.0871015, alt=28.343, dist_traveled=null, wp_dist=768, dist_to_home=1.3462058133745547E7, vertical_speed=0.3111154, ground_speed=25.47367, wind_vel=0.09385541, airspeed=25.026495, gps_hdop=1.21, roll=-7.03, pitch=-1.68, yaw=41.54, ch3percent=67.40, ch9out=0, tot=0.0, toh=0.0, time_in_air=0.0, ch10out=0, ch11out=0, ch12out=0, battery_voltage=0, battery_current=-1, waypoints_count=0, ch3out=1674, waypoints=[], home_location={lat=0.0, lon=0.0}}
[2025-04-10 02:57:10] {GCS_IP=13.213.62.184, timestamp=2025-04-10 02:57:10, systemid=3, lat=35.0687534, lon=129.0872845, alt=28.633, dist_traveled=null, wp_dist=742, dist_to_home=1.3462065071157373E7, vertical_speed=0.3237339, ground_speed=25.448063, wind_vel=0.0791702, airspeed=24.945839, gps_hdop=1.21, roll=-7.22, pitch=-1.63, yaw=38.98, ch3percent=67.20, ch9out=0, tot=0.0, toh=0.0, time_in_air=0.0, ch10out=0, ch11out=0, ch12out=0, battery_voltage=0, battery_current=-1, waypoints_count=0, ch3out=1672, waypoints=[], home_location={lat=0.0, lon=0.0}}
