[2025-04-10 05:19:37] {GCS_IP=13.213.62.184, timestamp=2025-04-10 05:19:37, systemid=3, lat=35.0729846, lon=129.0906986, alt=30.024, dist_traveled=null, wp_dist=177, dist_to_home=1.3462147616258275E7, vertical_speed=0.026922783, ground_speed=25.50125, wind_vel=0.0, airspeed=24.976934, gps_hdop=1.21, roll=0.14, pitch=-2.45, yaw=32.66, ch3percent=65.40, ch9out=0, tot=0.0, toh=0.0, time_in_air=0.0, ch10out=0, ch11out=0, ch12out=0, battery_voltage=0, battery_current=-1, waypoints_count=0, ch3out=1654}
[2025-04-10 05:19:38] {GCS_IP=13.213.62.184, timestamp=2025-04-10 05:19:38, systemid=3, lat=35.073176, lon=129.0908519, alt=30.015, dist_traveled=null, wp_dist=151, dist_to_home=1.346215125487254E7, vertical_speed=0.010519842, ground_speed=25.49063, wind_vel=0.1852124, airspeed=24.98156, gps_hdop=1.21, roll=-0.01, pitch=-2.40, yaw=32.70, ch3percent=65.80, ch9out=0, tot=0.0, toh=0.0, time_in_air=0.0, ch10out=0, ch11out=0, ch12out=0, battery_voltage=0, battery_current=-1, waypoints_count=0, ch3out=1658, waypoints=[], home_location={lat=0.0, lon=0.0}}
[2025-04-10 05:19:39] {GCS_IP=13.213.62.184, timestamp=2025-04-10 05:19:39, systemid=3, lat=35.0733673, lon=129.0910052, alt=30.01, dist_traveled=null, wp_dist=126, dist_to_home=1.346215489806212E7, vertical_speed=-0.021381179, ground_speed=25.482107, wind_vel=0.19136451, airspeed=25.01492, gps_hdop=1.21, roll=-0.01, pitch=-2.46, yaw=32.68, ch3percent=65.60, ch9out=0, tot=0.0, toh=0.0, time_in_air=0.0, ch10out=0, ch11out=0, ch12out=0, battery_voltage=0, battery_current=-1, waypoints_count=0, ch3out=1656, waypoints=[], home_location={lat=0.0, lon=0.0}}
[2025-04-10 05:19:40] {GCS_IP=13.213.62.184, timestamp=2025-04-10 05:19:40, systemid=3, lat=35.0735585, lon=129.0911581, alt=30.001, dist_traveled=null, wp_dist=100, dist_to_home=1.3462158512842938E7, vertical_speed=-0.015317905, ground_speed=25.47425, wind_vel=0.19752675, airspeed=24.9669, gps_hdop=1.21, roll=0.20, pitch=-2.39, yaw=32.59, ch3percent=65.80, ch9out=0, tot=0.0, toh=0.0, time_in_air=0.0, ch10out=0, ch11out=0, ch12out=0, battery_voltage=0, battery_current=-1, waypoints_count=0, ch3out=1658, waypoints=[], home_location={lat=0.0, lon=0.0}}
[2025-04-10 05:19:41] {GCS_IP=13.213.62.184, timestamp=2025-04-10 05:19:41, systemid=3, lat=35.0737493, lon=129.0913108, alt=29.98, dist_traveled=null, wp_dist=75, dist_to_home=1.3462162129818792E7, vertical_speed=-0.024383182, ground_speed=25.42393, wind_vel=0.20514826, airspeed=25.027164, gps_hdop=1.21, roll=0.05, pitch=-2.40, yaw=32.77, ch3percent=65.80, ch9out=0, tot=0.0, toh=0.0, time_in_air=0.0, ch10out=0, ch11out=0, ch12out=0, battery_voltage=0, battery_current=-1, waypoints_count=0, ch3out=1658, waypoints=[], home_location={lat=0.0, lon=0.0}}
[2025-04-10 05:19:42] {GCS_IP=13.213.62.184, timestamp=2025-04-10 05:19:42, systemid=3, lat=35.0740344, lon=129.0915406, alt=29.975, dist_traveled=null, wp_dist=649, dist_to_home=1.3462167668630095E7, vertical_speed=0.014795139, ground_speed=25.390064, wind_vel=0.21610042, airspeed=24.966805, gps_hdop=1.21, roll=43.36, pitch=-4.32, yaw=37.35, ch3percent=71.30, ch9out=0, tot=0.0, toh=0.0, time_in_air=0.0, ch10out=0, ch11out=0, ch12out=0, battery_voltage=0, battery_current=-1, waypoints_count=0, ch3out=1713, waypoints=[], home_location={lat=0.0, lon=0.0}}
[2025-04-10 05:19:43] {GCS_IP=13.213.62.184, timestamp=2025-04-10 05:19:43, systemid=3, lat=35.0741371, lon=129.0917726, alt=30.445, dist_traveled=null, wp_dist=666, dist_to_home=1.346218196839595E7, vertical_speed=2.2208166, ground_speed=24.221672, wind_vel=0.21897519, airspeed=24.318933, gps_hdop=1.21, roll=53.00, pitch=5.66, yaw=84.58, ch3percent=26.20, ch9out=0, tot=0.0, toh=0.0, time_in_air=0.0, ch10out=0, ch11out=0, ch12out=0, battery_voltage=0, battery_current=-1, waypoints_count=0, ch3out=1262, waypoints=[], home_location={lat=0.0, lon=0.0}}
[2025-04-10 05:19:44] {GCS_IP=13.213.62.184, timestamp=2025-04-10 05:19:44, systemid=3, lat=35.0741224, lon=129.0920279, alt=30.364, dist_traveled=null, wp_dist=672, dist_to_home=1.3462203711715039E7, vertical_speed=-1.625639, ground_speed=23.147867, wind_vel=0.21759428, airspeed=22.779385, gps_hdop=1.21, roll=55.09, pitch=-2.74, yaw=101.93, ch3percent=45.60, ch9out=0, tot=0.0, toh=0.0, time_in_air=0.0, ch10out=0, ch11out=0, ch12out=0, battery_voltage=0, battery_current=-1, waypoints_count=0, ch3out=1456, waypoints=[], home_location={lat=0.0, lon=0.0}}
[2025-04-10 05:19:45] {GCS_IP=13.213.62.184, timestamp=2025-04-10 05:19:45, systemid=3, lat=35.0740232, lon=129.0922473, alt=28.723, dist_traveled=null, wp_dist=669, dist_to_home=1.3462226469527239E7, vertical_speed=-1.3846077, ground_speed=23.345762, wind_vel=0.21430258, airspeed=22.827028, gps_hdop=1.21, roll=55.46, pitch=-1.92, yaw=133.29, ch3percent=59.70, ch9out=0, tot=0.0, toh=0.0, time_in_air=0.0, ch10out=0, ch11out=0, ch12out=0, battery_voltage=0, battery_current=-1, waypoints_count=0, ch3out=1597, waypoints=[], home_location={lat=0.0, lon=0.0}}
[2025-04-10 05:19:46] {GCS_IP=13.213.62.184, timestamp=2025-04-10 05:19:46, systemid=3, lat=35.0738405, lon=129.0923693, alt=27.783, dist_traveled=null, wp_dist=654, dist_to_home=1.3462245123590302E7, vertical_speed=-0.49939704, ground_speed=23.785471, wind_vel=0.20724516, airspeed=23.23636, gps_hdop=1.21, roll=54.01, pitch=0.03, yaw=165.05, ch3percent=64.60, ch9out=0, tot=0.0, toh=0.0, time_in_air=0.0, ch10out=0, ch11out=0, ch12out=0, battery_voltage=0, battery_current=-1, waypoints_count=0, ch3out=1646, waypoints=[], home_location={lat=0.0, lon=0.0}}
[2025-04-10 05:19:47] {GCS_IP=13.213.62.184, timestamp=2025-04-10 05:19:47, systemid=3, lat=35.0736276, lon=129.0923682, alt=27.344, dist_traveled=null, wp_dist=632, dist_to_home=1.3462255047465114E7, vertical_speed=-0.41930413, ground_speed=24.063951, wind_vel=0.19635499, airspeed=23.583027, gps_hdop=1.21, roll=47.98, pitch=-0.64, yaw=-170.26, ch3percent=61.20, ch9out=0, tot=0.0, toh=0.0, time_in_air=0.0, ch10out=0, ch11out=0, ch12out=0, battery_voltage=0, battery_current=-1, waypoints_count=0, ch3out=1612, waypoints=[], home_location={lat=0.0, lon=0.0}}
[2025-04-10 05:19:48] {GCS_IP=13.213.62.184, timestamp=2025-04-10 05:19:48, systemid=3, lat=35.0734268, lon=129.0922719, alt=26.748, dist_traveled=null, wp_dist=608, dist_to_home=1.346225655193529E7, vertical_speed=-0.72435015, ground_speed=24.199272, wind_vel=0.18209857, airspeed=23.734074, gps_hdop=1.21, roll=34.92, pitch=-2.41, yaw=-153.45, ch3percent=57.90, ch9out=0, tot=0.0, toh=0.0, time_in_air=0.0, ch10out=0, ch11out=0, ch12out=0, battery_voltage=0, battery_current=-1, waypoints_count=0, ch3out=1579, waypoints=[], home_location={lat=0.0, lon=0.0}}
[2025-04-10 05:19:49] {GCS_IP=13.213.62.184, timestamp=2025-04-10 05:19:49, systemid=3, lat=35.0732472, lon=129.0921213, alt=25.997, dist_traveled=null, wp_dist=585, dist_to_home=1.3462252581502646E7, vertical_speed=-0.64375186, ground_speed=24.373865, wind_vel=0.16689095, airspeed=23.886778, gps_hdop=1.21, roll=15.79, pitch=-3.31, yaw=-143.51, ch3percent=60.50, ch9out=0, tot=0.0, toh=0.0, time_in_air=0.0, ch10out=0, ch11out=0, ch12out=0, battery_voltage=0, battery_current=-1, waypoints_count=0, ch3out=1605, waypoints=[], home_location={lat=0.0, lon=0.0}}
[2025-04-10 05:19:50] {GCS_IP=13.213.62.184, timestamp=2025-04-10 05:19:50, systemid=3, lat=35.0730787, lon=129.0919489, alt=25.584, dist_traveled=null, wp_dist=561, dist_to_home=1.3462246291191084E7, vertical_speed=-0.09567601, ground_speed=24.625023, wind_vel=0.15193053, airspeed=24.075306, gps_hdop=1.21, roll=-0.62, pitch=-2.52, yaw=-139.96, ch3percent=65.60, ch9out=0, tot=0.0, toh=0.0, time_in_air=0.0, ch10out=0, ch11out=0, ch12out=0, battery_voltage=0, battery_current=-1, waypoints_count=0, ch3out=1656, waypoints=[], home_location={lat=0.0, lon=0.0}}
[2025-04-10 05:19:51] {GCS_IP=13.213.62.184, timestamp=2025-04-10 05:19:51, systemid=3, lat=35.0729077, lon=129.0917756, alt=25.679, dist_traveled=null, wp_dist=538, dist_to_home=1.3462240044134898E7, vertical_speed=0.3501246, ground_speed=24.868517, wind_vel=0.13730527, airspeed=24.33394, gps_hdop=1.21, roll=-9.14, pitch=-1.48, yaw=-141.22, ch3percent=69.00, ch9out=0, tot=0.0, toh=0.0, time_in_air=0.0, ch10out=0, ch11out=0, ch12out=0, battery_voltage=0, battery_current=-1, waypoints_count=0, ch3out=1690, waypoints=[], home_location={lat=0.0, lon=0.0}}
[2025-04-10 05:19:52] {GCS_IP=13.213.62.184, timestamp=2025-04-10 05:19:52, systemid=3, lat=35.0727274, lon=129.0916131, alt=26.143, dist_traveled=null, wp_dist=514, dist_to_home=1.3462235124978771E7, vertical_speed=0.5681374, ground_speed=25.04406, wind_vel=0.12208139, airspeed=24.546507, gps_hdop=1.21, roll=-12.59, pitch=-0.90, yaw=-144.93, ch3percent=69.80, ch9out=0, tot=0.0, toh=0.0, time_in_air=0.0, ch10out=0, ch11out=0, ch12out=0, battery_voltage=0, battery_current=-1, waypoints_count=0, ch3out=1698, waypoints=[], home_location={lat=0.0, lon=0.0}}
[2025-04-10 05:19:53] {GCS_IP=13.213.62.184, timestamp=2025-04-10 05:19:53, systemid=3, lat=35.0725366, lon=129.0914667, alt=26.708, dist_traveled=null, wp_dist=489, dist_to_home=1.3462232027213208E7, vertical_speed=0.5700925, ground_speed=25.168602, wind_vel=0.107786134, airspeed=24.637249, gps_hdop=1.21, roll=-12.92, pitch=-0.82, yaw=-149.20, ch3percent=69.70, ch9out=0, tot=0.0, toh=0.0, time_in_air=0.0, ch10out=0, ch11out=0, ch12out=0, battery_voltage=0, battery_current=-1, waypoints_count=0, ch3out=1697, waypoints=[], home_location={lat=0.0, lon=0.0}}
[2025-04-10 05:19:54] {GCS_IP=13.213.62.184, timestamp=2025-04-10 05:19:54, systemid=3, lat=35.0723363, lon=129.0913376, alt=27.299, dist_traveled=null, wp_dist=464, dist_to_home=1.346223080276081E7, vertical_speed=0.49118716, ground_speed=25.247032, wind_vel=0.09451553, airspeed=24.748398, gps_hdop=1.21, roll=-11.32, pitch=-1.14, yaw=-153.36, ch3percent=68.70, ch9out=0, tot=0.0, toh=0.0, time_in_air=0.0, ch10out=0, ch11out=0, ch12out=0, battery_voltage=0, battery_current=-1, waypoints_count=0, ch3out=1687, waypoints=[], home_location={lat=0.0, lon=0.0}}
[2025-04-10 05:19:55] {GCS_IP=13.213.62.184, timestamp=2025-04-10 05:19:55, systemid=3, lat=35.0721293, lon=129.0912247, alt=27.778, dist_traveled=null, wp_dist=439, dist_to_home=1.3462231229220092E7, vertical_speed=0.46794817, ground_speed=25.271406, wind_vel=0.08201706, airspeed=24.808058, gps_hdop=1.21, roll=-8.62, pitch=-1.25, yaw=-156.78, ch3percent=67.90, ch9out=0, tot=0.0, toh=0.0, time_in_air=0.0, ch10out=0, ch11out=0, ch12out=0, battery_voltage=0, battery_current=-1, waypoints_count=0, ch3out=1679, waypoints=[], home_location={lat=0.0, lon=0.0}}
[2025-04-10 05:19:56] {GCS_IP=13.213.62.184, timestamp=2025-04-10 05:19:56, systemid=3, lat=35.0719171, lon=129.0911242, alt=28.174, dist_traveled=null, wp_dist=414, dist_to_home=1.346223292268916E7, vertical_speed=0.34996805, ground_speed=25.29495, wind_vel=0.07173267, airspeed=24.797752, gps_hdop=1.21, roll=-5.90, pitch=-1.54, yaw=-159.37, ch3percent=67.40, ch9out=0, tot=0.0, toh=0.0, time_in_air=0.0, ch10out=0, ch11out=0, ch12out=0, battery_voltage=0, battery_current=-1, waypoints_count=0, ch3out=1674, waypoints=[], home_location={lat=0.0, lon=0.0}}
[2025-04-10 05:19:57] {GCS_IP=13.213.62.184, timestamp=2025-04-10 05:19:57, systemid=3, lat=35.0717024, lon=129.0910324, alt=28.504, dist_traveled=null, wp_dist=389, dist_to_home=1.3462235451067377E7, vertical_speed=0.2738758, ground_speed=25.312128, wind_vel=0.06357519, airspeed=24.825218, gps_hdop=1.21, roll=-3.49, pitch=-1.76, yaw=-161.08, ch3percent=67.10, ch9out=0, tot=0.0, toh=0.0, time_in_air=0.0, ch10out=0, ch11out=0, ch12out=0, battery_voltage=0, battery_current=-1, waypoints_count=0, ch3out=1671, waypoints=[], home_location={lat=0.0, lon=0.0}}
[2025-04-10 05:19:58] {GCS_IP=13.213.62.184, timestamp=2025-04-10 05:19:58, systemid=3, lat=35.0714872, lon=129.0909462, alt=28.784, dist_traveled=null, wp_dist=363, dist_to_home=1.3462238464655112E7, vertical_speed=0.20881297, ground_speed=25.281662, wind_vel=0.05853027, airspeed=24.902225, gps_hdop=1.21, roll=-1.50, pitch=-1.90, yaw=-161.99, ch3percent=66.60, ch9out=0, tot=0.0, toh=0.0, time_in_air=0.0, ch10out=0, ch11out=0, ch12out=0, battery_voltage=0, battery_current=-1, waypoints_count=0, ch3out=1666, waypoints=[], home_location={lat=0.0, lon=0.0}}
[2025-04-10 05:19:59] {GCS_IP=13.213.62.184, timestamp=2025-04-10 05:19:59, systemid=3, lat=35.0712705, lon=129.090862, alt=29.016, dist_traveled=null, wp_dist=338, dist_to_home=1.3462241713622553E7, vertical_speed=0.20555444, ground_speed=25.295893, wind_vel=0.058376767, airspeed=24.868862, gps_hdop=1.21, roll=-0.34, pitch=-1.96, yaw=-162.37, ch3percent=66.70, ch9out=0, tot=0.0, toh=0.0, time_in_air=0.0, ch10out=0, ch11out=0, ch12out=0, battery_voltage=0, battery_current=-1, waypoints_count=0, ch3out=1667, waypoints=[], home_location={lat=0.0, lon=0.0}}
[2025-04-10 05:20:00] {GCS_IP=13.213.62.184, timestamp=2025-04-10 05:20:00, systemid=3, lat=35.071053, lon=129.0907783, alt=29.208, dist_traveled=null, wp_dist=313, dist_to_home=1.3462245041350283E7, vertical_speed=0.15754607, ground_speed=25.320427, wind_vel=0.061720118, airspeed=24.893852, gps_hdop=1.21, roll=0.51, pitch=-2.06, yaw=-162.40, ch3percent=66.30, ch9out=0, tot=0.0, toh=0.0, time_in_air=0.0, ch10out=0, ch11out=0, ch12out=0, battery_voltage=0, battery_current=-1, waypoints_count=0, ch3out=1663, waypoints=[], home_location={lat=0.0, lon=0.0}}
[2025-04-10 05:20:01] {GCS_IP=13.213.62.184, timestamp=2025-04-10 05:20:01, systemid=3, lat=35.0708358, lon=129.0906937, alt=29.393, dist_traveled=null, wp_dist=287, dist_to_home=1.3462248280650621E7, vertical_speed=0.14619511, ground_speed=25.344603, wind_vel=0.0672243, airspeed=24.9088, gps_hdop=1.21, roll=0.86, pitch=-2.14, yaw=-162.20, ch3percent=66.00, ch9out=0, tot=0.0, toh=0.0, time_in_air=0.0, ch10out=0, ch11out=0, ch12out=0, battery_voltage=0, battery_current=-1, waypoints_count=0, ch3out=1660, waypoints=[], home_location={lat=0.0, lon=0.0}}
[2025-04-10 05:20:02] {GCS_IP=13.213.62.184, timestamp=2025-04-10 05:20:02, systemid=3, lat=35.0706189, lon=129.0906077, alt=29.531, dist_traveled=null, wp_dist=262, dist_to_home=1.3462251390290547E7, vertical_speed=0.106434405, ground_speed=25.354174, wind_vel=0.07380779, airspeed=24.895582, gps_hdop=1.21, roll=0.97, pitch=-2.18, yaw=-161.87, ch3percent=66.10, ch9out=0, tot=0.0, toh=0.0, time_in_air=0.0, ch10out=0, ch11out=0, ch12out=0, battery_voltage=0, battery_current=-1, waypoints_count=0, ch3out=1661, waypoints=[], home_location={lat=0.0, lon=0.0}}
[2025-04-10 05:20:03] {GCS_IP=13.213.62.184, timestamp=2025-04-10 05:20:03, systemid=3, lat=35.070402, lon=129.0905202, alt=29.652, dist_traveled=null, wp_dist=237, dist_to_home=1.3462254376132334E7, vertical_speed=0.07847417, ground_speed=25.368288, wind_vel=0.08140418, airspeed=24.945868, gps_hdop=1.21, roll=1.10, pitch=-2.31, yaw=-161.61, ch3percent=65.50, ch9out=0, tot=0.0, toh=0.0, time_in_air=0.0, ch10out=0, ch11out=0, ch12out=0, battery_voltage=0, battery_current=-1, waypoints_count=0, ch3out=1655, waypoints=[], home_location={lat=0.0, lon=0.0}}
[2025-04-10 05:20:04] {GCS_IP=13.213.62.184, timestamp=2025-04-10 05:20:04, systemid=3, lat=35.0701854, lon=129.0904313, alt=29.757, dist_traveled=null, wp_dist=211, dist_to_home=1.3462257232311152E7, vertical_speed=0.083957724, ground_speed=25.378963, wind_vel=0.08921337, airspeed=24.909454, gps_hdop=1.21, roll=1.02, pitch=-2.32, yaw=-161.32, ch3percent=65.40, ch9out=0, tot=0.0, toh=0.0, time_in_air=0.0, ch10out=0, ch11out=0, ch12out=0, battery_voltage=0, battery_current=-1, waypoints_count=0, ch3out=1654, waypoints=[], home_location={lat=0.0, lon=0.0}}
[2025-04-10 05:20:05] {GCS_IP=13.213.62.184, timestamp=2025-04-10 05:20:05, systemid=3, lat=35.0699692, lon=129.0903411, alt=29.828, dist_traveled=null, wp_dist=186, dist_to_home=1.3462259962369163E7, vertical_speed=0.042021375, ground_speed=25.392996, wind_vel=0.0966644, airspeed=24.90146, gps_hdop=1.21, roll=0.93, pitch=-2.38, yaw=-160.99, ch3percent=65.50, ch9out=0, tot=0.0, toh=0.0, time_in_air=0.0, ch10out=0, ch11out=0, ch12out=0, battery_voltage=0, battery_current=-1, waypoints_count=0, ch3out=1655, waypoints=[], home_location={lat=0.0, lon=0.0}}
[2025-04-10 05:20:06] {GCS_IP=13.213.62.184, timestamp=2025-04-10 05:20:06, systemid=3, lat=35.0697551, lon=129.0902503, alt=29.879, dist_traveled=null, wp_dist=160, dist_to_home=1.346226254407708E7, vertical_speed=0.051999174, ground_speed=25.337465, wind_vel=0.1062152, airspeed=24.902729, gps_hdop=1.21, roll=0.49, pitch=-2.32, yaw=-160.78, ch3percent=65.80, ch9out=0, tot=0.0, toh=0.0, time_in_air=0.0, ch10out=0, ch11out=0, ch12out=0, battery_voltage=0, battery_current=-1, waypoints_count=0, ch3out=1658, waypoints=[], home_location={lat=0.0, lon=0.0}}
[2025-04-10 05:20:07] {GCS_IP=13.213.62.184, timestamp=2025-04-10 05:20:07, systemid=3, lat=35.0695402, lon=129.0901584, alt=29.888, dist_traveled=null, wp_dist=135, dist_to_home=1.3462265072595403E7, vertical_speed=0.017974826, ground_speed=25.335285, wind_vel=0.11576019, airspeed=24.905571, gps_hdop=1.21, roll=0.41, pitch=-2.31, yaw=-160.56, ch3percent=65.70, ch9out=0, tot=0.0, toh=0.0, time_in_air=0.0, ch10out=0, ch11out=0, ch12out=0, battery_voltage=0, battery_current=-1, waypoints_count=0, ch3out=1657, waypoints=[], home_location={lat=0.0, lon=0.0}}
[2025-04-10 05:20:08] {GCS_IP=13.213.62.184, timestamp=2025-04-10 05:20:08, systemid=3, lat=35.0693259, lon=129.0900664, alt=29.904, dist_traveled=null, wp_dist=110, dist_to_home=1.3462267564544963E7, vertical_speed=-0.01887096, ground_speed=25.352987, wind_vel=0.1244741, airspeed=24.924505, gps_hdop=1.21, roll=0.13, pitch=-2.45, yaw=-160.54, ch3percent=65.90, ch9out=0, tot=0.0, toh=0.0, time_in_air=0.0, ch10out=0, ch11out=0, ch12out=0, battery_voltage=0, battery_current=-1, waypoints_count=0, ch3out=1659, waypoints=[], home_location={lat=0.0, lon=0.0}}
[2025-04-10 05:20:09] {GCS_IP=13.213.62.184, timestamp=2025-04-10 05:20:09, systemid=3, lat=35.0691092, lon=129.0899733, alt=29.922, dist_traveled=null, wp_dist=84, dist_to_home=1.3462270078552535E7, vertical_speed=0.034713626, ground_speed=25.40429, wind_vel=0.1315695, airspeed=24.933512, gps_hdop=1.21, roll=0.08, pitch=-2.29, yaw=-160.59, ch3percent=66.00, ch9out=0, tot=0.0, toh=0.0, time_in_air=0.0, ch10out=0, ch11out=0, ch12out=0, battery_voltage=0, battery_current=-1, waypoints_count=0, ch3out=1660, waypoints=[], home_location={lat=0.0, lon=0.0}}
[2025-04-10 05:20:10] {GCS_IP=13.213.62.184, timestamp=2025-04-10 05:20:10, systemid=3, lat=35.068893, lon=129.0898807, alt=29.984, dist_traveled=null, wp_dist=59, dist_to_home=1.3462272610173257E7, vertical_speed=0.043306354, ground_speed=25.432146, wind_vel=0.1382944, airspeed=24.964626, gps_hdop=1.21, roll=-0.22, pitch=-2.40, yaw=-160.52, ch3percent=65.80, ch9out=0, tot=0.0, toh=0.0, time_in_air=0.0, ch10out=0, ch11out=0, ch12out=0, battery_voltage=0, battery_current=-1, waypoints_count=0, ch3out=1658, waypoints=[], home_location={lat=0.0, lon=0.0}}
[2025-04-10 05:20:11] {GCS_IP=13.213.62.184, timestamp=2025-04-10 05:20:11, systemid=3, lat=35.068677, lon=129.0897883, alt=30.009, dist_traveled=null, wp_dist=33, dist_to_home=1.3462275148776922E7, vertical_speed=0.048022695, ground_speed=25.449423, wind_vel=0.1451865, airspeed=24.94487, gps_hdop=1.21, roll=-0.02, pitch=-2.33, yaw=-160.58, ch3percent=65.60, ch9out=0, tot=0.0, toh=0.0, time_in_air=0.0, ch10out=0, ch11out=0, ch12out=0, battery_voltage=0, battery_current=-1, waypoints_count=0, ch3out=1656, waypoints=[], home_location={lat=0.0, lon=0.0}}
[2025-04-10 05:20:12] {GCS_IP=13.213.62.184, timestamp=2025-04-10 05:20:12, systemid=3, lat=35.0684646, lon=129.0896862, alt=29.998, dist_traveled=null, wp_dist=263, dist_to_home=1.3462276718025923E7, vertical_speed=0.07117391, ground_speed=25.549494, wind_vel=0.15043426, airspeed=24.966742, gps_hdop=1.21, roll=43.89, pitch=0.83, yaw=-153.45, ch3percent=79.40, ch9out=0, tot=0.0, toh=0.0, time_in_air=0.0, ch10out=0, ch11out=0, ch12out=0, battery_voltage=0, battery_current=-1, waypoints_count=0, ch3out=1794, waypoints=[], home_location={lat=0.0, lon=0.0}}
[2025-04-10 05:20:13] {GCS_IP=13.213.62.184, timestamp=2025-04-10 05:20:13, systemid=3, lat=35.0682777, lon=129.0895245, alt=30.556, dist_traveled=null, wp_dist=239, dist_to_home=1.3462272172779975E7, vertical_speed=-0.20881863, ground_speed=25.515343, wind_vel=0.15720518, airspeed=25.061945, gps_hdop=1.21, roll=25.20, pitch=-2.49, yaw=-142.25, ch3percent=64.40, ch9out=0, tot=0.0, toh=0.0, time_in_air=0.0, ch10out=0, ch11out=0, ch12out=0, battery_voltage=0, battery_current=-1, waypoints_count=0, ch3out=1644, waypoints=[], home_location={lat=0.0, lon=0.0}}
[2025-04-10 05:20:14] {GCS_IP=13.213.62.184, timestamp=2025-04-10 05:20:14, systemid=3, lat=35.0681117, lon=129.0893311, alt=30.45, dist_traveled=null, wp_dist=214, dist_to_home=1.3462264030226035E7, vertical_speed=-0.12959996, ground_speed=25.478004, wind_vel=0.16215907, airspeed=25.0124, gps_hdop=1.21, roll=20.02, pitch=-2.36, yaw=-134.03, ch3percent=64.10, ch9out=0, tot=0.0, toh=0.0, time_in_air=0.0, ch10out=0, ch11out=0, ch12out=0, battery_voltage=0, battery_current=-1, waypoints_count=0, ch3out=1641, waypoints=[], home_location={lat=0.0, lon=0.0}}
[2025-04-10 05:20:15] {GCS_IP=13.213.62.184, timestamp=2025-04-10 05:20:15, systemid=3, lat=35.0679662, lon=129.0891156, alt=30.248, dist_traveled=null, wp_dist=189, dist_to_home=1.3462253100875476E7, vertical_speed=-0.2018968, ground_speed=25.43386, wind_vel=0.16519317, airspeed=24.97112, gps_hdop=1.21, roll=13.78, pitch=-2.65, yaw=-127.89, ch3percent=64.10, ch9out=0, tot=0.0, toh=0.0, time_in_air=0.0, ch10out=0, ch11out=0, ch12out=0, battery_voltage=0, battery_current=-1, waypoints_count=0, ch3out=1641, waypoints=[], home_location={lat=0.0, lon=0.0}}
[2025-04-10 05:20:16] {GCS_IP=13.213.62.184, timestamp=2025-04-10 05:20:16, systemid=3, lat=35.0678359, lon=129.088888, alt=30.043, dist_traveled=null, wp_dist=163, dist_to_home=1.3462240458680248E7, vertical_speed=-0.21426445, ground_speed=25.38938, wind_vel=0.16780682, airspeed=24.97983, gps_hdop=1.21, roll=7.29, pitch=-2.82, yaw=-124.07, ch3percent=64.40, ch9out=0, tot=0.0, toh=0.0, time_in_air=0.0, ch10out=0, ch11out=0, ch12out=0, battery_voltage=0, battery_current=-1, waypoints_count=0, ch3out=1644, waypoints=[], home_location={lat=0.0, lon=0.0}}
[2025-04-10 05:20:17] {GCS_IP=13.213.62.184, timestamp=2025-04-10 05:20:17, systemid=3, lat=35.0677128, lon=129.0886531, alt=29.913, dist_traveled=null, wp_dist=138, dist_to_home=1.3462226875728536E7, vertical_speed=-0.10255522, ground_speed=25.38998, wind_vel=0.17021666, airspeed=24.949888, gps_hdop=1.21, roll=2.65, pitch=-2.67, yaw=-122.05, ch3percent=65.10, ch9out=0, tot=0.0, toh=0.0, time_in_air=0.0, ch10out=0, ch11out=0, ch12out=0, battery_voltage=0, battery_current=-1, waypoints_count=0, ch3out=1651, waypoints=[], home_location={lat=0.0, lon=0.0}}
[2025-04-10 05:20:18] {GCS_IP=13.213.62.184, timestamp=2025-04-10 05:20:18, systemid=3, lat=35.0675924, lon=129.0884156, alt=29.841, dist_traveled=null, wp_dist=113, dist_to_home=1.3462212951256933E7, vertical_speed=-0.046027467, ground_speed=25.415802, wind_vel=0.17295, airspeed=24.995874, gps_hdop=1.21, roll=-0.45, pitch=-2.52, yaw=-121.46, ch3percent=65.50, ch9out=0, tot=0.0, toh=0.0, time_in_air=0.0, ch10out=0, ch11out=0, ch12out=0, battery_voltage=0, battery_current=-1, waypoints_count=0, ch3out=1655, waypoints=[], home_location={lat=0.0, lon=0.0}}
[2025-04-10 05:20:19] {GCS_IP=13.213.62.184, timestamp=2025-04-10 05:20:19, systemid=3, lat=35.0674715, lon=129.0881781, alt=29.822, dist_traveled=null, wp_dist=87, dist_to_home=1.3462199050176537E7, vertical_speed=0.026658848, ground_speed=25.424862, wind_vel=0.17629388, airspeed=24.960224, gps_hdop=1.21, roll=-2.27, pitch=-2.42, yaw=-121.81, ch3percent=65.70, ch9out=0, tot=0.0, toh=0.0, time_in_air=0.0, ch10out=0, ch11out=0, ch12out=0, battery_voltage=0, battery_current=-1, waypoints_count=0, ch3out=1657, waypoints=[], home_location={lat=0.0, lon=0.0}}
[2025-04-10 05:20:20] {GCS_IP=13.213.62.184, timestamp=2025-04-10 05:20:20, systemid=3, lat=35.0673481, lon=129.0879422, alt=29.834, dist_traveled=null, wp_dist=62, dist_to_home=1.3462185398493106E7, vertical_speed=0.0083948355, ground_speed=25.468134, wind_vel=0.17943445, airspeed=24.971209, gps_hdop=1.21, roll=-2.92, pitch=-2.42, yaw=-122.53, ch3percent=65.80, ch9out=0, tot=0.0, toh=0.0, time_in_air=0.0, ch10out=0, ch11out=0, ch12out=0, battery_voltage=0, battery_current=-1, waypoints_count=0, ch3out=1658, waypoints=[], home_location={lat=0.0, lon=0.0}}
[2025-04-10 05:20:21] {GCS_IP=13.213.62.184, timestamp=2025-04-10 05:20:21, systemid=3, lat=35.0672213, lon=129.0877086, alt=29.866, dist_traveled=null, wp_dist=36, dist_to_home=1.3462172096258031E7, vertical_speed=0.06112042, ground_speed=25.495869, wind_vel=0.18271846, airspeed=24.963976, gps_hdop=1.21, roll=-2.91, pitch=-2.35, yaw=-123.66, ch3percent=65.90, ch9out=0, tot=0.0, toh=0.0, time_in_air=0.0, ch10out=0, ch11out=0, ch12out=0, battery_voltage=0, battery_current=-1, waypoints_count=0, ch3out=1659, waypoints=[], home_location={lat=0.0, lon=0.0}}
[2025-04-10 05:20:22] {GCS_IP=13.213.62.184, timestamp=2025-04-10 05:20:22, systemid=3, lat=35.0670915, lon=129.087478, alt=29.893, dist_traveled=null, wp_dist=11, dist_to_home=1.3462159182388434E7, vertical_speed=0.0010872511, ground_speed=25.494455, wind_vel=0.1873268, airspeed=24.998196, gps_hdop=1.21, roll=-2.19, pitch=-2.48, yaw=-124.40, ch3percent=65.80, ch9out=0, tot=0.0, toh=0.0, time_in_air=0.0, ch10out=0, ch11out=0, ch12out=0, battery_voltage=0, battery_current=-1, waypoints_count=0, ch3out=1658, waypoints=[], home_location={lat=0.0, lon=0.0}}
[2025-04-10 05:20:23] {GCS_IP=13.213.62.184, timestamp=2025-04-10 05:20:23, systemid=3, lat=35.0669602, lon=129.0872512, alt=29.902, dist_traveled=null, wp_dist=115, dist_to_home=1.3462146652322289E7, vertical_speed=0.05568454, ground_speed=25.431223, wind_vel=0.19293006, airspeed=24.986597, gps_hdop=1.21, roll=1.20, pitch=-2.28, yaw=-124.64, ch3percent=66.20, ch9out=0, tot=0.0, toh=0.0, time_in_air=0.0, ch10out=0, ch11out=0, ch12out=0, battery_voltage=0, battery_current=-1, waypoints_count=0, ch3out=1662, waypoints=[], home_location={lat=0.0, lon=0.0}}
[2025-04-10 05:20:24] {GCS_IP=13.213.62.184, timestamp=2025-04-10 05:20:24, systemid=3, lat=35.0668597, lon=129.0870026, alt=30.117, dist_traveled=null, wp_dist=96, dist_to_home=1.346213087587666E7, vertical_speed=1.9167037, ground_speed=25.745745, wind_vel=0.19729377, airspeed=25.25801, gps_hdop=1.21, roll=39.63, pitch=5.28, yaw=-103.47, ch3percent=75.40, ch9out=0, tot=0.0, toh=0.0, time_in_air=0.0, ch10out=0, ch11out=0, ch12out=0, battery_voltage=0, battery_current=-1, waypoints_count=0, ch3out=1754, waypoints=[], home_location={lat=0.0, lon=0.0}}
[2025-04-10 05:20:25] {GCS_IP=13.213.62.184, timestamp=2025-04-10 05:20:25, systemid=3, lat=35.0668343, lon=129.0867232, alt=30.994, dist_traveled=null, wp_dist=73, dist_to_home=1.3462109027641479E7, vertical_speed=-0.30540642, ground_speed=25.524492, wind_vel=0.20257135, airspeed=25.114506, gps_hdop=1.21, roll=41.52, pitch=-1.35, yaw=-92.42, ch3percent=68.40, ch9out=0, tot=0.0, toh=0.0, time_in_air=0.0, ch10out=0, ch11out=0, ch12out=0, battery_voltage=0, battery_current=-1, waypoints_count=0, ch3out=1684, waypoints=[], home_location={lat=0.0, lon=0.0}}
[2025-04-10 05:20:26] {GCS_IP=13.213.62.184, timestamp=2025-04-10 05:20:26, systemid=3, lat=35.0668704, lon=129.0864472, alt=30.963, dist_traveled=null, wp_dist=959, dist_to_home=1.3462084567767326E7, vertical_speed=-0.11555948, ground_speed=25.836657, wind_vel=0.20625815, airspeed=25.279562, gps_hdop=1.21, roll=60.39, pitch=0.90, yaw=-69.10, ch3percent=98.20, ch9out=0, tot=0.0, toh=0.0, time_in_air=0.0, ch10out=0, ch11out=0, ch12out=0, battery_voltage=0, battery_current=-1, waypoints_count=0, ch3out=1982, waypoints=[], home_location={lat=0.0, lon=0.0}}
[2025-04-10 05:20:27] {GCS_IP=13.213.62.184, timestamp=2025-04-10 05:20:27, systemid=3, lat=35.0670222, lon=129.0862352, alt=32.249, dist_traveled=null, wp_dist=955, dist_to_home=1.3462059945430374E7, vertical_speed=1.4174172, ground_speed=25.952356, wind_vel=0.20634568, airspeed=25.621561, gps_hdop=1.21, roll=53.26, pitch=2.90, yaw=-37.90, ch3percent=69.40, ch9out=0, tot=0.0, toh=0.0, time_in_air=0.0, ch10out=0, ch11out=0, ch12out=0, battery_voltage=0, battery_current=-1, waypoints_count=0, ch3out=1694, waypoints=[], home_location={lat=0.0, lon=0.0}}
[2025-04-10 05:20:28] {GCS_IP=13.213.62.184, timestamp=2025-04-10 05:20:28, systemid=3, lat=35.0672297, lon=129.0861121, alt=32.687, dist_traveled=null, wp_dist=941, dist_to_home=1.3462040035652626E7, vertical_speed=-0.1381025, ground_speed=25.705217, wind_vel=0.2035263, airspeed=25.297865, gps_hdop=1.21, roll=52.30, pitch=-0.14, yaw=-17.45, ch3percent=64.60, ch9out=0, tot=0.0, toh=0.0, time_in_air=0.0, ch10out=0, ch11out=0, ch12out=0, battery_voltage=0, battery_current=-1, waypoints_count=0, ch3out=1646, waypoints=[], home_location={lat=0.0, lon=0.0}}
[2025-04-10 05:20:29] {GCS_IP=13.213.62.184, timestamp=2025-04-10 05:20:29, systemid=3, lat=35.0674579, lon=129.0860911, alt=32.327, dist_traveled=null, wp_dist=921, dist_to_home=1.3462027572841924E7, vertical_speed=-0.60233986, ground_speed=25.471663, wind_vel=0.19756554, airspeed=25.094404, gps_hdop=1.21, roll=47.36, pitch=-1.64, yaw=3.64, ch3percent=59.10, ch9out=0, tot=0.0, toh=0.0, time_in_air=0.0, ch10out=0, ch11out=0, ch12out=0, battery_voltage=0, battery_current=-1, waypoints_count=0, ch3out=1591, waypoints=[], home_location={lat=0.0, lon=0.0}}
[2025-04-10 05:20:30] {GCS_IP=13.213.62.184, timestamp=2025-04-10 05:20:30, systemid=3, lat=35.0676779, lon=129.086162, alt=31.434, dist_traveled=null, wp_dist=898, dist_to_home=1.3462023074697385E7, vertical_speed=-1.0594935, ground_speed=25.283497, wind_vel=0.18777645, airspeed=24.917368, gps_hdop=1.21, roll=39.53, pitch=-3.14, yaw=20.59, ch3percent=56.80, ch9out=0, tot=0.0, toh=0.0, time_in_air=0.0, ch10out=0, ch11out=0, ch12out=0, battery_voltage=0, battery_current=-1, waypoints_count=0, ch3out=1568, waypoints=[], home_location={lat=0.0, lon=0.0}}
[2025-04-10 05:20:31] {GCS_IP=13.213.62.184, timestamp=2025-04-10 05:20:31, systemid=3, lat=35.0678743, lon=129.086299, alt=30.324, dist_traveled=null, wp_dist=873, dist_to_home=1.346202513756978E7, vertical_speed=-1.0951636, ground_speed=25.182043, wind_vel=0.17431912, airspeed=24.765194, gps_hdop=1.21, roll=27.43, pitch=-4.04, yaw=33.31, ch3percent=57.30, ch9out=0, tot=0.0, toh=0.0, time_in_air=0.0, ch10out=0, ch11out=0, ch12out=0, battery_voltage=0, battery_current=-1, waypoints_count=0, ch3out=1573, waypoints=[], home_location={lat=0.0, lon=0.0}}
[2025-04-10 05:20:32] {GCS_IP=13.213.62.184, timestamp=2025-04-10 05:20:32, systemid=3, lat=35.068049, lon=129.0864744, alt=29.245, dist_traveled=null, wp_dist=848, dist_to_home=1.3462031387637133E7, vertical_speed=-0.87018734, ground_speed=25.207226, wind_vel=0.15975873, airspeed=24.737003, gps_hdop=1.21, roll=13.72, pitch=-4.15, yaw=41.20, ch3percent=61.00, ch9out=0, tot=0.0, toh=0.0, time_in_air=0.0, ch10out=0, ch11out=0, ch12out=0, battery_voltage=0, battery_current=-1, waypoints_count=0, ch3out=1610, waypoints=[], home_location={lat=0.0, lon=0.0}}
[2025-04-10 05:20:33] {GCS_IP=13.213.62.184, timestamp=2025-04-10 05:20:33, systemid=3, lat=35.0682122, lon=129.0866673, alt=28.538, dist_traveled=null, wp_dist=823, dist_to_home=1.3462039621598477E7, vertical_speed=-0.40939313, ground_speed=25.326971, wind_vel=0.14471698, airspeed=24.782578, gps_hdop=1.21, roll=2.68, pitch=-3.30, yaw=44.68, ch3percent=64.70, ch9out=0, tot=0.0, toh=0.0, time_in_air=0.0, ch10out=0, ch11out=0, ch12out=0, battery_voltage=0, battery_current=-1, waypoints_count=0, ch3out=1647, waypoints=[], home_location={lat=0.0, lon=0.0}}
[2025-04-10 05:20:34] {GCS_IP=13.213.62.184, timestamp=2025-04-10 05:20:34, systemid=3, lat=35.0683732, lon=129.0868639, alt=28.258, dist_traveled=null, wp_dist=798, dist_to_home=1.346204826402396E7, vertical_speed=-0.070000276, ground_speed=25.429087, wind_vel=0.12870963, airspeed=24.938932, gps_hdop=1.21, roll=-3.99, pitch=-2.58, yaw=44.77, ch3percent=67.00, ch9out=0, tot=0.0, toh=0.0, time_in_air=0.0, ch10out=0, ch11out=0, ch12out=0, battery_voltage=0, battery_current=-1, waypoints_count=0, ch3out=1670, waypoints=[], home_location={lat=0.0, lon=0.0}}
[2025-04-10 05:20:35] {GCS_IP=13.213.62.184, timestamp=2025-04-10 05:20:35, systemid=3, lat=35.0685378, lon=129.0870556, alt=28.315, dist_traveled=null, wp_dist=773, dist_to_home=1.3462056332920672E7, vertical_speed=0.16269442, ground_speed=25.441492, wind_vel=0.11195823, airspeed=25.014164, gps_hdop=1.21, roll=-6.81, pitch=-1.99, yaw=43.07, ch3percent=67.70, ch9out=0, tot=0.0, toh=0.0, time_in_air=0.0, ch10out=0, ch11out=0, ch12out=0, battery_voltage=0, battery_current=-1, waypoints_count=0, ch3out=1677, waypoints=[], home_location={lat=0.0, lon=0.0}}
[2025-04-10 05:20:36] {GCS_IP=13.213.62.184, timestamp=2025-04-10 05:20:36, systemid=3, lat=35.0687096, lon=129.0872402, alt=28.523, dist_traveled=null, wp_dist=748, dist_to_home=1.346206347755944E7, vertical_speed=0.24356712, ground_speed=25.454098, wind_vel=0.09698112, airspeed=25.008505, gps_hdop=1.21, roll=-7.44, pitch=-1.80, yaw=40.77, ch3percent=67.70, ch9out=0, tot=0.0, toh=0.0, time_in_air=0.0, ch10out=0, ch11out=0, ch12out=0, battery_voltage=0, battery_current=-1, waypoints_count=0, ch3out=1677, waypoints=[], home_location={lat=0.0, lon=0.0}}
[2025-04-10 05:20:37] {GCS_IP=13.213.62.184, timestamp=2025-04-10 05:20:37, systemid=3, lat=35.0688875, lon=129.0874154, alt=28.791, dist_traveled=null, wp_dist=722, dist_to_home=1.3462069559990132E7, vertical_speed=0.22534427, ground_speed=25.448072, wind_vel=0.084005736, airspeed=25.025734, gps_hdop=1.21, roll=-6.66, pitch=-1.83, yaw=38.37, ch3percent=67.30, ch9out=0, tot=0.0, toh=0.0, time_in_air=0.0, ch10out=0, ch11out=0, ch12out=0, battery_voltage=0, battery_current=-1, waypoints_count=0, ch3out=1673, waypoints=[], home_location={lat=0.0, lon=0.0}}
[2025-04-10 05:20:38] {GCS_IP=13.213.62.184, timestamp=2025-04-10 05:20:38, systemid=3, lat=35.0690719, lon=129.0875828, alt=29.084, dist_traveled=null, wp_dist=697, dist_to_home=1.3462074693353195E7, vertical_speed=0.21120162, ground_speed=25.423811, wind_vel=0.07344271, airspeed=24.963623, gps_hdop=1.21, roll=-5.23, pitch=-1.87, yaw=36.25, ch3percent=66.50, ch9out=0, tot=0.0, toh=0.0, time_in_air=0.0, ch10out=0, ch11out=0, ch12out=0, battery_voltage=0, battery_current=-1, waypoints_count=0, ch3out=1665, waypoints=[], home_location={lat=0.0, lon=0.0}}
[2025-04-10 05:20:39] {GCS_IP=13.213.62.184, timestamp=2025-04-10 05:20:39, systemid=3, lat=35.0692588, lon=129.0877418, alt=29.305, dist_traveled=null, wp_dist=671, dist_to_home=1.3462079016280694E7, vertical_speed=0.19110037, ground_speed=25.398804, wind_vel=0.065761186, airspeed=24.937088, gps_hdop=1.21, roll=-3.94, pitch=-1.89, yaw=34.65, ch3percent=66.40, ch9out=0, tot=0.0, toh=0.0, time_in_air=0.0, ch10out=0, ch11out=0, ch12out=0, battery_voltage=0, battery_current=-1, waypoints_count=0, ch3out=1664, waypoints=[], home_location={lat=0.0, lon=0.0}}
[2025-04-10 05:20:40] {GCS_IP=13.213.62.184, timestamp=2025-04-10 05:20:40, systemid=3, lat=35.0694501, lon=129.0878965, alt=29.497, dist_traveled=null, wp_dist=646, dist_to_home=1.346208277754193E7, vertical_speed=0.14210278, ground_speed=25.39849, wind_vel=0.061586592, airspeed=24.976965, gps_hdop=1.21, roll=-2.23, pitch=-2.05, yaw=33.52, ch3percent=65.80, ch9out=0, tot=0.0, toh=0.0, time_in_air=0.0, ch10out=0, ch11out=0, ch12out=0, battery_voltage=0, battery_current=-1, waypoints_count=0, ch3out=1658, waypoints=[], home_location={lat=0.0, lon=0.0}}
[2025-04-10 05:20:41] {GCS_IP=13.213.62.184, timestamp=2025-04-10 05:20:41, systemid=3, lat=35.0696425, lon=129.0880477, alt=29.648, dist_traveled=null, wp_dist=620, dist_to_home=1.346208619830585E7, vertical_speed=0.09153941, ground_speed=25.386377, wind_vel=0.06022923, airspeed=24.910345, gps_hdop=1.21, roll=-1.30, pitch=-2.17, yaw=32.90, ch3percent=65.80, ch9out=0, tot=0.0, toh=0.0, time_in_air=0.0, ch10out=0, ch11out=0, ch12out=0, battery_voltage=0, battery_current=-1, waypoints_count=0, ch3out=1658, waypoints=[], home_location={lat=0.0, lon=0.0}}
[2025-04-10 05:20:42] {GCS_IP=13.213.62.184, timestamp=2025-04-10 05:20:42, systemid=3, lat=35.0698355, lon=129.0881971, alt=29.738, dist_traveled=null, wp_dist=595, dist_to_home=1.3462089442283591E7, vertical_speed=0.088026665, ground_speed=25.404196, wind_vel=0.060997702, airspeed=24.874851, gps_hdop=1.21, roll=-0.15, pitch=-2.18, yaw=32.60, ch3percent=66.10, ch9out=0, tot=0.0, toh=0.0, time_in_air=0.0, ch10out=0, ch11out=0, ch12out=0, battery_voltage=0, battery_current=-1, waypoints_count=0, ch3out=1661, waypoints=[], home_location={lat=0.0, lon=0.0}}
[2025-04-10 05:20:43] {GCS_IP=13.213.62.184, timestamp=2025-04-10 05:20:43, systemid=3, lat=35.0700291, lon=129.0883464, alt=29.824, dist_traveled=null, wp_dist=570, dist_to_home=1.3462092649669858E7, vertical_speed=0.050002296, ground_speed=25.423962, wind_vel=0.06352154, airspeed=24.925133, gps_hdop=1.21, roll=0.23, pitch=-2.28, yaw=32.53, ch3percent=65.80, ch9out=0, tot=0.0, toh=0.0, time_in_air=0.0, ch10out=0, ch11out=0, ch12out=0, battery_voltage=0, battery_current=-1, waypoints_count=0, ch3out=1658, waypoints=[], home_location={lat=0.0, lon=0.0}}
[2025-04-10 05:20:44] {GCS_IP=13.213.62.184, timestamp=2025-04-10 05:20:44, systemid=3, lat=35.0702222, lon=129.0884957, alt=29.889, dist_traveled=null, wp_dist=544, dist_to_home=1.3462095880443892E7, vertical_speed=0.009900562, ground_speed=25.43079, wind_vel=0.06755774, airspeed=24.949993, gps_hdop=1.21, roll=0.64, pitch=-2.39, yaw=32.66, ch3percent=65.60, ch9out=0, tot=0.0, toh=0.0, time_in_air=0.0, ch10out=0, ch11out=0, ch12out=0, battery_voltage=0, battery_current=-1, waypoints_count=0, ch3out=1656, waypoints=[], home_location={lat=0.0, lon=0.0}}
[2025-04-10 05:20:45] {GCS_IP=13.213.62.184, timestamp=2025-04-10 05:20:45, systemid=3, lat=35.0704138, lon=129.0886447, alt=29.915, dist_traveled=null, wp_dist=519, dist_to_home=1.3462099156897027E7, vertical_speed=-0.04619649, ground_speed=25.368029, wind_vel=0.074060984, airspeed=24.922977, gps_hdop=1.21, roll=0.74, pitch=-2.44, yaw=32.83, ch3percent=65.70, ch9out=0, tot=0.0, toh=0.0, time_in_air=0.0, ch10out=0, ch11out=0, ch12out=0, battery_voltage=0, battery_current=-1, waypoints_count=0, ch3out=1657, waypoints=[], home_location={lat=0.0, lon=0.0}}
[2025-04-10 05:20:46] {GCS_IP=13.213.62.184, timestamp=2025-04-10 05:20:46, systemid=3, lat=35.0706054, lon=129.0887949, alt=29.942, dist_traveled=null, wp_dist=493, dist_to_home=1.3462102532183507E7, vertical_speed=0.008406571, ground_speed=25.36305, wind_vel=0.08140822, airspeed=24.92303, gps_hdop=1.21, roll=0.85, pitch=-2.34, yaw=33.11, ch3percent=65.70, ch9out=0, tot=0.0, toh=0.0, time_in_air=0.0, ch10out=0, ch11out=0, ch12out=0, battery_voltage=0, battery_current=-1, waypoints_count=0, ch3out=1657, waypoints=[], home_location={lat=0.0, lon=0.0}}
[2025-04-10 05:20:47] {GCS_IP=13.213.62.184, timestamp=2025-04-10 05:20:47, systemid=3, lat=35.0707973, lon=129.0889466, alt=29.95, dist_traveled=null, wp_dist=468, dist_to_home=1.3462106016932324E7, vertical_speed=-0.028462213, ground_speed=25.386564, wind_vel=0.08891471, airspeed=24.944178, gps_hdop=1.21, roll=0.50, pitch=-2.49, yaw=33.21, ch3percent=65.70, ch9out=0, tot=0.0, toh=0.0, time_in_air=0.0, ch10out=0, ch11out=0, ch12out=0, battery_voltage=0, battery_current=-1, waypoints_count=0, ch3out=1657, waypoints=[], home_location={lat=0.0, lon=0.0}}
[2025-04-10 05:20:48] {GCS_IP=13.213.62.184, timestamp=2025-04-10 05:20:48, systemid=3, lat=35.0709892, lon=129.089099, alt=29.962, dist_traveled=null, wp_dist=443, dist_to_home=1.3462109559279041E7, vertical_speed=0.028318614, ground_speed=25.420828, wind_vel=0.09593762, airspeed=24.969349, gps_hdop=1.21, roll=0.75, pitch=-2.35, yaw=33.41, ch3percent=65.80, ch9out=0, tot=0.0, toh=0.0, time_in_air=0.0, ch10out=0, ch11out=0, ch12out=0, battery_voltage=0, battery_current=-1, waypoints_count=0, ch3out=1658, waypoints=[], home_location={lat=0.0, lon=0.0}}
[2025-04-10 05:20:49] {GCS_IP=13.213.62.184, timestamp=2025-04-10 05:20:49, systemid=3, lat=35.0711811, lon=129.0892524, alt=30.011, dist_traveled=null, wp_dist=417, dist_to_home=1.3462113183962343E7, vertical_speed=0.048347425, ground_speed=25.453482, wind_vel=0.102280356, airspeed=24.986322, gps_hdop=1.21, roll=0.29, pitch=-2.31, yaw=33.48, ch3percent=65.50, ch9out=0, tot=0.0, toh=0.0, time_in_air=0.0, ch10out=0, ch11out=0, ch12out=0, battery_voltage=0, battery_current=-1, waypoints_count=0, ch3out=1655, waypoints=[], home_location={lat=0.0, lon=0.0}}
[2025-04-10 05:20:50] {GCS_IP=13.213.62.184, timestamp=2025-04-10 05:20:50, systemid=3, lat=35.0713727, lon=129.0894059, alt=30.027, dist_traveled=null, wp_dist=392, dist_to_home=1.3462116830873035E7, vertical_speed=-0.012412877, ground_speed=25.449278, wind_vel=0.10879296, airspeed=24.945982, gps_hdop=1.21, roll=0.43, pitch=-2.47, yaw=33.65, ch3percent=65.50, ch9out=0, tot=0.0, toh=0.0, time_in_air=0.0, ch10out=0, ch11out=0, ch12out=0, battery_voltage=0, battery_current=-1, waypoints_count=0, ch3out=1655, waypoints=[], home_location={lat=0.0, lon=0.0}}
[2025-04-10 05:20:51] {GCS_IP=13.213.62.184, timestamp=2025-04-10 05:20:51, systemid=3, lat=35.0715628, lon=129.0895587, alt=30.02, dist_traveled=null, wp_dist=366, dist_to_home=1.3462120490479657E7, vertical_speed=-0.02210365, ground_speed=25.414413, wind_vel=0.11736134, airspeed=24.981264, gps_hdop=1.21, roll=-0.05, pitch=-2.49, yaw=33.69, ch3percent=65.70, ch9out=0, tot=0.0, toh=0.0, time_in_air=0.0, ch10out=0, ch11out=0, ch12out=0, battery_voltage=0, battery_current=-1, waypoints_count=0, ch3out=1657, waypoints=[], home_location={lat=0.0, lon=0.0}}
[2025-04-10 05:20:52] {GCS_IP=13.213.62.184, timestamp=2025-04-10 05:20:52, systemid=3, lat=35.0717529, lon=129.0897116, alt=30.0, dist_traveled=null, wp_dist=341, dist_to_home=1.3462124158205658E7, vertical_speed=-0.044001482, ground_speed=25.386261, wind_vel=0.12632337, airspeed=24.95208, gps_hdop=1.21, roll=0.11, pitch=-2.48, yaw=33.74, ch3percent=65.70, ch9out=0, tot=0.0, toh=0.0, time_in_air=0.0, ch10out=0, ch11out=0, ch12out=0, battery_voltage=0, battery_current=-1, waypoints_count=0, ch3out=1657, waypoints=[], home_location={lat=0.0, lon=0.0}}
[2025-04-10 05:20:53] {GCS_IP=13.213.62.184, timestamp=2025-04-10 05:20:53, systemid=3, lat=35.0719438, lon=129.0898653, alt=29.966, dist_traveled=null, wp_dist=315, dist_to_home=1.3462127854148306E7, vertical_speed=0.003863737, ground_speed=25.406084, wind_vel=0.13429588, airspeed=25.008524, gps_hdop=1.21, roll=-0.00, pitch=-2.35, yaw=33.75, ch3percent=65.90, ch9out=0, tot=0.0, toh=0.0, time_in_air=0.0, ch10out=0, ch11out=0, ch12out=0, battery_voltage=0, battery_current=-1, waypoints_count=0, ch3out=1659, waypoints=[], home_location={lat=0.0, lon=0.0}}
[2025-04-10 05:20:54] {GCS_IP=13.213.62.184, timestamp=2025-04-10 05:20:54, systemid=3, lat=35.0721354, lon=129.0900193, alt=29.994, dist_traveled=null, wp_dist=290, dist_to_home=1.3462131541777736E7, vertical_speed=0.014830954, ground_speed=25.435944, wind_vel=0.14133818, airspeed=24.999619, gps_hdop=1.21, roll=-0.29, pitch=-2.43, yaw=33.59, ch3percent=65.60, ch9out=0, tot=0.0, toh=0.0, time_in_air=0.0, ch10out=0, ch11out=0, ch12out=0, battery_voltage=0, battery_current=-1, waypoints_count=0, ch3out=1656, waypoints=[], home_location={lat=0.0, lon=0.0}}
[2025-04-10 05:20:55] {GCS_IP=13.213.62.184, timestamp=2025-04-10 05:20:55, systemid=3, lat=35.072327, lon=129.0901727, alt=30.029, dist_traveled=null, wp_dist=264, dist_to_home=1.3462135179800563E7, vertical_speed=0.038760178, ground_speed=25.443796, wind_vel=0.14761855, airspeed=24.948568, gps_hdop=1.21, roll=0.12, pitch=-2.44, yaw=33.55, ch3percent=65.80, ch9out=0, tot=0.0, toh=0.0, time_in_air=0.0, ch10out=0, ch11out=0, ch12out=0, battery_voltage=0, battery_current=-1, waypoints_count=0, ch3out=1658, waypoints=[], home_location={lat=0.0, lon=0.0}}
[2025-04-10 05:20:56] {GCS_IP=13.213.62.184, timestamp=2025-04-10 05:20:56, systemid=3, lat=35.0725188, lon=129.0903263, alt=30.044, dist_traveled=null, wp_dist=239, dist_to_home=1.3462138824780293E7, vertical_speed=5.3465937E-4, ground_speed=25.468145, wind_vel=0.1540639, airspeed=24.996807, gps_hdop=1.21, roll=-0.01, pitch=-2.47, yaw=33.53, ch3percent=65.60, ch9out=0, tot=0.0, toh=0.0, time_in_air=0.0, ch10out=0, ch11out=0, ch12out=0, battery_voltage=0, battery_current=-1, waypoints_count=0, ch3out=1656, waypoints=[], home_location={lat=0.0, lon=0.0}}
[2025-04-10 05:20:57] {GCS_IP=13.213.62.184, timestamp=2025-04-10 05:20:57, systemid=3, lat=35.0727092, lon=129.0904786, alt=30.073, dist_traveled=null, wp_dist=213, dist_to_home=1.3462142428280005E7, vertical_speed=-0.010442939, ground_speed=25.409506, wind_vel=0.16242558, airspeed=24.951538, gps_hdop=1.21, roll=0.05, pitch=-2.44, yaw=33.54, ch3percent=65.30, ch9out=0, tot=0.0, toh=0.0, time_in_air=0.0, ch10out=0, ch11out=0, ch12out=0, battery_voltage=0, battery_current=-1, waypoints_count=0, ch3out=1653, waypoints=[], home_location={lat=0.0, lon=0.0}}
[2025-04-10 05:20:58] {GCS_IP=13.213.62.184, timestamp=2025-04-10 05:20:58, systemid=3, lat=35.0728998, lon=129.0906313, alt=30.042, dist_traveled=null, wp_dist=188, dist_to_home=1.3462146055230347E7, vertical_speed=-0.012201956, ground_speed=25.389479, wind_vel=0.17062831, airspeed=24.953947, gps_hdop=1.21, roll=0.12, pitch=-2.38, yaw=33.63, ch3percent=65.60, ch9out=0, tot=0.0, toh=0.0, time_in_air=0.0, ch10out=0, ch11out=0, ch12out=0, battery_voltage=0, battery_current=-1, waypoints_count=0, ch3out=1656, waypoints=[], home_location={lat=0.0, lon=0.0}}
[2025-04-10 05:20:59] {GCS_IP=13.213.62.184, timestamp=2025-04-10 05:20:59, systemid=3, lat=35.0730905, lon=129.0907843, alt=30.035, dist_traveled=null, wp_dist=163, dist_to_home=1.3462149702088151E7, vertical_speed=0.0187904, ground_speed=25.388142, wind_vel=0.17757623, airspeed=24.959164, gps_hdop=1.21, roll=-0.29, pitch=-2.38, yaw=33.65, ch3percent=66.00, ch9out=0, tot=0.0, toh=0.0, time_in_air=0.0, ch10out=0, ch11out=0, ch12out=0, battery_voltage=0, battery_current=-1, waypoints_count=0, ch3out=1660, waypoints=[], home_location={lat=0.0, lon=0.0}}
[2025-04-10 05:21:00] {GCS_IP=13.213.62.184, timestamp=2025-04-10 05:21:00, systemid=3, lat=35.0732816, lon=129.0909374, alt=30.04, dist_traveled=null, wp_dist=137, dist_to_home=1.3462153338249853E7, vertical_speed=0.05399305, ground_speed=25.410135, wind_vel=0.18504786, airspeed=25.024832, gps_hdop=1.21, roll=0.18, pitch=-2.34, yaw=33.54, ch3percent=65.40, ch9out=0, tot=0.0, toh=0.0, time_in_air=0.0, ch10out=0, ch11out=0, ch12out=0, battery_voltage=0, battery_current=-1, waypoints_count=0, ch3out=1654, waypoints=[], home_location={lat=0.0, lon=0.0}}
[2025-04-10 05:21:01] {GCS_IP=13.213.62.184, timestamp=2025-04-10 05:21:01, systemid=3, lat=35.0734727, lon=129.0910903, alt=30.068, dist_traveled=null, wp_dist=112, dist_to_home=1.3462156957791448E7, vertical_speed=0.0278119, ground_speed=25.396477, wind_vel=0.19238317, airspeed=24.984646, gps_hdop=1.21, roll=-0.08, pitch=-2.41, yaw=33.52, ch3percent=65.40, ch9out=0, tot=0.0, toh=0.0, time_in_air=0.0, ch10out=0, ch11out=0, ch12out=0, battery_voltage=0, battery_current=-1, waypoints_count=0, ch3out=1654, waypoints=[], home_location={lat=0.0, lon=0.0}}
[2025-04-10 05:21:02] {GCS_IP=13.213.62.184, timestamp=2025-04-10 05:21:02, systemid=3, lat=35.0736641, lon=129.0912433, alt=30.081, dist_traveled=null, wp_dist=86, dist_to_home=1.3462160571340043E7, vertical_speed=-0.024295826, ground_speed=25.413378, wind_vel=0.19829434, airspeed=24.933474, gps_hdop=1.21, roll=0.14, pitch=-2.50, yaw=33.51, ch3percent=65.50, ch9out=0, tot=0.0, toh=0.0, time_in_air=0.0, ch10out=0, ch11out=0, ch12out=0, battery_voltage=0, battery_current=-1, waypoints_count=0, ch3out=1655, waypoints=[], home_location={lat=0.0, lon=0.0}}
[2025-04-10 05:21:03] {GCS_IP=13.213.62.184, timestamp=2025-04-10 05:21:03, systemid=3, lat=35.0738553, lon=129.091396, alt=30.084, dist_traveled=null, wp_dist=61, dist_to_home=1.346216416943004E7, vertical_speed=-0.005373523, ground_speed=25.415903, wind_vel=0.20507078, airspeed=24.956, gps_hdop=1.21, roll=0.26, pitch=-2.49, yaw=33.41, ch3percent=65.40, ch9out=0, tot=0.0, toh=0.0, time_in_air=0.0, ch10out=0, ch11out=0, ch12out=0, battery_voltage=0, battery_current=-1, waypoints_count=0, ch3out=1654, waypoints=[], home_location={lat=0.0, lon=0.0}}
[2025-04-10 05:21:04] {GCS_IP=13.213.62.184, timestamp=2025-04-10 05:21:04, systemid=3, lat=35.0740463, lon=129.09155, alt=30.09, dist_traveled=null, wp_dist=650, dist_to_home=1.3462167883997304E7, vertical_speed=-0.011223155, ground_speed=25.408634, wind_vel=0.20931104, airspeed=24.925331, gps_hdop=1.21, roll=44.67, pitch=-4.45, yaw=38.09, ch3percent=71.50, ch9out=0, tot=0.0, toh=0.0, time_in_air=0.0, ch10out=0, ch11out=0, ch12out=0, battery_voltage=0, battery_current=-1, waypoints_count=0, ch3out=1715, waypoints=[], home_location={lat=0.0, lon=0.0}}
[2025-04-10 05:21:05] {GCS_IP=13.213.62.184, timestamp=2025-04-10 05:21:05, systemid=3, lat=35.0741476, lon=129.09178, alt=30.591, dist_traveled=null, wp_dist=667, dist_to_home=1.3462182084690964E7, vertical_speed=2.2155154, ground_speed=23.934208, wind_vel=0.21582699, airspeed=24.267426, gps_hdop=1.21, roll=52.89, pitch=5.45, yaw=84.97, ch3percent=25.80, ch9out=0, tot=0.0, toh=0.0, time_in_air=0.0, ch10out=0, ch11out=0, ch12out=0, battery_voltage=0, battery_current=-1, waypoints_count=0, ch3out=1258, waypoints=[], home_location={lat=0.0, lon=0.0}}
[2025-04-10 05:21:06] {GCS_IP=13.213.62.184, timestamp=2025-04-10 05:21:06, systemid=3, lat=35.074134, lon=129.0920313, alt=30.459, dist_traveled=null, wp_dist=673, dist_to_home=1.3462203446426198E7, vertical_speed=-1.6501381, ground_speed=22.863777, wind_vel=0.21978441, airspeed=22.706882, gps_hdop=1.21, roll=54.72, pitch=-3.01, yaw=102.00, ch3percent=44.90, ch9out=0, tot=0.0, toh=0.0, time_in_air=0.0, ch10out=0, ch11out=0, ch12out=0, battery_voltage=0, battery_current=-1, waypoints_count=0, ch3out=1449, waypoints=[], home_location={lat=0.0, lon=0.0}}
[2025-04-10 05:21:07] {GCS_IP=13.213.62.184, timestamp=2025-04-10 05:21:07, systemid=3, lat=35.074036, lon=129.0922512, alt=28.732, dist_traveled=null, wp_dist=670, dist_to_home=1.3462226189018851E7, vertical_speed=-1.3843772, ground_speed=23.1898, wind_vel=0.21997474, airspeed=22.729342, gps_hdop=1.21, roll=55.38, pitch=-1.98, yaw=133.34, ch3percent=60.10, ch9out=0, tot=0.0, toh=0.0, time_in_air=0.0, ch10out=0, ch11out=0, ch12out=0, battery_voltage=0, battery_current=-1, waypoints_count=0, ch3out=1601, waypoints=[], home_location={lat=0.0, lon=0.0}}
[2025-04-10 05:21:08] {GCS_IP=13.213.62.184, timestamp=2025-04-10 05:21:08, systemid=3, lat=35.0738548, lon=129.0923738, alt=27.804, dist_traveled=null, wp_dist=656, dist_to_home=1.3462244821999855E7, vertical_speed=-0.48851687, ground_speed=23.695383, wind_vel=0.21607341, airspeed=23.194403, gps_hdop=1.21, roll=53.93, pitch=-0.12, yaw=164.88, ch3percent=65.20, ch9out=0, tot=0.0, toh=0.0, time_in_air=0.0, ch10out=0, ch11out=0, ch12out=0, battery_voltage=0, battery_current=-1, waypoints_count=0, ch3out=1652, waypoints=[], home_location={lat=0.0, lon=0.0}}
[2025-04-10 05:21:09] {GCS_IP=13.213.62.184, timestamp=2025-04-10 05:21:09, systemid=3, lat=35.0736419, lon=129.0923744, alt=27.339, dist_traveled=null, wp_dist=634, dist_to_home=1.3462254886060415E7, vertical_speed=-0.40783933, ground_speed=24.030827, wind_vel=0.20705743, airspeed=23.538496, gps_hdop=1.21, roll=48.03, pitch=-0.61, yaw=-170.38, ch3percent=61.70, ch9out=0, tot=0.0, toh=0.0, time_in_air=0.0, ch10out=0, ch11out=0, ch12out=0, battery_voltage=0, battery_current=-1, waypoints_count=0, ch3out=1617, waypoints=[], home_location={lat=0.0, lon=0.0}}
[2025-04-10 05:21:10] {GCS_IP=13.213.62.184, timestamp=2025-04-10 05:21:10, systemid=3, lat=35.0734419, lon=129.0922795, alt=26.816, dist_traveled=null, wp_dist=610, dist_to_home=1.3462256468350502E7, vertical_speed=-0.6667169, ground_speed=24.131155, wind_vel=0.1927491, airspeed=23.75535, gps_hdop=1.21, roll=35.17, pitch=-2.32, yaw=-153.41, ch3percent=58.10, ch9out=0, tot=0.0, toh=0.0, time_in_air=0.0, ch10out=0, ch11out=0, ch12out=0, battery_voltage=0, battery_current=-1, waypoints_count=0, ch3out=1581, waypoints=[], home_location={lat=0.0, lon=0.0}}
[2025-04-10 05:21:11] {GCS_IP=13.213.62.184, timestamp=2025-04-10 05:21:11, systemid=3, lat=35.0732626, lon=129.092129, alt=26.055, dist_traveled=null, wp_dist=587, dist_to_home=1.346225249206068E7, vertical_speed=-0.59777516, ground_speed=24.297102, wind_vel=0.17630109, airspeed=23.870838, gps_hdop=1.21, roll=16.04, pitch=-3.28, yaw=-143.22, ch3percent=60.50, ch9out=0, tot=0.0, toh=0.0, time_in_air=0.0, ch10out=0, ch11out=0, ch12out=0, battery_voltage=0, battery_current=-1, waypoints_count=0, ch3out=1605, waypoints=[], home_location={lat=0.0, lon=0.0}}
[2025-04-10 05:21:12] {GCS_IP=13.213.62.184, timestamp=2025-04-10 05:21:12, systemid=3, lat=35.0730948, lon=129.0919556, alt=25.565, dist_traveled=null, wp_dist=563, dist_to_home=1.3462246086370686E7, vertical_speed=-0.16252255, ground_speed=24.594007, wind_vel=0.16031316, airspeed=24.097986, gps_hdop=1.21, roll=-0.76, pitch=-2.61, yaw=-139.68, ch3percent=65.80, ch9out=0, tot=0.0, toh=0.0, time_in_air=0.0, ch10out=0, ch11out=0, ch12out=0, battery_voltage=0, battery_current=-1, waypoints_count=0, ch3out=1658, waypoints=[], home_location={lat=0.0, lon=0.0}}
[2025-04-10 05:21:13] {GCS_IP=13.213.62.184, timestamp=2025-04-10 05:21:13, systemid=3, lat=35.072924, lon=129.0917803, alt=25.652, dist_traveled=null, wp_dist=540, dist_to_home=1.3462239664993731E7, vertical_speed=0.3449193, ground_speed=24.867773, wind_vel=0.14530034, airspeed=24.334457, gps_hdop=1.21, roll=-9.54, pitch=-1.41, yaw=-141.21, ch3percent=69.20, ch9out=0, tot=0.0, toh=0.0, time_in_air=0.0, ch10out=0, ch11out=0, ch12out=0, battery_voltage=0, battery_current=-1, waypoints_count=0, ch3out=1692, waypoints=[], home_location={lat=0.0, lon=0.0}}
[2025-04-10 05:21:14] {GCS_IP=13.213.62.184, timestamp=2025-04-10 05:21:14, systemid=3, lat=35.0727435, lon=129.0916162, alt=26.119, dist_traveled=null, wp_dist=516, dist_to_home=1.3462234623314902E7, vertical_speed=0.5449007, ground_speed=25.071482, wind_vel=0.130898, airspeed=24.572529, gps_hdop=1.21, roll=-12.97, pitch=-0.97, yaw=-145.06, ch3percent=70.00, ch9out=0, tot=0.0, toh=0.0, time_in_air=0.0, ch10out=0, ch11out=0, ch12out=0, battery_voltage=0, battery_current=-1, waypoints_count=0, ch3out=1700, waypoints=[], home_location={lat=0.0, lon=0.0}}
[2025-04-10 05:21:15] {GCS_IP=13.213.62.184, timestamp=2025-04-10 05:21:15, systemid=3, lat=35.0725521, lon=129.0914689, alt=26.716, dist_traveled=null, wp_dist=491, dist_to_home=1.3462231479562998E7, vertical_speed=0.59794664, ground_speed=25.196169, wind_vel=0.11767678, airspeed=24.710531, gps_hdop=1.21, roll=-12.98, pitch=-0.83, yaw=-149.49, ch3percent=69.40, ch9out=0, tot=0.0, toh=0.0, time_in_air=0.0, ch10out=0, ch11out=0, ch12out=0, battery_voltage=0, battery_current=-1, waypoints_count=0, ch3out=1694, waypoints=[], home_location={lat=0.0, lon=0.0}}
[2025-04-10 05:21:16] {GCS_IP=13.213.62.184, timestamp=2025-04-10 05:21:16, systemid=3, lat=35.0723518, lon=129.0913402, alt=27.285, dist_traveled=null, wp_dist=466, dist_to_home=1.3462230288101899E7, vertical_speed=0.5220591, ground_speed=25.226309, wind_vel=0.10440695, airspeed=24.738981, gps_hdop=1.21, roll=-11.59, pitch=-1.05, yaw=-153.89, ch3percent=68.60, ch9out=0, tot=0.0, toh=0.0, time_in_air=0.0, ch10out=0, ch11out=0, ch12out=0, battery_voltage=0, battery_current=-1, waypoints_count=0, ch3out=1686, waypoints=[], home_location={lat=0.0, lon=0.0}}
[2025-04-10 05:21:17] {GCS_IP=13.213.62.184, timestamp=2025-04-10 05:21:17, systemid=3, lat=35.0721453, lon=129.0912287, alt=27.777, dist_traveled=null, wp_dist=441, dist_to_home=1.3462230806496965E7, vertical_speed=0.40412933, ground_speed=25.235744, wind_vel=0.093777046, airspeed=24.822807, gps_hdop=1.21, roll=-8.53, pitch=-1.30, yaw=-157.43, ch3percent=68.10, ch9out=0, tot=0.0, toh=0.0, time_in_air=0.0, ch10out=0, ch11out=0, ch12out=0, battery_voltage=0, battery_current=-1, waypoints_count=0, ch3out=1681, waypoints=[], home_location={lat=0.0, lon=0.0}}
[2025-04-10 05:21:18] {GCS_IP=13.213.62.184, timestamp=2025-04-10 05:21:18, systemid=3, lat=35.0719331, lon=129.0911295, alt=28.156, dist_traveled=null, wp_dist=416, dist_to_home=1.3462232607174395E7, vertical_speed=0.32070473, ground_speed=25.260733, wind_vel=0.08657316, airspeed=24.85631, gps_hdop=1.21, roll=-5.82, pitch=-1.62, yaw=-159.96, ch3percent=67.40, ch9out=0, tot=0.0, toh=0.0, time_in_air=0.0, ch10out=0, ch11out=0, ch12out=0, battery_voltage=0, battery_current=-1, waypoints_count=0, ch3out=1674, waypoints=[], home_location={lat=0.0, lon=0.0}}
[2025-04-10 05:21:19] {GCS_IP=13.213.62.184, timestamp=2025-04-10 05:21:19, systemid=3, lat=35.0717177, lon=129.091039, alt=28.51, dist_traveled=null, wp_dist=391, dist_to_home=1.3462235275686305E7, vertical_speed=0.27790377, ground_speed=25.292183, wind_vel=0.08305841, airspeed=24.850285, gps_hdop=1.21, roll=-3.37, pitch=-1.76, yaw=-161.62, ch3percent=66.90, ch9out=0, tot=0.0, toh=0.0, time_in_air=0.0, ch10out=0, ch11out=0, ch12out=0, battery_voltage=0, battery_current=-1, waypoints_count=0, ch3out=1669, waypoints=[], home_location={lat=0.0, lon=0.0}}
[2025-04-10 05:21:20] {GCS_IP=13.213.62.184, timestamp=2025-04-10 05:21:20, systemid=3, lat=35.0715004, lon=129.0909533, alt=28.812, dist_traveled=null, wp_dist=365, dist_to_home=1.3462238429286042E7, vertical_speed=0.25306764, ground_speed=25.3259, wind_vel=0.082566895, airspeed=24.875803, gps_hdop=1.21, roll=-1.17, pitch=-1.92, yaw=-162.39, ch3percent=66.60, ch9out=0, tot=0.0, toh=0.0, time_in_air=0.0, ch10out=0, ch11out=0, ch12out=0, battery_voltage=0, battery_current=-1, waypoints_count=0, ch3out=1666, waypoints=[], home_location={lat=0.0, lon=0.0}}
[2025-04-10 05:21:21] {GCS_IP=13.213.62.184, timestamp=2025-04-10 05:21:21, systemid=3, lat=35.0712831, lon=129.0908697, alt=29.039, dist_traveled=null, wp_dist=340, dist_to_home=1.3462241755959129E7, vertical_speed=0.19544575, ground_speed=25.34291, wind_vel=0.08447486, airspeed=24.836191, gps_hdop=1.21, roll=0.10, pitch=-1.97, yaw=-162.78, ch3percent=66.60, ch9out=0, tot=0.0, toh=0.0, time_in_air=0.0, ch10out=0, ch11out=0, ch12out=0, battery_voltage=0, battery_current=-1, waypoints_count=0, ch3out=1666, waypoints=[], home_location={lat=0.0, lon=0.0}}
[2025-04-10 05:21:22] {GCS_IP=13.213.62.184, timestamp=2025-04-10 05:21:22, systemid=3, lat=35.071066, lon=129.0907863, alt=29.219, dist_traveled=null, wp_dist=315, dist_to_home=1.3462245089619141E7, vertical_speed=0.14739041, ground_speed=25.360367, wind_vel=0.08796883, airspeed=24.84816, gps_hdop=1.21, roll=0.84, pitch=-2.09, yaw=-162.59, ch3percent=66.50, ch9out=0, tot=0.0, toh=0.0, time_in_air=0.0, ch10out=0, ch11out=0, ch12out=0, battery_voltage=0, battery_current=-1, waypoints_count=0, ch3out=1665, waypoints=[], home_location={lat=0.0, lon=0.0}}
[2025-04-10 05:21:23] {GCS_IP=13.213.62.184, timestamp=2025-04-10 05:21:23, systemid=3, lat=35.0708486, lon=129.0907013, alt=29.405, dist_traveled=null, wp_dist=289, dist_to_home=1.3462248305347452E7, vertical_speed=0.12593971, ground_speed=25.37972, wind_vel=0.092600174, airspeed=24.91514, gps_hdop=1.21, roll=1.24, pitch=-2.11, yaw=-162.29, ch3percent=66.20, ch9out=0, tot=0.0, toh=0.0, time_in_air=0.0, ch10out=0, ch11out=0, ch12out=0, battery_voltage=0, battery_current=-1, waypoints_count=0, ch3out=1662, waypoints=[], home_location={lat=0.0, lon=0.0}}
