[2025-04-10 03:27:46] {GCS_IP=13.213.62.184, timestamp=2025-04-10 03:27:46, systemid=3, lat=35.073569, lon=129.0923471, alt=27.183, dist_traveled=null, wp_dist=626, dist_to_home=1.3462256064034782E7, vertical_speed=-0.56596994, ground_speed=24.129744, wind_vel=0.0, airspeed=23.714626, gps_hdop=1.21, roll=42.74, pitch=-1.38, yaw=-161.67, ch3percent=59.90, ch9out=0, tot=0.0, toh=0.0, time_in_air=0.0, ch10out=0, ch11out=0, ch12out=0, battery_voltage=0, battery_current=-1, waypoints_count=0, ch3out=1599}
[2025-04-10 03:27:47] {GCS_IP=13.213.62.184, timestamp=2025-04-10 03:27:47, systemid=3, lat=35.0732837, lon=129.0921612, alt=26.074, dist_traveled=null, wp_dist=590, dist_to_home=1.3462254154778158E7, vertical_speed=-0.74361324, ground_speed=24.314648, wind_vel=0.17087936, airspeed=23.863455, gps_hdop=1.21, roll=21.40, pitch=-3.26, yaw=-145.87, ch3percent=59.90, ch9out=0, tot=0.0, toh=0.0, time_in_air=0.0, ch10out=0, ch11out=0, ch12out=0, battery_voltage=0, battery_current=-1, waypoints_count=0, ch3out=1599, waypoints=[], home_location={lat=0.0, lon=0.0}}
[2025-04-10 03:27:48] {GCS_IP=13.213.62.184, timestamp=2025-04-10 03:27:48, systemid=3, lat=35.073113, lon=129.0919918, alt=25.473, dist_traveled=null, wp_dist=567, dist_to_home=1.3462248215359012E7, vertical_speed=-0.2576666, ground_speed=24.583408, wind_vel=0.15643387, airspeed=24.061419, gps_hdop=1.21, roll=3.11, pitch=-2.74, yaw=-140.69, ch3percent=64.60, ch9out=0, tot=0.0, toh=0.0, time_in_air=0.0, ch10out=0, ch11out=0, ch12out=0, battery_voltage=0, battery_current=-1, waypoints_count=0, ch3out=1646, waypoints=[], home_location={lat=0.0, lon=0.0}}
[2025-04-10 03:27:49] {GCS_IP=13.213.62.184, timestamp=2025-04-10 03:27:49, systemid=3, lat=35.0729423, lon=129.0918157, alt=25.445, dist_traveled=null, wp_dist=543, dist_to_home=1.3462241723328797E7, vertical_speed=0.3075529, ground_speed=24.842672, wind_vel=0.14219461, airspeed=24.306376, gps_hdop=1.21, roll=-7.67, pitch=-1.53, yaw=-141.16, ch3percent=68.70, ch9out=0, tot=0.0, toh=0.0, time_in_air=0.0, ch10out=0, ch11out=0, ch12out=0, battery_voltage=0, battery_current=-1, waypoints_count=0, ch3out=1687, waypoints=[], home_location={lat=0.0, lon=0.0}}
[2025-04-10 03:27:50] {GCS_IP=13.213.62.184, timestamp=2025-04-10 03:27:50, systemid=3, lat=35.0727649, lon=129.0916497, alt=25.86, dist_traveled=null, wp_dist=519, dist_to_home=1.346223637917808E7, vertical_speed=0.56768984, ground_speed=25.017017, wind_vel=0.12780224, airspeed=24.526762, gps_hdop=1.21, roll=-12.07, pitch=-0.87, yaw=-144.48, ch3percent=70.10, ch9out=0, tot=0.0, toh=0.0, time_in_air=0.0, ch10out=0, ch11out=0, ch12out=0, battery_voltage=0, battery_current=-1, waypoints_count=0, ch3out=1701, waypoints=[], home_location={lat=0.0, lon=0.0}}
[2025-04-10 03:27:51] {GCS_IP=13.213.62.184, timestamp=2025-04-10 03:27:51, systemid=3, lat=35.0725758, lon=129.0914981, alt=26.483, dist_traveled=null, wp_dist=495, dist_to_home=1.3462232772676766E7, vertical_speed=0.61949617, ground_speed=25.126387, wind_vel=0.11475606, airspeed=24.62182, gps_hdop=1.21, roll=-13.13, pitch=-0.85, yaw=-148.76, ch3percent=70.10, ch9out=0, tot=0.0, toh=0.0, time_in_air=0.0, ch10out=0, ch11out=0, ch12out=0, battery_voltage=0, battery_current=-1, waypoints_count=0, ch3out=1701, waypoints=[], home_location={lat=0.0, lon=0.0}}
[2025-04-10 03:27:52] {GCS_IP=13.213.62.184, timestamp=2025-04-10 03:27:52, systemid=3, lat=35.0723784, lon=129.0913649, alt=27.138, dist_traveled=null, wp_dist=470, dist_to_home=1.3462231073750619E7, vertical_speed=0.5412563, ground_speed=25.223164, wind_vel=0.10332829, airspeed=24.763805, gps_hdop=1.21, roll=-11.73, pitch=-1.17, yaw=-153.06, ch3percent=68.70, ch9out=0, tot=0.0, toh=0.0, time_in_air=0.0, ch10out=0, ch11out=0, ch12out=0, battery_voltage=0, battery_current=-1, waypoints_count=0, ch3out=1687, waypoints=[], home_location={lat=0.0, lon=0.0}}
[2025-04-10 03:27:53] {GCS_IP=13.213.62.184, timestamp=2025-04-10 03:27:53, systemid=3, lat=35.0721723, lon=129.0912478, alt=27.727, dist_traveled=null, wp_dist=445, dist_to_home=1.3462231111560253E7, vertical_speed=0.42736676, ground_speed=25.234531, wind_vel=0.09395462, airspeed=24.79025, gps_hdop=1.21, roll=-9.01, pitch=-1.51, yaw=-156.67, ch3percent=67.70, ch9out=0, tot=0.0, toh=0.0, time_in_air=0.0, ch10out=0, ch11out=0, ch12out=0, battery_voltage=0, battery_current=-1, waypoints_count=0, ch3out=1677, waypoints=[], home_location={lat=0.0, lon=0.0}}
[2025-04-10 03:27:54] {GCS_IP=13.213.62.184, timestamp=2025-04-10 03:27:54, systemid=3, lat=35.0719629, lon=129.0911448, alt=28.206, dist_traveled=null, wp_dist=420, dist_to_home=1.3462232467195956E7, vertical_speed=0.34088984, ground_speed=25.198345, wind_vel=0.087023, airspeed=24.738974, gps_hdop=1.21, roll=-6.91, pitch=-1.72, yaw=-159.54, ch3percent=67.00, ch9out=0, tot=0.0, toh=0.0, time_in_air=0.0, ch10out=0, ch11out=0, ch12out=0, battery_voltage=0, battery_current=-1, waypoints_count=0, ch3out=1670, waypoints=[], home_location={lat=0.0, lon=0.0}}
[2025-04-10 03:27:55] {GCS_IP=13.213.62.184, timestamp=2025-04-10 03:27:55, systemid=3, lat=35.0717503, lon=129.0910519, alt=28.594, dist_traveled=null, wp_dist=395, dist_to_home=1.3462234806113338E7, vertical_speed=0.30138198, ground_speed=25.19491, wind_vel=0.08471649, airspeed=24.78318, gps_hdop=1.21, roll=-4.15, pitch=-1.86, yaw=-161.56, ch3percent=66.50, ch9out=0, tot=0.0, toh=0.0, time_in_air=0.0, ch10out=0, ch11out=0, ch12out=0, battery_voltage=0, battery_current=-1, waypoints_count=0, ch3out=1665, waypoints=[], home_location={lat=0.0, lon=0.0}}
[2025-04-10 03:27:56] {GCS_IP=13.213.62.184, timestamp=2025-04-10 03:27:56, systemid=3, lat=35.0715353, lon=129.0909647, alt=28.906, dist_traveled=null, wp_dist=370, dist_to_home=1.346223772785301E7, vertical_speed=0.25714186, ground_speed=25.23338, wind_vel=0.08619929, airspeed=24.735558, gps_hdop=1.21, roll=-2.12, pitch=-2.03, yaw=-162.65, ch3percent=66.40, ch9out=0, tot=0.0, toh=0.0, time_in_air=0.0, ch10out=0, ch11out=0, ch12out=0, battery_voltage=0, battery_current=-1, waypoints_count=0, ch3out=1664, waypoints=[], home_location={lat=0.0, lon=0.0}}
[2025-04-10 03:27:57] {GCS_IP=13.213.62.184, timestamp=2025-04-10 03:27:57, systemid=3, lat=35.0713193, lon=129.0908804, alt=29.176, dist_traveled=null, wp_dist=344, dist_to_home=1.3462240935671851E7, vertical_speed=0.21316357, ground_speed=25.273512, wind_vel=0.090347216, airspeed=24.794626, gps_hdop=1.21, roll=-0.70, pitch=-2.18, yaw=-163.12, ch3percent=66.00, ch9out=0, tot=0.0, toh=0.0, time_in_air=0.0, ch10out=0, ch11out=0, ch12out=0, battery_voltage=0, battery_current=-1, waypoints_count=0, ch3out=1660, waypoints=[], home_location={lat=0.0, lon=0.0}}
[2025-04-10 03:27:58] {GCS_IP=13.213.62.184, timestamp=2025-04-10 03:27:58, systemid=3, lat=35.0711026, lon=129.0907967, alt=29.419, dist_traveled=null, wp_dist=319, dist_to_home=1.3462244225794353E7, vertical_speed=0.15409172, ground_speed=25.293867, wind_vel=0.095992185, airspeed=24.809223, gps_hdop=1.21, roll=0.27, pitch=-2.39, yaw=-163.26, ch3percent=65.40, ch9out=0, tot=0.0, toh=0.0, time_in_air=0.0, ch10out=0, ch11out=0, ch12out=0, battery_voltage=0, battery_current=-1, waypoints_count=0, ch3out=1654, waypoints=[], home_location={lat=0.0, lon=0.0}}
[2025-04-10 03:27:59] {GCS_IP=13.213.62.184, timestamp=2025-04-10 03:27:59, systemid=3, lat=35.0708859, lon=129.0907124, alt=29.58, dist_traveled=null, wp_dist=294, dist_to_home=1.3462247466339506E7, vertical_speed=0.110775456, ground_speed=25.333494, wind_vel=0.10173507, airspeed=24.74119, gps_hdop=1.21, roll=0.72, pitch=-2.48, yaw=-163.12, ch3percent=65.70, ch9out=0, tot=0.0, toh=0.0, time_in_air=0.0, ch10out=0, ch11out=0, ch12out=0, battery_voltage=0, battery_current=-1, waypoints_count=0, ch3out=1657, waypoints=[], home_location={lat=0.0, lon=0.0}}
[2025-04-10 03:28:00] {GCS_IP=13.213.62.184, timestamp=2025-04-10 03:28:00, systemid=3, lat=35.0706694, lon=129.0906267, alt=29.722, dist_traveled=null, wp_dist=269, dist_to_home=1.3462250581928222E7, vertical_speed=0.13436702, ground_speed=25.384535, wind_vel=0.107278496, airspeed=24.781086, gps_hdop=1.21, roll=1.03, pitch=-2.38, yaw=-162.70, ch3percent=65.60, ch9out=0, tot=0.0, toh=0.0, time_in_air=0.0, ch10out=0, ch11out=0, ch12out=0, battery_voltage=0, battery_current=-1, waypoints_count=0, ch3out=1656, waypoints=[], home_location={lat=0.0, lon=0.0}}
[2025-04-10 03:28:01] {GCS_IP=13.213.62.184, timestamp=2025-04-10 03:28:01, systemid=3, lat=35.0704537, lon=129.0905392, alt=29.864, dist_traveled=null, wp_dist=243, dist_to_home=1.3462253511353295E7, vertical_speed=0.04528826, ground_speed=25.382992, wind_vel=0.11334189, airspeed=24.794115, gps_hdop=1.21, roll=0.82, pitch=-2.62, yaw=-162.36, ch3percent=65.30, ch9out=0, tot=0.0, toh=0.0, time_in_air=0.0, ch10out=0, ch11out=0, ch12out=0, battery_voltage=0, battery_current=-1, waypoints_count=0, ch3out=1653, waypoints=[], home_location={lat=0.0, lon=0.0}}
[2025-04-10 03:28:02] {GCS_IP=13.213.62.184, timestamp=2025-04-10 03:28:02, systemid=3, lat=35.0702386, lon=129.0904505, alt=29.935, dist_traveled=null, wp_dist=218, dist_to_home=1.3462256313499484E7, vertical_speed=0.010294946, ground_speed=25.382687, wind_vel=0.11947281, airspeed=24.77928, gps_hdop=1.21, roll=0.64, pitch=-2.59, yaw=-161.99, ch3percent=65.50, ch9out=0, tot=0.0, toh=0.0, time_in_air=0.0, ch10out=0, ch11out=0, ch12out=0, battery_voltage=0, battery_current=-1, waypoints_count=0, ch3out=1655, waypoints=[], home_location={lat=0.0, lon=0.0}}
[2025-04-10 03:28:03] {GCS_IP=13.213.62.184, timestamp=2025-04-10 03:28:03, systemid=3, lat=35.0700239, lon=129.0903604, alt=29.996, dist_traveled=null, wp_dist=193, dist_to_home=1.3462258981279502E7, vertical_speed=0.02837266, ground_speed=25.379417, wind_vel=0.1258149, airspeed=24.812557, gps_hdop=1.21, roll=0.59, pitch=-2.56, yaw=-161.79, ch3percent=65.60, ch9out=0, tot=0.0, toh=0.0, time_in_air=0.0, ch10out=0, ch11out=0, ch12out=0, battery_voltage=0, battery_current=-1, waypoints_count=0, ch3out=1656, waypoints=[], home_location={lat=0.0, lon=0.0}}
[2025-04-10 03:28:04] {GCS_IP=13.213.62.184, timestamp=2025-04-10 03:28:04, systemid=3, lat=35.069809, lon=129.0902693, alt=30.024, dist_traveled=null, wp_dist=167, dist_to_home=1.346226157589808E7, vertical_speed=-0.02425229, ground_speed=25.391813, wind_vel=0.13231821, airspeed=24.843096, gps_hdop=1.21, roll=0.23, pitch=-2.65, yaw=-161.58, ch3percent=65.60, ch9out=0, tot=0.0, toh=0.0, time_in_air=0.0, ch10out=0, ch11out=0, ch12out=0, battery_voltage=0, battery_current=-1, waypoints_count=0, ch3out=1656, waypoints=[], home_location={lat=0.0, lon=0.0}}
[2025-04-10 03:28:05] {GCS_IP=13.213.62.184, timestamp=2025-04-10 03:28:05, systemid=3, lat=35.0695937, lon=129.0901773, alt=30.018, dist_traveled=null, wp_dist=142, dist_to_home=1.3462264115007002E7, vertical_speed=0.020159446, ground_speed=25.429146, wind_vel=0.13894667, airspeed=24.889776, gps_hdop=1.21, roll=0.08, pitch=-2.47, yaw=-161.47, ch3percent=65.50, ch9out=0, tot=0.0, toh=0.0, time_in_air=0.0, ch10out=0, ch11out=0, ch12out=0, battery_voltage=0, battery_current=-1, waypoints_count=0, ch3out=1655, waypoints=[], home_location={lat=0.0, lon=0.0}}
[2025-04-10 03:28:06] {GCS_IP=13.213.62.184, timestamp=2025-04-10 03:28:06, systemid=3, lat=35.0693781, lon=129.0900851, alt=30.008, dist_traveled=null, wp_dist=117, dist_to_home=1.3462266651628532E7, vertical_speed=-0.013105016, ground_speed=25.443457, wind_vel=0.14615464, airspeed=24.913822, gps_hdop=1.21, roll=-0.13, pitch=-2.53, yaw=-161.51, ch3percent=65.50, ch9out=0, tot=0.0, toh=0.0, time_in_air=0.0, ch10out=0, ch11out=0, ch12out=0, battery_voltage=0, battery_current=-1, waypoints_count=0, ch3out=1655, waypoints=[], home_location={lat=0.0, lon=0.0}}
[2025-04-10 03:28:07] {GCS_IP=13.213.62.184, timestamp=2025-04-10 03:28:07, systemid=3, lat=35.069164, lon=129.0899938, alt=30.015, dist_traveled=null, wp_dist=91, dist_to_home=1.3462269191819753E7, vertical_speed=-0.014887057, ground_speed=25.397406, wind_vel=0.15462357, airspeed=24.923994, gps_hdop=1.21, roll=0.02, pitch=-2.55, yaw=-161.53, ch3percent=65.70, ch9out=0, tot=0.0, toh=0.0, time_in_air=0.0, ch10out=0, ch11out=0, ch12out=0, battery_voltage=0, battery_current=-1, waypoints_count=0, ch3out=1657, waypoints=[], home_location={lat=0.0, lon=0.0}}
[2025-04-10 03:28:08] {GCS_IP=13.213.62.184, timestamp=2025-04-10 03:28:08, systemid=3, lat=35.0689489, lon=129.089902, alt=29.997, dist_traveled=null, wp_dist=66, dist_to_home=1.3462271737705914E7, vertical_speed=0.019728033, ground_speed=25.411036, wind_vel=0.16306956, airspeed=24.971548, gps_hdop=1.21, roll=-0.17, pitch=-2.49, yaw=-161.45, ch3percent=65.50, ch9out=0, tot=0.0, toh=0.0, time_in_air=0.0, ch10out=0, ch11out=0, ch12out=0, battery_voltage=0, battery_current=-1, waypoints_count=0, ch3out=1655, waypoints=[], home_location={lat=0.0, lon=0.0}}
[2025-04-10 03:28:09] {GCS_IP=13.213.62.184, timestamp=2025-04-10 03:28:09, systemid=3, lat=35.0687331, lon=129.0898099, alt=30.015, dist_traveled=null, wp_dist=41, dist_to_home=1.3462274291669887E7, vertical_speed=-0.028639497, ground_speed=25.413925, wind_vel=0.1705483, airspeed=24.916956, gps_hdop=1.21, roll=-0.24, pitch=-2.65, yaw=-161.47, ch3percent=65.90, ch9out=0, tot=0.0, toh=0.0, time_in_air=0.0, ch10out=0, ch11out=0, ch12out=0, battery_voltage=0, battery_current=-1, waypoints_count=0, ch3out=1659, waypoints=[], home_location={lat=0.0, lon=0.0}}
[2025-04-10 03:28:10] {GCS_IP=13.213.62.184, timestamp=2025-04-10 03:28:10, systemid=3, lat=35.0685175, lon=129.0897157, alt=30.003, dist_traveled=null, wp_dist=269, dist_to_home=1.3462276662940787E7, vertical_speed=-0.11303944, ground_speed=25.49781, wind_vel=0.17538777, airspeed=24.951246, gps_hdop=1.21, roll=38.49, pitch=-2.96, yaw=-158.18, ch3percent=71.90, ch9out=0, tot=0.0, toh=0.0, time_in_air=0.0, ch10out=0, ch11out=0, ch12out=0, battery_voltage=0, battery_current=-1, waypoints_count=0, ch3out=1719, waypoints=[], home_location={lat=0.0, lon=0.0}}
[2025-04-10 03:28:11] {GCS_IP=13.213.62.184, timestamp=2025-04-10 03:28:11, systemid=3, lat=35.0683225, lon=129.0895665, alt=30.53, dist_traveled=null, wp_dist=246, dist_to_home=1.3462273529524017E7, vertical_speed=0.34731364, ground_speed=25.68788, wind_vel=0.17916721, airspeed=25.110909, gps_hdop=1.21, roll=23.22, pitch=-1.84, yaw=-145.03, ch3percent=64.50, ch9out=0, tot=0.0, toh=0.0, time_in_air=0.0, ch10out=0, ch11out=0, ch12out=0, battery_voltage=0, battery_current=-1, waypoints_count=0, ch3out=1645, waypoints=[], home_location={lat=0.0, lon=0.0}}
[2025-04-10 03:28:12] {GCS_IP=13.213.62.184, timestamp=2025-04-10 03:28:12, systemid=3, lat=35.0681508, lon=129.0893812, alt=30.438, dist_traveled=null, wp_dist=221, dist_to_home=1.3462266323068185E7, vertical_speed=-0.0707342, ground_speed=25.594711, wind_vel=0.18085858, airspeed=25.072384, gps_hdop=1.21, roll=22.59, pitch=-1.98, yaw=-136.41, ch3percent=65.00, ch9out=0, tot=0.0, toh=0.0, time_in_air=0.0, ch10out=0, ch11out=0, ch12out=0, battery_voltage=0, battery_current=-1, waypoints_count=0, ch3out=1650, waypoints=[], home_location={lat=0.0, lon=0.0}}
[2025-04-10 03:28:13] {GCS_IP=13.213.62.184, timestamp=2025-04-10 03:28:13, systemid=3, lat=35.0680019, lon=129.089171, alt=30.266, dist_traveled=null, wp_dist=196, dist_to_home=1.346225599073542E7, vertical_speed=-0.21504325, ground_speed=25.475868, wind_vel=0.18190312, airspeed=25.007973, gps_hdop=1.21, roll=15.70, pitch=-2.63, yaw=-129.57, ch3percent=64.20, ch9out=0, tot=0.0, toh=0.0, time_in_air=0.0, ch10out=0, ch11out=0, ch12out=0, battery_voltage=0, battery_current=-1, waypoints_count=0, ch3out=1642, waypoints=[], home_location={lat=0.0, lon=0.0}}
[2025-04-10 03:28:14] {GCS_IP=13.213.62.184, timestamp=2025-04-10 03:28:14, systemid=3, lat=35.0678683, lon=129.0889444, alt=30.019, dist_traveled=null, wp_dist=170, dist_to_home=1.3462243586236069E7, vertical_speed=-0.19887495, ground_speed=25.45841, wind_vel=0.18228416, airspeed=24.993444, gps_hdop=1.21, roll=8.71, pitch=-2.85, yaw=-125.14, ch3percent=64.70, ch9out=0, tot=0.0, toh=0.0, time_in_air=0.0, ch10out=0, ch11out=0, ch12out=0, battery_voltage=0, battery_current=-1, waypoints_count=0, ch3out=1647, waypoints=[], home_location={lat=0.0, lon=0.0}}
[2025-04-10 03:28:15] {GCS_IP=13.213.62.184, timestamp=2025-04-10 03:28:15, systemid=3, lat=35.0677439, lon=129.0887094, alt=29.8, dist_traveled=null, wp_dist=145, dist_to_home=1.3462230056204762E7, vertical_speed=-0.09201605, ground_speed=25.474024, wind_vel=0.1822361, airspeed=25.013176, gps_hdop=1.21, roll=3.37, pitch=-2.61, yaw=-122.81, ch3percent=65.20, ch9out=0, tot=0.0, toh=0.0, time_in_air=0.0, ch10out=0, ch11out=0, ch12out=0, battery_voltage=0, battery_current=-1, waypoints_count=0, ch3out=1652, waypoints=[], home_location={lat=0.0, lon=0.0}}
[2025-04-10 03:28:16] {GCS_IP=13.213.62.184, timestamp=2025-04-10 03:28:16, systemid=3, lat=35.0676232, lon=129.0884709, alt=29.73, dist_traveled=null, wp_dist=119, dist_to_home=1.346221606340156E7, vertical_speed=-0.020232946, ground_speed=25.4969, wind_vel=0.18252468, airspeed=25.016533, gps_hdop=1.21, roll=-0.25, pitch=-2.56, yaw=-122.10, ch3percent=65.70, ch9out=0, tot=0.0, toh=0.0, time_in_air=0.0, ch10out=0, ch11out=0, ch12out=0, battery_voltage=0, battery_current=-1, waypoints_count=0, ch3out=1657, waypoints=[], home_location={lat=0.0, lon=0.0}}
[2025-04-10 03:28:17] {GCS_IP=13.213.62.184, timestamp=2025-04-10 03:28:17, systemid=3, lat=35.0675025, lon=129.0882324, alt=29.721, dist_traveled=null, wp_dist=94, dist_to_home=1.3462202070475154E7, vertical_speed=0.041835207, ground_speed=25.510218, wind_vel=0.18337414, airspeed=24.970154, gps_hdop=1.21, roll=-2.04, pitch=-2.40, yaw=-122.32, ch3percent=66.20, ch9out=0, tot=0.0, toh=0.0, time_in_air=0.0, ch10out=0, ch11out=0, ch12out=0, battery_voltage=0, battery_current=-1, waypoints_count=0, ch3out=1662, waypoints=[], home_location={lat=0.0, lon=0.0}}
[2025-04-10 03:28:18] {GCS_IP=13.213.62.184, timestamp=2025-04-10 03:28:18, systemid=3, lat=35.0673796, lon=129.0879959, alt=29.751, dist_traveled=null, wp_dist=68, dist_to_home=1.346218834582568E7, vertical_speed=0.03237113, ground_speed=25.526733, wind_vel=0.18524924, airspeed=25.056868, gps_hdop=1.21, roll=-2.84, pitch=-2.39, yaw=-123.20, ch3percent=66.00, ch9out=0, tot=0.0, toh=0.0, time_in_air=0.0, ch10out=0, ch11out=0, ch12out=0, battery_voltage=0, battery_current=-1, waypoints_count=0, ch3out=1660, waypoints=[], home_location={lat=0.0, lon=0.0}}
[2025-04-10 03:28:19] {GCS_IP=13.213.62.184, timestamp=2025-04-10 03:28:19, systemid=3, lat=35.0672543, lon=129.0877636, alt=29.848, dist_traveled=null, wp_dist=43, dist_to_home=1.3462175080293247E7, vertical_speed=0.075588286, ground_speed=25.443792, wind_vel=0.18878928, airspeed=25.015877, gps_hdop=1.21, roll=-2.79, pitch=-2.29, yaw=-124.14, ch3percent=65.50, ch9out=0, tot=0.0, toh=0.0, time_in_air=0.0, ch10out=0, ch11out=0, ch12out=0, battery_voltage=0, battery_current=-1, waypoints_count=0, ch3out=1655, waypoints=[], home_location={lat=0.0, lon=0.0}}
[2025-04-10 03:28:20] {GCS_IP=13.213.62.184, timestamp=2025-04-10 03:28:20, systemid=3, lat=35.0671256, lon=129.087533, alt=29.901, dist_traveled=null, wp_dist=18, dist_to_home=1.3462162114726264E7, vertical_speed=-0.020307567, ground_speed=25.41831, wind_vel=0.19286026, airspeed=25.018517, gps_hdop=1.21, roll=-2.63, pitch=-2.55, yaw=-125.09, ch3percent=65.50, ch9out=0, tot=0.0, toh=0.0, time_in_air=0.0, ch10out=0, ch11out=0, ch12out=0, battery_voltage=0, battery_current=-1, waypoints_count=0, ch3out=1655, waypoints=[], home_location={lat=0.0, lon=0.0}}
[2025-04-10 03:28:21] {GCS_IP=13.213.62.184, timestamp=2025-04-10 03:28:21, systemid=3, lat=35.066994, lon=129.0873046, alt=29.928, dist_traveled=null, wp_dist=80, dist_to_home=1.3462149466844792E7, vertical_speed=0.03274971, ground_speed=25.437008, wind_vel=0.19678302, airspeed=24.979797, gps_hdop=1.21, roll=-1.90, pitch=-2.48, yaw=-125.90, ch3percent=65.60, ch9out=0, tot=0.0, toh=0.0, time_in_air=0.0, ch10out=0, ch11out=0, ch12out=0, battery_voltage=0, battery_current=-1, waypoints_count=0, ch3out=1656, waypoints=[], home_location={lat=0.0, lon=0.0}}
[2025-04-10 03:28:22] {GCS_IP=13.213.62.184, timestamp=2025-04-10 03:28:22, systemid=3, lat=35.0668721, lon=129.0870668, alt=29.889, dist_traveled=null, wp_dist=101, dist_to_home=1.3462135587458886E7, vertical_speed=0.1705997, ground_speed=25.792448, wind_vel=0.19921486, airspeed=25.065779, gps_hdop=1.21, roll=54.47, pitch=3.03, yaw=-111.96, ch3percent=98.00, ch9out=0, tot=0.0, toh=0.0, time_in_air=0.0, ch10out=0, ch11out=0, ch12out=0, battery_voltage=0, battery_current=-1, waypoints_count=0, ch3out=1980, waypoints=[], home_location={lat=0.0, lon=0.0}}
[2025-04-10 03:28:23] {GCS_IP=13.213.62.184, timestamp=2025-04-10 03:28:23, systemid=3, lat=35.0668342, lon=129.0867898, alt=31.175, dist_traveled=null, wp_dist=79, dist_to_home=1.3462114524980625E7, vertical_speed=-0.12655658, ground_speed=25.628593, wind_vel=0.20120852, airspeed=25.120949, gps_hdop=1.21, roll=38.66, pitch=-2.00, yaw=-96.86, ch3percent=64.70, ch9out=0, tot=0.0, toh=0.0, time_in_air=0.0, ch10out=0, ch11out=0, ch12out=0, battery_voltage=0, battery_current=-1, waypoints_count=0, ch3out=1647, waypoints=[], home_location={lat=0.0, lon=0.0}}
[2025-04-10 03:28:24] {GCS_IP=13.213.62.184, timestamp=2025-04-10 03:28:24, systemid=3, lat=35.0668501, lon=129.0865108, alt=31.069, dist_traveled=null, wp_dist=957, dist_to_home=1.3462090767585857E7, vertical_speed=-0.1801215, ground_speed=25.687971, wind_vel=0.20212926, airspeed=25.098688, gps_hdop=1.21, roll=54.16, pitch=-1.36, yaw=-77.97, ch3percent=78.70, ch9out=0, tot=0.0, toh=0.0, time_in_air=0.0, ch10out=0, ch11out=0, ch12out=0, battery_voltage=0, battery_current=-1, waypoints_count=0, ch3out=1787, waypoints=[], home_location={lat=0.0, lon=0.0}}
[2025-04-10 03:28:25] {GCS_IP=13.213.62.184, timestamp=2025-04-10 03:28:25, systemid=3, lat=35.0669728, lon=129.0862751, alt=31.74, dist_traveled=null, wp_dist=958, dist_to_home=1.3462065559051502E7, vertical_speed=1.8726325, ground_speed=26.084816, wind_vel=0.20002526, airspeed=25.7223, gps_hdop=1.21, roll=54.28, pitch=4.44, yaw=-41.88, ch3percent=74.00, ch9out=0, tot=0.0, toh=0.0, time_in_air=0.0, ch10out=0, ch11out=0, ch12out=0, battery_voltage=0, battery_current=-1, waypoints_count=0, ch3out=1740, waypoints=[], home_location={lat=0.0, lon=0.0}}
[2025-04-10 03:28:26] {GCS_IP=13.213.62.184, timestamp=2025-04-10 03:28:26, systemid=3, lat=35.067173, lon=129.0861325, alt=32.55, dist_traveled=null, wp_dist=946, dist_to_home=1.3462044384340227E7, vertical_speed=-0.04557746, ground_speed=25.784132, wind_vel=0.19259724, airspeed=25.437181, gps_hdop=1.21, roll=52.73, pitch=0.01, yaw=-22.94, ch3percent=65.40, ch9out=0, tot=0.0, toh=0.0, time_in_air=0.0, ch10out=0, ch11out=0, ch12out=0, battery_voltage=0, battery_current=-1, waypoints_count=0, ch3out=1654, waypoints=[], home_location={lat=0.0, lon=0.0}}
[2025-04-10 03:28:27] {GCS_IP=13.213.62.184, timestamp=2025-04-10 03:28:27, systemid=3, lat=35.0673998, lon=129.0860876, alt=32.235, dist_traveled=null, wp_dist=928, dist_to_home=1.3462030016297018E7, vertical_speed=-0.6330462, ground_speed=25.526289, wind_vel=0.18375759, airspeed=25.151556, gps_hdop=1.21, roll=47.24, pitch=-1.56, yaw=3.60, ch3percent=60.80, ch9out=0, tot=0.0, toh=0.0, time_in_air=0.0, ch10out=0, ch11out=0, ch12out=0, battery_voltage=0, battery_current=-1, waypoints_count=0, ch3out=1608, waypoints=[], home_location={lat=0.0, lon=0.0}}
[2025-04-10 03:28:28] {GCS_IP=13.213.62.184, timestamp=2025-04-10 03:28:28, systemid=3, lat=35.0676243, lon=129.0861398, alt=31.438, dist_traveled=null, wp_dist=904, dist_to_home=1.3462023764349036E7, vertical_speed=-0.97141474, ground_speed=25.349531, wind_vel=0.17257465, airspeed=24.961058, gps_hdop=1.21, roll=38.99, pitch=-2.82, yaw=20.54, ch3percent=57.90, ch9out=0, tot=0.0, toh=0.0, time_in_air=0.0, ch10out=0, ch11out=0, ch12out=0, battery_voltage=0, battery_current=-1, waypoints_count=0, ch3out=1579, waypoints=[], home_location={lat=0.0, lon=0.0}}
[2025-04-10 03:28:29] {GCS_IP=13.213.62.184, timestamp=2025-04-10 03:28:29, systemid=3, lat=35.0678264, lon=129.0862638, alt=30.398, dist_traveled=null, wp_dist=880, dist_to_home=1.3462024487085884E7, vertical_speed=-1.0802044, ground_speed=25.200605, wind_vel=0.15861692, airspeed=24.811571, gps_hdop=1.21, roll=26.93, pitch=-3.83, yaw=32.93, ch3percent=57.70, ch9out=0, tot=0.0, toh=0.0, time_in_air=0.0, ch10out=0, ch11out=0, ch12out=0, battery_voltage=0, battery_current=-1, waypoints_count=0, ch3out=1577, waypoints=[], home_location={lat=0.0, lon=0.0}}
[2025-04-10 03:28:30] {GCS_IP=13.213.62.184, timestamp=2025-04-10 03:28:30, systemid=3, lat=35.0680057, lon=129.0864315, alt=29.321, dist_traveled=null, wp_dist=854, dist_to_home=1.3462029885845067E7, vertical_speed=-0.7870948, ground_speed=25.241436, wind_vel=0.14295468, airspeed=24.82391, gps_hdop=1.21, roll=13.28, pitch=-3.79, yaw=40.66, ch3percent=60.20, ch9out=0, tot=0.0, toh=0.0, time_in_air=0.0, ch10out=0, ch11out=0, ch12out=0, battery_voltage=0, battery_current=-1, waypoints_count=0, ch3out=1602, waypoints=[], home_location={lat=0.0, lon=0.0}}
[2025-04-10 03:28:31] {GCS_IP=13.213.62.184, timestamp=2025-04-10 03:28:31, systemid=3, lat=35.0681716, lon=129.0866217, alt=28.561, dist_traveled=null, wp_dist=829, dist_to_home=1.3462037770199787E7, vertical_speed=-0.33916047, ground_speed=25.333265, wind_vel=0.12746759, airspeed=24.833977, gps_hdop=1.21, roll=2.52, pitch=-3.05, yaw=43.89, ch3percent=63.70, ch9out=0, tot=0.0, toh=0.0, time_in_air=0.0, ch10out=0, ch11out=0, ch12out=0, battery_voltage=0, battery_current=-1, waypoints_count=0, ch3out=1637, waypoints=[], home_location={lat=0.0, lon=0.0}}
[2025-04-10 03:28:32] {GCS_IP=13.213.62.184, timestamp=2025-04-10 03:28:32, systemid=3, lat=35.0683335, lon=129.0868184, alt=28.26, dist_traveled=null, wp_dist=804, dist_to_home=1.3462046378580898E7, vertical_speed=-0.022547467, ground_speed=25.437614, wind_vel=0.11369188, airspeed=24.93076, gps_hdop=1.21, roll=-3.98, pitch=-2.40, yaw=44.00, ch3percent=66.50, ch9out=0, tot=0.0, toh=0.0, time_in_air=0.0, ch10out=0, ch11out=0, ch12out=0, battery_voltage=0, battery_current=-1, waypoints_count=0, ch3out=1665, waypoints=[], home_location={lat=0.0, lon=0.0}}
[2025-04-10 03:28:33] {GCS_IP=13.213.62.184, timestamp=2025-04-10 03:28:33, systemid=3, lat=35.0684982, lon=129.0870126, alt=28.287, dist_traveled=null, wp_dist=779, dist_to_home=1.3462054648980614E7, vertical_speed=0.18642312, ground_speed=25.515493, wind_vel=0.100917265, airspeed=25.013569, gps_hdop=1.21, roll=-6.89, pitch=-1.94, yaw=42.30, ch3percent=67.50, ch9out=0, tot=0.0, toh=0.0, time_in_air=0.0, ch10out=0, ch11out=0, ch12out=0, battery_voltage=0, battery_current=-1, waypoints_count=0, ch3out=1675, waypoints=[], home_location={lat=0.0, lon=0.0}}
[2025-04-10 03:28:34] {GCS_IP=13.213.62.184, timestamp=2025-04-10 03:28:34, systemid=3, lat=35.068669, lon=129.0871997, alt=28.527, dist_traveled=null, wp_dist=754, dist_to_home=1.3462062046850396E7, vertical_speed=0.32020596, ground_speed=25.461664, wind_vel=0.08682208, airspeed=25.01689, gps_hdop=1.21, roll=-7.24, pitch=-1.61, yaw=39.91, ch3percent=67.30, ch9out=0, tot=0.0, toh=0.0, time_in_air=0.0, ch10out=0, ch11out=0, ch12out=0, battery_voltage=0, battery_current=-1, waypoints_count=0, ch3out=1673, waypoints=[], home_location={lat=0.0, lon=0.0}}
[2025-04-10 03:28:35] {GCS_IP=13.213.62.184, timestamp=2025-04-10 03:28:35, systemid=3, lat=35.0688443, lon=129.0873759, alt=28.841, dist_traveled=null, wp_dist=729, dist_to_home=1.3462068334051441E7, vertical_speed=0.23163222, ground_speed=25.38568, wind_vel=0.07285093, airspeed=24.966219, gps_hdop=1.21, roll=-6.74, pitch=-1.80, yaw=37.57, ch3percent=66.90, ch9out=0, tot=0.0, toh=0.0, time_in_air=0.0, ch10out=0, ch11out=0, ch12out=0, battery_voltage=0, battery_current=-1, waypoints_count=0, ch3out=1669, waypoints=[], home_location={lat=0.0, lon=0.0}}
[2025-04-10 03:28:36] {GCS_IP=13.213.62.184, timestamp=2025-04-10 03:28:36, systemid=3, lat=35.069026, lon=129.0875444, alt=29.104, dist_traveled=null, wp_dist=704, dist_to_home=1.3462073685135935E7, vertical_speed=0.21456479, ground_speed=25.377779, wind_vel=0.06287798, airspeed=24.928726, gps_hdop=1.21, roll=-5.72, pitch=-1.92, yaw=35.56, ch3percent=66.60, ch9out=0, tot=0.0, toh=0.0, time_in_air=0.0, ch10out=0, ch11out=0, ch12out=0, battery_voltage=0, battery_current=-1, waypoints_count=0, ch3out=1666, waypoints=[], home_location={lat=0.0, lon=0.0}}
[2025-04-10 03:28:38] {GCS_IP=13.213.62.184, timestamp=2025-04-10 03:28:37, systemid=3, lat=35.0692122, lon=129.0877055, alt=29.359, dist_traveled=null, wp_dist=678, dist_to_home=1.346207821419783E7, vertical_speed=0.18422611, ground_speed=25.369596, wind_vel=0.05604162, airspeed=24.914995, gps_hdop=1.21, roll=-4.11, pitch=-2.03, yaw=33.77, ch3percent=65.90, ch9out=0, tot=0.0, toh=0.0, time_in_air=0.0, ch10out=0, ch11out=0, ch12out=0, battery_voltage=0, battery_current=-1, waypoints_count=0, ch3out=1659, waypoints=[], home_location={lat=0.0, lon=0.0}}
[2025-04-10 03:28:39] {GCS_IP=13.213.62.184, timestamp=2025-04-10 03:28:38, systemid=3, lat=35.069402, lon=129.0878611, alt=29.565, dist_traveled=null, wp_dist=653, dist_to_home=1.3462082120253975E7, vertical_speed=0.10993978, ground_speed=25.383774, wind_vel=0.053172857, airspeed=24.901295, gps_hdop=1.21, roll=-2.47, pitch=-2.29, yaw=32.64, ch3percent=65.70, ch9out=0, tot=0.0, toh=0.0, time_in_air=0.0, ch10out=0, ch11out=0, ch12out=0, battery_voltage=0, battery_current=-1, waypoints_count=0, ch3out=1657, waypoints=[], home_location={lat=0.0, lon=0.0}}
[2025-04-10 03:28:40] {GCS_IP=13.213.62.184, timestamp=2025-04-10 03:28:39, systemid=3, lat=35.0695935, lon=129.0880127, alt=29.731, dist_traveled=null, wp_dist=627, dist_to_home=1.3462085616362037E7, vertical_speed=0.07263327, ground_speed=25.387737, wind_vel=0.053618424, airspeed=24.86269, gps_hdop=1.21, roll=-1.29, pitch=-2.33, yaw=32.03, ch3percent=65.60, ch9out=0, tot=0.0, toh=0.0, time_in_air=0.0, ch10out=0, ch11out=0, ch12out=0, battery_voltage=0, battery_current=-1, waypoints_count=0, ch3out=1656, waypoints=[], home_location={lat=0.0, lon=0.0}}
[2025-04-10 03:28:41] {GCS_IP=13.213.62.184, timestamp=2025-04-10 03:28:40, systemid=3, lat=35.069786, lon=129.0881623, alt=29.846, dist_traveled=null, wp_dist=602, dist_to_home=1.3462088900379099E7, vertical_speed=0.057611465, ground_speed=25.392553, wind_vel=0.056234255, airspeed=24.834127, gps_hdop=1.21, roll=-0.34, pitch=-2.48, yaw=31.67, ch3percent=65.30, ch9out=0, tot=0.0, toh=0.0, time_in_air=0.0, ch10out=0, ch11out=0, ch12out=0, battery_voltage=0, battery_current=-1, waypoints_count=0, ch3out=1653, waypoints=[], home_location={lat=0.0, lon=0.0}}
[2025-04-10 03:28:42] {GCS_IP=13.213.62.184, timestamp=2025-04-10 03:28:41, systemid=3, lat=35.0699775, lon=129.0883102, alt=29.915, dist_traveled=null, wp_dist=577, dist_to_home=1.3462092091105495E7, vertical_speed=-0.033016425, ground_speed=25.372995, wind_vel=0.061178274, airspeed=24.889313, gps_hdop=1.21, roll=0.04, pitch=-2.61, yaw=31.63, ch3percent=65.60, ch9out=0, tot=0.0, toh=0.0, time_in_air=0.0, ch10out=0, ch11out=0, ch12out=0, battery_voltage=0, battery_current=-1, waypoints_count=0, ch3out=1656, waypoints=[], home_location={lat=0.0, lon=0.0}}
[2025-04-10 03:28:43] {GCS_IP=13.213.62.184, timestamp=2025-04-10 03:28:42, systemid=3, lat=35.0701694, lon=129.0884585, alt=29.922, dist_traveled=null, wp_dist=552, dist_to_home=1.3462095295881744E7, vertical_speed=-0.014770205, ground_speed=25.37353, wind_vel=0.06786225, airspeed=24.885254, gps_hdop=1.21, roll=0.37, pitch=-2.51, yaw=31.73, ch3percent=65.80, ch9out=0, tot=0.0, toh=0.0, time_in_air=0.0, ch10out=0, ch11out=0, ch12out=0, battery_voltage=0, battery_current=-1, waypoints_count=0, ch3out=1658, waypoints=[], home_location={lat=0.0, lon=0.0}}
[2025-04-10 03:28:44] {GCS_IP=13.213.62.184, timestamp=2025-04-10 03:28:43, systemid=3, lat=35.0703617, lon=129.0886079, alt=29.928, dist_traveled=null, wp_dist=526, dist_to_home=1.3462098572433304E7, vertical_speed=-0.023530446, ground_speed=25.427317, wind_vel=0.074990265, airspeed=24.894588, gps_hdop=1.21, roll=0.51, pitch=-2.57, yaw=31.92, ch3percent=65.80, ch9out=0, tot=0.0, toh=0.0, time_in_air=0.0, ch10out=0, ch11out=0, ch12out=0, battery_voltage=0, battery_current=-1, waypoints_count=0, ch3out=1658, waypoints=[], home_location={lat=0.0, lon=0.0}}
[2025-04-10 03:28:45] {GCS_IP=13.213.62.184, timestamp=2025-04-10 03:28:44, systemid=3, lat=35.0705542, lon=129.0887588, alt=29.947, dist_traveled=null, wp_dist=501, dist_to_home=1.3462101963151075E7, vertical_speed=0.00925682, ground_speed=25.475697, wind_vel=0.08120548, airspeed=24.900469, gps_hdop=1.21, roll=0.50, pitch=-2.51, yaw=32.14, ch3percent=66.10, ch9out=0, tot=0.0, toh=0.0, time_in_air=0.0, ch10out=0, ch11out=0, ch12out=0, battery_voltage=0, battery_current=-1, waypoints_count=0, ch3out=1661, waypoints=[], home_location={lat=0.0, lon=0.0}}
[2025-04-10 03:28:46] {GCS_IP=13.213.62.184, timestamp=2025-04-10 03:28:46, systemid=3, lat=35.0707466, lon=129.0889109, alt=29.945, dist_traveled=null, wp_dist=475, dist_to_home=1.3462105457403013E7, vertical_speed=0.023541622, ground_speed=25.513762, wind_vel=0.087084725, airspeed=24.96802, gps_hdop=1.21, roll=0.34, pitch=-2.48, yaw=32.41, ch3percent=66.20, ch9out=0, tot=0.0, toh=0.0, time_in_air=0.0, ch10out=0, ch11out=0, ch12out=0, battery_voltage=0, battery_current=-1, waypoints_count=0, ch3out=1662, waypoints=[], home_location={lat=0.0, lon=0.0}}
[2025-04-10 03:28:47] {GCS_IP=13.213.62.184, timestamp=2025-04-10 03:28:46, systemid=3, lat=35.0709383, lon=129.0890637, alt=29.958, dist_traveled=null, wp_dist=450, dist_to_home=1.3462109042174403E7, vertical_speed=0.030993875, ground_speed=25.525843, wind_vel=0.093765974, airspeed=24.994303, gps_hdop=1.21, roll=-0.22, pitch=-2.43, yaw=32.50, ch3percent=65.90, ch9out=0, tot=0.0, toh=0.0, time_in_air=0.0, ch10out=0, ch11out=0, ch12out=0, battery_voltage=0, battery_current=-1, waypoints_count=0, ch3out=1659, waypoints=[], home_location={lat=0.0, lon=0.0}}
[2025-04-10 03:28:48] {GCS_IP=13.213.62.184, timestamp=2025-04-10 03:28:47, systemid=3, lat=35.0711298, lon=129.0892166, alt=29.993, dist_traveled=null, wp_dist=424, dist_to_home=1.3462112644470429E7, vertical_speed=-0.015939664, ground_speed=25.505796, wind_vel=0.10083351, airspeed=25.01392, gps_hdop=1.21, roll=0.10, pitch=-2.58, yaw=32.59, ch3percent=65.90, ch9out=0, tot=0.0, toh=0.0, time_in_air=0.0, ch10out=0, ch11out=0, ch12out=0, battery_voltage=0, battery_current=-1, waypoints_count=0, ch3out=1659, waypoints=[], home_location={lat=0.0, lon=0.0}}
[2025-04-10 03:28:49] {GCS_IP=13.213.62.184, timestamp=2025-04-10 03:28:48, systemid=3, lat=35.0713212, lon=129.0893698, alt=30.035, dist_traveled=null, wp_dist=399, dist_to_home=1.3462116276080888E7, vertical_speed=-0.020482823, ground_speed=25.49709, wind_vel=0.108131535, airspeed=24.965168, gps_hdop=1.21, roll=-0.13, pitch=-2.61, yaw=32.57, ch3percent=65.50, ch9out=0, tot=0.0, toh=0.0, time_in_air=0.0, ch10out=0, ch11out=0, ch12out=0, battery_voltage=0, battery_current=-1, waypoints_count=0, ch3out=1655, waypoints=[], home_location={lat=0.0, lon=0.0}}
[2025-04-10 03:28:50] {GCS_IP=13.213.62.184, timestamp=2025-04-10 03:28:49, systemid=3, lat=35.0715129, lon=129.0895234, alt=30.041, dist_traveled=null, wp_dist=373, dist_to_home=1.346211992643886E7, vertical_speed=-0.004137657, ground_speed=25.504929, wind_vel=0.11514287, airspeed=25.02515, gps_hdop=1.21, roll=0.04, pitch=-2.58, yaw=32.67, ch3percent=65.30, ch9out=0, tot=0.0, toh=0.0, time_in_air=0.0, ch10out=0, ch11out=0, ch12out=0, battery_voltage=0, battery_current=-1, waypoints_count=0, ch3out=1653, waypoints=[], home_location={lat=0.0, lon=0.0}}
[2025-04-10 03:28:51] {GCS_IP=13.213.62.184, timestamp=2025-04-10 03:28:50, systemid=3, lat=35.0717041, lon=129.0896769, alt=30.044, dist_traveled=null, wp_dist=348, dist_to_home=1.3462123591938267E7, vertical_speed=0.009657283, ground_speed=25.485651, wind_vel=0.1225413, airspeed=24.995813, gps_hdop=1.21, roll=-0.31, pitch=-2.56, yaw=32.58, ch3percent=65.30, ch9out=0, tot=0.0, toh=0.0, time_in_air=0.0, ch10out=0, ch11out=0, ch12out=0, battery_voltage=0, battery_current=-1, waypoints_count=0, ch3out=1653, waypoints=[], home_location={lat=0.0, lon=0.0}}
[2025-04-10 03:28:52] {GCS_IP=13.213.62.184, timestamp=2025-04-10 03:28:51, systemid=3, lat=35.0718946, lon=129.0898295, alt=30.066, dist_traveled=null, wp_dist=322, dist_to_home=1.3462127216015792E7, vertical_speed=-0.08997396, ground_speed=25.41241, wind_vel=0.13159636, airspeed=24.983824, gps_hdop=1.21, roll=-0.17, pitch=-2.73, yaw=32.49, ch3percent=65.50, ch9out=0, tot=0.0, toh=0.0, time_in_air=0.0, ch10out=0, ch11out=0, ch12out=0, battery_voltage=0, battery_current=-1, waypoints_count=0, ch3out=1655, waypoints=[], home_location={lat=0.0, lon=0.0}}
[2025-04-10 03:28:53] {GCS_IP=13.213.62.184, timestamp=2025-04-10 03:28:52, systemid=3, lat=35.0720846, lon=129.0899817, alt=29.994, dist_traveled=null, wp_dist=297, dist_to_home=1.3462130830497919E7, vertical_speed=0.019303543, ground_speed=25.40931, wind_vel=0.14090781, airspeed=24.984463, gps_hdop=1.21, roll=-0.28, pitch=-2.43, yaw=32.49, ch3percent=65.70, ch9out=0, tot=0.0, toh=0.0, time_in_air=0.0, ch10out=0, ch11out=0, ch12out=0, battery_voltage=0, battery_current=-1, waypoints_count=0, ch3out=1657, waypoints=[], home_location={lat=0.0, lon=0.0}}
[2025-04-10 03:28:54] {GCS_IP=13.213.62.184, timestamp=2025-04-10 03:28:53, systemid=3, lat=35.0722765, lon=129.0901353, alt=29.991, dist_traveled=null, wp_dist=272, dist_to_home=1.3462134470936008E7, vertical_speed=-2.2146116E-4, ground_speed=25.448675, wind_vel=0.148593, airspeed=24.972136, gps_hdop=1.21, roll=-0.36, pitch=-2.46, yaw=32.38, ch3percent=65.70, ch9out=0, tot=0.0, toh=0.0, time_in_air=0.0, ch10out=0, ch11out=0, ch12out=0, battery_voltage=0, battery_current=-1, waypoints_count=0, ch3out=1657, waypoints=[], home_location={lat=0.0, lon=0.0}}
[2025-04-10 03:28:55] {GCS_IP=13.213.62.184, timestamp=2025-04-10 03:28:54, systemid=3, lat=35.0724683, lon=129.0902882, alt=29.991, dist_traveled=null, wp_dist=246, dist_to_home=1.3462138058224939E7, vertical_speed=0.028991144, ground_speed=25.505316, wind_vel=0.15449181, airspeed=24.968565, gps_hdop=1.21, roll=0.09, pitch=-2.43, yaw=32.44, ch3percent=65.70, ch9out=0, tot=0.0, toh=0.0, time_in_air=0.0, ch10out=0, ch11out=0, ch12out=0, battery_voltage=0, battery_current=-1, waypoints_count=0, ch3out=1657, waypoints=[], home_location={lat=0.0, lon=0.0}}
[2025-04-10 03:28:56] {GCS_IP=13.213.62.184, timestamp=2025-04-10 03:28:56, systemid=3, lat=35.0726606, lon=129.0904417, alt=30.023, dist_traveled=null, wp_dist=221, dist_to_home=1.34621416713451E7, vertical_speed=0.0062293713, ground_speed=25.524773, wind_vel=0.15985963, airspeed=25.022312, gps_hdop=1.21, roll=-0.04, pitch=-2.62, yaw=32.47, ch3percent=65.50, ch9out=0, tot=0.0, toh=0.0, time_in_air=0.0, ch10out=0, ch11out=0, ch12out=0, battery_voltage=0, battery_current=-1, waypoints_count=0, ch3out=1655, waypoints=[], home_location={lat=0.0, lon=0.0}}
[2025-04-10 03:28:57] {GCS_IP=13.213.62.184, timestamp=2025-04-10 03:28:57, systemid=3, lat=35.0728525, lon=129.0905949, alt=30.036, dist_traveled=null, wp_dist=195, dist_to_home=1.3462145278411781E7, vertical_speed=-0.022560688, ground_speed=25.498259, wind_vel=0.16593821, airspeed=24.952814, gps_hdop=1.21, roll=0.08, pitch=-2.58, yaw=32.60, ch3percent=65.70, ch9out=0, tot=0.0, toh=0.0, time_in_air=0.0, ch10out=0, ch11out=0, ch12out=0, battery_voltage=0, battery_current=-1, waypoints_count=0, ch3out=1657, waypoints=[], home_location={lat=0.0, lon=0.0}}
[2025-04-10 03:28:58] {GCS_IP=13.213.62.184, timestamp=2025-04-10 03:28:57, systemid=3, lat=35.0730429, lon=129.0907474, alt=30.031, dist_traveled=null, wp_dist=170, dist_to_home=1.3462148898180813E7, vertical_speed=-0.018812578, ground_speed=25.467394, wind_vel=0.1729254, airspeed=24.976076, gps_hdop=1.21, roll=-0.24, pitch=-2.51, yaw=32.61, ch3percent=65.70, ch9out=0, tot=0.0, toh=0.0, time_in_air=0.0, ch10out=0, ch11out=0, ch12out=0, battery_voltage=0, battery_current=-1, waypoints_count=0, ch3out=1657, waypoints=[], home_location={lat=0.0, lon=0.0}}
[2025-04-10 03:28:59] {GCS_IP=13.213.62.184, timestamp=2025-04-10 03:28:58, systemid=3, lat=35.0732342, lon=129.0909007, alt=29.995, dist_traveled=null, wp_dist=144, dist_to_home=1.3462152541458901E7, vertical_speed=-0.010461497, ground_speed=25.471851, wind_vel=0.17977904, airspeed=24.993635, gps_hdop=1.21, roll=-0.11, pitch=-2.49, yaw=32.59, ch3percent=65.80, ch9out=0, tot=0.0, toh=0.0, time_in_air=0.0, ch10out=0, ch11out=0, ch12out=0, battery_voltage=0, battery_current=-1, waypoints_count=0, ch3out=1658, waypoints=[], home_location={lat=0.0, lon=0.0}}
[2025-04-10 03:29:00] {GCS_IP=13.213.62.184, timestamp=2025-04-10 03:28:59, systemid=3, lat=35.0734249, lon=129.0910535, alt=30.003, dist_traveled=null, wp_dist=119, dist_to_home=1.3462156171600433E7, vertical_speed=-0.018447503, ground_speed=25.482729, wind_vel=0.18631136, airspeed=25.013002, gps_hdop=1.21, roll=-0.18, pitch=-2.53, yaw=32.63, ch3percent=65.70, ch9out=0, tot=0.0, toh=0.0, time_in_air=0.0, ch10out=0, ch11out=0, ch12out=0, battery_voltage=0, battery_current=-1, waypoints_count=0, ch3out=1657, waypoints=[], home_location={lat=0.0, lon=0.0}}
[2025-04-10 03:29:01] {GCS_IP=13.213.62.184, timestamp=2025-04-10 03:29:00, systemid=3, lat=35.0736168, lon=129.0912072, alt=30.008, dist_traveled=null, wp_dist=93, dist_to_home=1.3462159819384195E7, vertical_speed=0.020409033, ground_speed=25.480364, wind_vel=0.19257957, airspeed=25.025684, gps_hdop=1.21, roll=-0.13, pitch=-2.50, yaw=32.62, ch3percent=65.60, ch9out=0, tot=0.0, toh=0.0, time_in_air=0.0, ch10out=0, ch11out=0, ch12out=0, battery_voltage=0, battery_current=-1, waypoints_count=0, ch3out=1656, waypoints=[], home_location={lat=0.0, lon=0.0}}
[2025-04-10 03:29:02] {GCS_IP=13.213.62.184, timestamp=2025-04-10 03:29:01, systemid=3, lat=35.0738085, lon=129.0913607, alt=30.041, dist_traveled=null, wp_dist=68, dist_to_home=1.3462163459954439E7, vertical_speed=0.017831512, ground_speed=25.492115, wind_vel=0.19806844, airspeed=25.00568, gps_hdop=1.21, roll=-0.15, pitch=-2.52, yaw=32.53, ch3percent=65.50, ch9out=0, tot=0.0, toh=0.0, time_in_air=0.0, ch10out=0, ch11out=0, ch12out=0, battery_voltage=0, battery_current=-1, waypoints_count=0, ch3out=1655, waypoints=[], home_location={lat=0.0, lon=0.0}}
[2025-04-10 03:29:03] {GCS_IP=13.213.62.184, timestamp=2025-04-10 03:29:02, systemid=3, lat=35.0740005, lon=129.0915141, alt=30.069, dist_traveled=null, wp_dist=644, dist_to_home=1.3462167078038594E7, vertical_speed=-0.27615786, ground_speed=25.528074, wind_vel=0.2028397, airspeed=24.936783, gps_hdop=1.21, roll=56.72, pitch=-4.48, yaw=37.62, ch3percent=65.70, ch9out=0, tot=0.0, toh=0.0, time_in_air=0.0, ch10out=0, ch11out=0, ch12out=0, battery_voltage=0, battery_current=-1, waypoints_count=0, ch3out=1657, waypoints=[], home_location={lat=0.0, lon=0.0}}
[2025-04-10 03:29:04] {GCS_IP=13.213.62.184, timestamp=2025-04-10 03:29:03, systemid=3, lat=35.0741314, lon=129.0917279, alt=30.12, dist_traveled=null, wp_dist=664, dist_to_home=1.3462178550582418E7, vertical_speed=1.8720291, ground_speed=24.04379, wind_vel=0.20493177, airspeed=24.071781, gps_hdop=1.21, roll=53.42, pitch=4.20, yaw=85.60, ch3percent=43.10, ch9out=0, tot=0.0, toh=0.0, time_in_air=0.0, ch10out=0, ch11out=0, ch12out=0, battery_voltage=0, battery_current=-1, waypoints_count=0, ch3out=1431, waypoints=[], home_location={lat=0.0, lon=0.0}}
[2025-04-10 03:29:05] {GCS_IP=13.213.62.184, timestamp=2025-04-10 03:29:05, systemid=3, lat=35.0741257, lon=129.0919841, alt=30.611, dist_traveled=null, wp_dist=671, dist_to_home=1.3462199944773236E7, vertical_speed=-1.6686141, ground_speed=23.059938, wind_vel=0.20584932, airspeed=22.80942, gps_hdop=1.21, roll=54.90, pitch=-2.95, yaw=104.87, ch3percent=44.20, ch9out=0, tot=0.0, toh=0.0, time_in_air=0.0, ch10out=0, ch11out=0, ch12out=0, battery_voltage=0, battery_current=-1, waypoints_count=0, ch3out=1442, waypoints=[], home_location={lat=0.0, lon=0.0}}
[2025-04-10 03:29:06] {GCS_IP=13.213.62.184, timestamp=2025-04-10 03:29:06, systemid=3, lat=35.074041, lon=129.0922119, alt=28.905, dist_traveled=null, wp_dist=670, dist_to_home=1.3462222713176526E7, vertical_speed=-1.2847862, ground_speed=23.339275, wind_vel=0.2052591, airspeed=22.88906, gps_hdop=1.21, roll=55.39, pitch=-1.70, yaw=136.62, ch3percent=57.90, ch9out=0, tot=0.0, toh=0.0, time_in_air=0.0, ch10out=0, ch11out=0, ch12out=0, battery_voltage=0, battery_current=-1, waypoints_count=0, ch3out=1579, waypoints=[], home_location={lat=0.0, lon=0.0}}
[2025-04-10 03:29:07] {GCS_IP=13.213.62.184, timestamp=2025-04-10 03:29:07, systemid=3, lat=35.073868, lon=129.0923527, alt=27.767, dist_traveled=null, wp_dist=657, dist_to_home=1.346224246119173E7, vertical_speed=-0.48481488, ground_speed=23.869122, wind_vel=0.20108742, airspeed=23.365686, gps_hdop=1.21, roll=53.62, pitch=0.01, yaw=167.58, ch3percent=64.70, ch9out=0, tot=0.0, toh=0.0, time_in_air=0.0, ch10out=0, ch11out=0, ch12out=0, battery_voltage=0, battery_current=-1, waypoints_count=0, ch3out=1647, waypoints=[], home_location={lat=0.0, lon=0.0}}
[2025-04-10 03:29:08] {GCS_IP=13.213.62.184, timestamp=2025-04-10 03:29:08, systemid=3, lat=35.0736547, lon=129.0923699, alt=27.252, dist_traveled=null, wp_dist=636, dist_to_home=1.3462253912894998E7, vertical_speed=-0.44510564, ground_speed=24.175446, wind_vel=0.19274344, airspeed=23.634676, gps_hdop=1.21, roll=46.71, pitch=-0.67, yaw=-168.70, ch3percent=62.10, ch9out=0, tot=0.0, toh=0.0, time_in_air=0.0, ch10out=0, ch11out=0, ch12out=0, battery_voltage=0, battery_current=-1, waypoints_count=0, ch3out=1621, waypoints=[], home_location={lat=0.0, lon=0.0}}
[2025-04-10 03:29:09] {GCS_IP=13.213.62.184, timestamp=2025-04-10 03:29:08, systemid=3, lat=35.0734497, lon=129.0922859, alt=26.682, dist_traveled=null, wp_dist=612, dist_to_home=1.3462256629194282E7, vertical_speed=-0.7001689, ground_speed=24.325275, wind_vel=0.18152076, airspeed=23.793604, gps_hdop=1.21, roll=33.21, pitch=-2.36, yaw=-152.53, ch3percent=58.80, ch9out=0, tot=0.0, toh=0.0, time_in_air=0.0, ch10out=0, ch11out=0, ch12out=0, battery_voltage=0, battery_current=-1, waypoints_count=0, ch3out=1588, waypoints=[], home_location={lat=0.0, lon=0.0}}
[2025-04-10 03:29:10] {GCS_IP=13.213.62.184, timestamp=2025-04-10 03:29:09, systemid=3, lat=35.0732665, lon=129.0921413, alt=25.97, dist_traveled=null, wp_dist=588, dist_to_home=1.3462253322874151E7, vertical_speed=-0.5933241, ground_speed=24.487938, wind_vel=0.16828692, airspeed=23.966743, gps_hdop=1.21, roll=14.01, pitch=-3.22, yaw=-143.36, ch3percent=60.10, ch9out=0, tot=0.0, toh=0.0, time_in_air=0.0, ch10out=0, ch11out=0, ch12out=0, battery_voltage=0, battery_current=-1, waypoints_count=0, ch3out=1601, waypoints=[], home_location={lat=0.0, lon=0.0}}
[2025-04-10 03:29:11] {GCS_IP=13.213.62.184, timestamp=2025-04-10 03:29:10, systemid=3, lat=35.0730964, lon=129.0919705, alt=25.476, dist_traveled=null, wp_dist=565, dist_to_home=1.3462247239774162E7, vertical_speed=-0.047495935, ground_speed=24.724413, wind_vel=0.15447073, airspeed=24.157932, gps_hdop=1.21, roll=-1.90, pitch=-2.33, yaw=-140.37, ch3percent=65.20, ch9out=0, tot=0.0, toh=0.0, time_in_air=0.0, ch10out=0, ch11out=0, ch12out=0, battery_voltage=0, battery_current=-1, waypoints_count=0, ch3out=1652, waypoints=[], home_location={lat=0.0, lon=0.0}}
[2025-04-10 03:29:12] {GCS_IP=13.213.62.184, timestamp=2025-04-10 03:29:11, systemid=3, lat=35.0729256, lon=129.0917962, alt=25.515, dist_traveled=null, wp_dist=541, dist_to_home=1.346224090086372E7, vertical_speed=0.40495414, ground_speed=24.948242, wind_vel=0.14087407, airspeed=24.404226, gps_hdop=1.21, roll=-9.90, pitch=-1.27, yaw=-142.24, ch3percent=68.90, ch9out=0, tot=0.0, toh=0.0, time_in_air=0.0, ch10out=0, ch11out=0, ch12out=0, battery_voltage=0, battery_current=-1, waypoints_count=0, ch3out=1689, waypoints=[], home_location={lat=0.0, lon=0.0}}
[2025-04-10 03:29:13] {GCS_IP=13.213.62.184, timestamp=2025-04-10 03:29:12, systemid=3, lat=35.0727461, lon=129.091632, alt=25.984, dist_traveled=null, wp_dist=517, dist_to_home=1.346223580390779E7, vertical_speed=0.58263314, ground_speed=25.087837, wind_vel=0.12649678, airspeed=24.583387, gps_hdop=1.21, roll=-12.50, pitch=-0.84, yaw=-145.96, ch3percent=69.80, ch9out=0, tot=0.0, toh=0.0, time_in_air=0.0, ch10out=0, ch11out=0, ch12out=0, battery_voltage=0, battery_current=-1, waypoints_count=0, ch3out=1698, waypoints=[], home_location={lat=0.0, lon=0.0}}
[2025-04-10 03:29:14] {GCS_IP=13.213.62.184, timestamp=2025-04-10 03:29:13, systemid=3, lat=35.0725561, lon=129.0914834, alt=26.617, dist_traveled=null, wp_dist=493, dist_to_home=1.3462232487110969E7, vertical_speed=0.58889455, ground_speed=25.16437, wind_vel=0.11284956, airspeed=24.666414, gps_hdop=1.21, roll=-12.54, pitch=-0.88, yaw=-150.29, ch3percent=69.50, ch9out=0, tot=0.0, toh=0.0, time_in_air=0.0, ch10out=0, ch11out=0, ch12out=0, battery_voltage=0, battery_current=-1, waypoints_count=0, ch3out=1695, waypoints=[], home_location={lat=0.0, lon=0.0}}
[2025-04-10 03:29:15] {GCS_IP=13.213.62.184, timestamp=2025-04-10 03:29:14, systemid=3, lat=35.0723573, lon=129.0913523, alt=27.226, dist_traveled=null, wp_dist=468, dist_to_home=1.3462231027193278E7, vertical_speed=0.47687325, ground_speed=25.211697, wind_vel=0.10078585, airspeed=24.727509, gps_hdop=1.21, roll=-11.05, pitch=-1.25, yaw=-154.32, ch3percent=68.70, ch9out=0, tot=0.0, toh=0.0, time_in_air=0.0, ch10out=0, ch11out=0, ch12out=0, battery_voltage=0, battery_current=-1, waypoints_count=0, ch3out=1687, waypoints=[], home_location={lat=0.0, lon=0.0}}
[2025-04-10 03:29:16] {GCS_IP=13.213.62.184, timestamp=2025-04-10 03:29:16, systemid=3, lat=35.0721514, lon=129.0912371, alt=27.739, dist_traveled=null, wp_dist=443, dist_to_home=1.346223121226228E7, vertical_speed=0.41858053, ground_speed=25.247963, wind_vel=0.09098389, airspeed=24.800709, gps_hdop=1.21, roll=-8.52, pitch=-1.51, yaw=-157.67, ch3percent=67.80, ch9out=0, tot=0.0, toh=0.0, time_in_air=0.0, ch10out=0, ch11out=0, ch12out=0, battery_voltage=0, battery_current=-1, waypoints_count=0, ch3out=1678, waypoints=[], home_location={lat=0.0, lon=0.0}}
[2025-04-10 03:29:17] {GCS_IP=13.213.62.184, timestamp=2025-04-10 03:29:16, systemid=3, lat=35.0719403, lon=129.0911347, alt=28.194, dist_traveled=null, wp_dist=418, dist_to_home=1.3462232697325056E7, vertical_speed=0.35102862, ground_speed=25.265516, wind_vel=0.08394339, airspeed=24.801704, gps_hdop=1.21, roll=-6.10, pitch=-1.72, yaw=-160.19, ch3percent=67.20, ch9out=0, tot=0.0, toh=0.0, time_in_air=0.0, ch10out=0, ch11out=0, ch12out=0, battery_voltage=0, battery_current=-1, waypoints_count=0, ch3out=1672, waypoints=[], home_location={lat=0.0, lon=0.0}}
[2025-04-10 03:29:18] {GCS_IP=13.213.62.184, timestamp=2025-04-10 03:29:18, systemid=3, lat=35.0717268, lon=129.0910419, alt=28.591, dist_traveled=null, wp_dist=392, dist_to_home=1.3462235086809412E7, vertical_speed=0.30419683, ground_speed=25.279976, wind_vel=0.080575176, airspeed=24.789448, gps_hdop=1.21, roll=-3.50, pitch=-1.90, yaw=-161.80, ch3percent=66.50, ch9out=0, tot=0.0, toh=0.0, time_in_air=0.0, ch10out=0, ch11out=0, ch12out=0, battery_voltage=0, battery_current=-1, waypoints_count=0, ch3out=1665, waypoints=[], home_location={lat=0.0, lon=0.0}}
[2025-04-10 03:29:19] {GCS_IP=13.213.62.184, timestamp=2025-04-10 03:29:18, systemid=3, lat=35.0715112, lon=129.0909547, alt=28.906, dist_traveled=null, wp_dist=367, dist_to_home=1.3462238036758877E7, vertical_speed=0.22842705, ground_speed=25.30112, wind_vel=0.08038835, airspeed=24.772182, gps_hdop=1.21, roll=-1.65, pitch=-2.09, yaw=-162.74, ch3percent=66.30, ch9out=0, tot=0.0, toh=0.0, time_in_air=0.0, ch10out=0, ch11out=0, ch12out=0, battery_voltage=0, battery_current=-1, waypoints_count=0, ch3out=1663, waypoints=[], home_location={lat=0.0, lon=0.0}}
[2025-04-10 03:29:20] {GCS_IP=13.213.62.184, timestamp=2025-04-10 03:29:20, systemid=3, lat=35.0712959, lon=129.0908709, alt=29.158, dist_traveled=null, wp_dist=342, dist_to_home=1.3462241252874218E7, vertical_speed=0.15912643, ground_speed=25.27948, wind_vel=0.083095856, airspeed=24.78059, gps_hdop=1.21, roll=-0.17, pitch=-2.20, yaw=-163.19, ch3percent=66.10, ch9out=0, tot=0.0, toh=0.0, time_in_air=0.0, ch10out=0, ch11out=0, ch12out=0, battery_voltage=0, battery_current=-1, waypoints_count=0, ch3out=1661, waypoints=[], home_location={lat=0.0, lon=0.0}}
[2025-04-10 03:29:21] {GCS_IP=13.213.62.184, timestamp=2025-04-10 03:29:20, systemid=3, lat=35.0710798, lon=129.0907876, alt=29.361, dist_traveled=null, wp_dist=317, dist_to_home=1.3462244547751023E7, vertical_speed=0.10264116, ground_speed=25.307987, wind_vel=0.08787169, airspeed=24.784655, gps_hdop=1.21, roll=0.57, pitch=-2.32, yaw=-163.11, ch3percent=66.00, ch9out=0, tot=0.0, toh=0.0, time_in_air=0.0, ch10out=0, ch11out=0, ch12out=0, battery_voltage=0, battery_current=-1, waypoints_count=0, ch3out=1660, waypoints=[], home_location={lat=0.0, lon=0.0}}
[2025-04-10 03:29:22] {GCS_IP=13.213.62.184, timestamp=2025-04-10 03:29:22, systemid=3, lat=35.0708634, lon=129.0907035, alt=29.528, dist_traveled=null, wp_dist=291, dist_to_home=1.346224779066839E7, vertical_speed=0.11185631, ground_speed=25.320284, wind_vel=0.09376492, airspeed=24.859674, gps_hdop=1.21, roll=0.81, pitch=-2.29, yaw=-162.78, ch3percent=65.80, ch9out=0, tot=0.0, toh=0.0, time_in_air=0.0, ch10out=0, ch11out=0, ch12out=0, battery_voltage=0, battery_current=-1, waypoints_count=0, ch3out=1658, waypoints=[], home_location={lat=0.0, lon=0.0}}
[2025-04-10 03:29:23] {GCS_IP=13.213.62.184, timestamp=2025-04-10 03:29:23, systemid=3, lat=35.0706472, lon=129.0906177, alt=29.642, dist_traveled=null, wp_dist=266, dist_to_home=1.346225088389019E7, vertical_speed=0.06146668, ground_speed=25.33961, wind_vel=0.10075134, airspeed=24.834715, gps_hdop=1.21, roll=1.19, pitch=-2.41, yaw=-162.49, ch3percent=65.80, ch9out=0, tot=0.0, toh=0.0, time_in_air=0.0, ch10out=0, ch11out=0, ch12out=0, battery_voltage=0, battery_current=-1, waypoints_count=0, ch3out=1658, waypoints=[], home_location={lat=0.0, lon=0.0}}
[2025-04-10 03:29:24] {GCS_IP=13.213.62.184, timestamp=2025-04-10 03:29:24, systemid=3, lat=35.070431, lon=129.0905298, alt=29.734, dist_traveled=null, wp_dist=241, dist_to_home=1.3462253803835468E7, vertical_speed=0.06069262, ground_speed=25.38484, wind_vel=0.107452266, airspeed=24.837866, gps_hdop=1.21, roll=0.62, pitch=-2.45, yaw=-162.03, ch3percent=65.80, ch9out=0, tot=0.0, toh=0.0, time_in_air=0.0, ch10out=0, ch11out=0, ch12out=0, battery_voltage=0, battery_current=-1, waypoints_count=0, ch3out=1658, waypoints=[], home_location={lat=0.0, lon=0.0}}
[2025-04-10 03:29:25] {GCS_IP=13.213.62.184, timestamp=2025-04-10 03:29:25, systemid=3, lat=35.0702148, lon=129.0904404, alt=29.809, dist_traveled=null, wp_dist=215, dist_to_home=1.3462256599981317E7, vertical_speed=0.057259407, ground_speed=25.405563, wind_vel=0.11400855, airspeed=24.874357, gps_hdop=1.21, roll=0.49, pitch=-2.47, yaw=-161.92, ch3percent=65.80, ch9out=0, tot=0.0, toh=0.0, time_in_air=0.0, ch10out=0, ch11out=0, ch12out=0, battery_voltage=0, battery_current=-1, waypoints_count=0, ch3out=1658, waypoints=[], home_location={lat=0.0, lon=0.0}}
[2025-04-10 03:29:26] {GCS_IP=13.213.62.184, timestamp=2025-04-10 03:29:26, systemid=3, lat=35.0699988, lon=129.0903501, alt=29.882, dist_traveled=null, wp_dist=190, dist_to_home=1.346225931239914E7, vertical_speed=0.08835011, ground_speed=25.416588, wind_vel=0.120595165, airspeed=24.886183, gps_hdop=1.21, roll=0.34, pitch=-2.41, yaw=-161.63, ch3percent=65.60, ch9out=0, tot=0.0, toh=0.0, time_in_air=0.0, ch10out=0, ch11out=0, ch12out=0, battery_voltage=0, battery_current=-1, waypoints_count=0, ch3out=1656, waypoints=[], home_location={lat=0.0, lon=0.0}}
[2025-04-10 03:29:27] {GCS_IP=13.213.62.184, timestamp=2025-04-10 03:29:27, systemid=3, lat=35.0697845, lon=129.0902594, alt=29.933, dist_traveled=null, wp_dist=165, dist_to_home=1.3462261911772978E7, vertical_speed=-0.0377661, ground_speed=25.386032, wind_vel=0.12861323, airspeed=24.90235, gps_hdop=1.21, roll=0.24, pitch=-2.60, yaw=-161.56, ch3percent=65.90, ch9out=0, tot=0.0, toh=0.0, time_in_air=0.0, ch10out=0, ch11out=0, ch12out=0, battery_voltage=0, battery_current=-1, waypoints_count=0, ch3out=1659, waypoints=[], home_location={lat=0.0, lon=0.0}}
[2025-04-10 03:29:28] {GCS_IP=13.213.62.184, timestamp=2025-04-10 03:29:28, systemid=3, lat=35.0695695, lon=129.0901681, alt=29.923, dist_traveled=null, wp_dist=139, dist_to_home=1.3462264494487284E7, vertical_speed=-0.0045740437, ground_speed=25.405872, wind_vel=0.13669357, airspeed=24.925697, gps_hdop=1.21, roll=0.08, pitch=-2.52, yaw=-161.45, ch3percent=65.70, ch9out=0, tot=0.0, toh=0.0, time_in_air=0.0, ch10out=0, ch11out=0, ch12out=0, battery_voltage=0, battery_current=-1, waypoints_count=0, ch3out=1657, waypoints=[], home_location={lat=0.0, lon=0.0}}
[2025-04-10 03:29:29] {GCS_IP=13.213.62.184, timestamp=2025-04-10 03:29:28, systemid=3, lat=35.0693537, lon=129.0900764, alt=29.938, dist_traveled=null, wp_dist=114, dist_to_home=1.3462267081737254E7, vertical_speed=0.054007955, ground_speed=25.433996, wind_vel=0.14380364, airspeed=24.92318, gps_hdop=1.21, roll=0.29, pitch=-2.41, yaw=-161.34, ch3percent=65.90, ch9out=0, tot=0.0, toh=0.0, time_in_air=0.0, ch10out=0, ch11out=0, ch12out=0, battery_voltage=0, battery_current=-1, waypoints_count=0, ch3out=1659, waypoints=[], home_location={lat=0.0, lon=0.0}}
[2025-04-10 03:29:30] {GCS_IP=13.213.62.184, timestamp=2025-04-10 03:29:29, systemid=3, lat=35.0691369, lon=129.0899838, alt=29.968, dist_traveled=null, wp_dist=88, dist_to_home=1.3462269641694346E7, vertical_speed=0.023758339, ground_speed=25.456825, wind_vel=0.15085809, airspeed=24.967108, gps_hdop=1.21, roll=-0.18, pitch=-2.49, yaw=-161.34, ch3percent=65.70, ch9out=0, tot=0.0, toh=0.0, time_in_air=0.0, ch10out=0, ch11out=0, ch12out=0, battery_voltage=0, battery_current=-1, waypoints_count=0, ch3out=1657, waypoints=[], home_location={lat=0.0, lon=0.0}}
[2025-04-10 03:29:31] {GCS_IP=13.213.62.184, timestamp=2025-04-10 03:29:31, systemid=3, lat=35.068922, lon=129.089892, alt=29.992, dist_traveled=null, wp_dist=63, dist_to_home=1.346227217816187E7, vertical_speed=-0.009692971, ground_speed=25.445766, wind_vel=0.15858127, airspeed=24.92867, gps_hdop=1.21, roll=0.03, pitch=-2.48, yaw=-161.31, ch3percent=65.30, ch9out=0, tot=0.0, toh=0.0, time_in_air=0.0, ch10out=0, ch11out=0, ch12out=0, battery_voltage=0, battery_current=-1, waypoints_count=0, ch3out=1653, waypoints=[], home_location={lat=0.0, lon=0.0}}
[2025-04-10 03:29:32] {GCS_IP=13.213.62.184, timestamp=2025-04-10 03:29:32, systemid=3, lat=35.0687055, lon=129.0897995, alt=29.997, dist_traveled=null, wp_dist=38, dist_to_home=1.3462274732047632E7, vertical_speed=-0.005539607, ground_speed=25.44285, wind_vel=0.16575488, airspeed=24.969854, gps_hdop=1.21, roll=-0.35, pitch=-2.54, yaw=-161.39, ch3percent=65.70, ch9out=0, tot=0.0, toh=0.0, time_in_air=0.0, ch10out=0, ch11out=0, ch12out=0, battery_voltage=0, battery_current=-1, waypoints_count=0, ch3out=1657, waypoints=[], home_location={lat=0.0, lon=0.0}}
[2025-04-10 03:29:33] {GCS_IP=13.213.62.184, timestamp=2025-04-10 03:29:33, systemid=3, lat=35.0684919, lon=129.0897036, alt=29.965, dist_traveled=null, wp_dist=267, dist_to_home=1.3462276869049331E7, vertical_speed=0.38615334, ground_speed=25.656685, wind_vel=0.17137736, airspeed=25.05016, gps_hdop=1.21, roll=41.93, pitch=1.80, yaw=-152.13, ch3percent=76.30, ch9out=0, tot=0.0, toh=0.0, time_in_air=0.0, ch10out=0, ch11out=0, ch12out=0, battery_voltage=0, battery_current=-1, waypoints_count=0, ch3out=1763, waypoints=[], home_location={lat=0.0, lon=0.0}}
