[2025-04-09 18:24:39] {GCS_IP=202.165.85.175, timestamp=2025-04-09 18:24:39, systemid=3, lat=35.0683093, lon=129.0868031, alt=28.431, dist_traveled=null, wp_dist=807, dist_to_home=1.3462046254820941E7, vertical_speed=-0.13952416, ground_speed=24.970484, wind_vel=0.01266997, airspeed=24.890892, gps_hdop=1.21, roll=-2.21, pitch=-2.71, yaw=44.78, ch3percent=63.60, ch9out=0, tot=0.0, toh=0.0, time_in_air=0.0, ch10out=0, ch11out=0, ch12out=0, battery_voltage=0, battery_current=-1, waypoints_count=0, waypoints=[], home_location={lon=0.0, lat=0.0}, ch3out=1636}
[2025-04-09 18:24:40] {GCS_IP=202.165.85.175, timestamp=2025-04-09 18:24:40, systemid=3, lat=35.0684716, lon=129.0869939, alt=28.415, dist_traveled=null, wp_dist=782, dist_to_home=1.3462054357702674E7, vertical_speed=0.092023395, ground_speed=25.080729, wind_vel=0.010408315, airspeed=24.974699, gps_hdop=1.21, roll=-5.86, pitch=-2.21, yaw=43.52, ch3percent=65.10, ch9out=0, tot=0.0, toh=0.0, time_in_air=0.0, ch10out=0, ch11out=0, ch12out=0, battery_voltage=0, battery_current=-1, waypoints_count=0, waypoints=[], home_location={lon=0.0, lat=0.0}, ch3out=1651}
[2025-04-09 18:24:41] {GCS_IP=202.165.85.175, timestamp=2025-04-09 18:24:41, systemid=3, lat=35.0686399, lon=129.0871784, alt=28.606, dist_traveled=null, wp_dist=758, dist_to_home=1.346206165873684E7, vertical_speed=0.2417879, ground_speed=25.133896, wind_vel=0.008238243, airspeed=25.019861, gps_hdop=1.21, roll=-7.15, pitch=-1.78, yaw=41.39, ch3percent=64.80, ch9out=0, tot=0.0, toh=0.0, time_in_air=0.0, ch10out=0, ch11out=0, ch12out=0, battery_voltage=0, battery_current=-1, waypoints_count=0, waypoints=[], home_location={lon=0.0, lat=0.0}, ch3out=1648}
[2025-04-09 18:24:42] {GCS_IP=202.165.85.175, timestamp=2025-04-09 18:24:42, systemid=3, lat=35.0688143, lon=129.0873538, alt=28.843, dist_traveled=null, wp_dist=733, dist_to_home=1.3462067922306312E7, vertical_speed=0.27712303, ground_speed=25.119411, wind_vel=0.0067886403, airspeed=25.062386, gps_hdop=1.21, roll=-6.90, pitch=-1.70, yaw=39.01, ch3percent=64.40, ch9out=0, tot=0.0, toh=0.0, time_in_air=0.0, ch10out=0, ch11out=0, ch12out=0, battery_voltage=0, battery_current=-1, waypoints_count=0, waypoints=[], home_location={lon=0.0, lat=0.0}, ch3out=1644}
[2025-04-09 18:24:43] {GCS_IP=202.165.85.175, timestamp=2025-04-09 18:24:43, systemid=3, lat=35.0689934, lon=129.0875194, alt=29.078, dist_traveled=null, wp_dist=708, dist_to_home=1.3462073156523356E7, vertical_speed=0.18538404, ground_speed=25.016806, wind_vel=0.006409835, airspeed=24.992071, gps_hdop=1.21, roll=-5.71, pitch=-1.84, yaw=36.60, ch3percent=64.20, ch9out=0, tot=0.0, toh=0.0, time_in_air=0.0, ch10out=0, ch11out=0, ch12out=0, battery_voltage=0, battery_current=-1, waypoints_count=0, waypoints=[], home_location={lon=0.0, lat=0.0}, ch3out=1642}
[2025-04-09 18:24:44] {GCS_IP=202.165.85.175, timestamp=2025-04-09 18:24:44, systemid=3, lat=35.0691759, lon=129.0876765, alt=29.258, dist_traveled=null, wp_dist=683, dist_to_home=1.3462077529737417E7, vertical_speed=0.18830326, ground_speed=24.966146, wind_vel=0.006673023, airspeed=24.987503, gps_hdop=1.21, roll=-4.07, pitch=-1.86, yaw=34.88, ch3percent=64.10, ch9out=0, tot=0.0, toh=0.0, time_in_air=0.0, ch10out=0, ch11out=0, ch12out=0, battery_voltage=0, battery_current=-1, waypoints_count=0, waypoints=[], home_location={lon=0.0, lat=0.0}, ch3out=1641}
[2025-04-09 18:24:45] {GCS_IP=202.165.85.175, timestamp=2025-04-09 18:24:45, systemid=3, lat=35.0693631, lon=129.0878295, alt=29.401, dist_traveled=null, wp_dist=658, dist_to_home=1.3462081343675148E7, vertical_speed=0.17980148, ground_speed=24.957762, wind_vel=0.006776012, airspeed=24.968046, gps_hdop=1.21, roll=-2.50, pitch=-1.84, yaw=33.65, ch3percent=63.80, ch9out=0, tot=0.0, toh=0.0, time_in_air=0.0, ch10out=0, ch11out=0, ch12out=0, battery_voltage=0, battery_current=-1, waypoints_count=0, waypoints=[], home_location={lon=0.0, lat=0.0}, ch3out=1638}
[2025-04-09 18:24:46] {GCS_IP=202.165.85.175, timestamp=2025-04-09 18:24:46, systemid=3, lat=35.0695518, lon=129.0879789, alt=29.57, dist_traveled=null, wp_dist=633, dist_to_home=1.3462084790061284E7, vertical_speed=0.13872059, ground_speed=24.956198, wind_vel=0.0064370516, airspeed=24.937654, gps_hdop=1.21, roll=-1.44, pitch=-2.06, yaw=32.97, ch3percent=63.30, ch9out=0, tot=0.0, toh=0.0, time_in_air=0.0, ch10out=0, ch11out=0, ch12out=0, battery_voltage=0, battery_current=-1, waypoints_count=0, waypoints=[], home_location={lon=0.0, lat=0.0}, ch3out=1633}
[2025-04-09 18:24:47] {GCS_IP=202.165.85.175, timestamp=2025-04-09 18:24:47, systemid=3, lat=35.0697416, lon=129.0881264, alt=29.664, dist_traveled=null, wp_dist=608, dist_to_home=1.3462088027903838E7, vertical_speed=0.085995816, ground_speed=24.962193, wind_vel=0.0053164475, airspeed=24.931465, gps_hdop=1.21, roll=-0.39, pitch=-2.14, yaw=32.51, ch3percent=63.70, ch9out=0, tot=0.0, toh=0.0, time_in_air=0.0, ch10out=0, ch11out=0, ch12out=0, battery_voltage=0, battery_current=-1, waypoints_count=0, waypoints=[], home_location={lon=0.0, lat=0.0}, ch3out=1637}
[2025-04-09 18:24:48] {GCS_IP=202.165.85.175, timestamp=2025-04-09 18:24:48, systemid=3, lat=35.0699315, lon=129.0882729, alt=29.739, dist_traveled=null, wp_dist=583, dist_to_home=1.3462091178453328E7, vertical_speed=0.10461178, ground_speed=24.968393, wind_vel=0.005074136, airspeed=24.945892, gps_hdop=1.21, roll=0.05, pitch=-2.08, yaw=32.37, ch3percent=63.40, ch9out=0, tot=0.0, toh=0.0, time_in_air=0.0, ch10out=0, ch11out=0, ch12out=0, battery_voltage=0, battery_current=-1, waypoints_count=0, waypoints=[], home_location={lon=0.0, lat=0.0}, ch3out=1634}
[2025-04-09 18:24:49] {GCS_IP=202.165.85.175, timestamp=2025-04-09 18:24:49, systemid=3, lat=35.0701216, lon=129.0884194, alt=29.83, dist_traveled=null, wp_dist=558, dist_to_home=1.3462094319474276E7, vertical_speed=0.080319606, ground_speed=24.960499, wind_vel=0.0050522387, airspeed=24.965765, gps_hdop=1.21, roll=0.61, pitch=-2.15, yaw=32.49, ch3percent=63.30, ch9out=0, tot=0.0, toh=0.0, time_in_air=0.0, ch10out=0, ch11out=0, ch12out=0, battery_voltage=0, battery_current=-1, waypoints_count=0, waypoints=[], home_location={lon=0.0, lat=0.0}, ch3out=1633}
[2025-04-09 18:24:50] {GCS_IP=202.165.85.175, timestamp=2025-04-09 18:24:50, systemid=3, lat=35.0703109, lon=129.0885661, alt=29.888, dist_traveled=null, wp_dist=533, dist_to_home=1.3462097514490088E7, vertical_speed=0.029707829, ground_speed=24.95123, wind_vel=0.0051757675, airspeed=24.929821, gps_hdop=1.21, roll=0.87, pitch=-2.26, yaw=32.64, ch3percent=63.10, ch9out=0, tot=0.0, toh=0.0, time_in_air=0.0, ch10out=0, ch11out=0, ch12out=0, battery_voltage=0, battery_current=-1, waypoints_count=0, waypoints=[], home_location={lon=0.0, lat=0.0}, ch3out=1631}
[2025-04-09 18:24:51] {GCS_IP=202.165.85.175, timestamp=2025-04-09 18:24:51, systemid=3, lat=35.0704999, lon=129.0887143, alt=29.918, dist_traveled=null, wp_dist=508, dist_to_home=1.346210084719182E7, vertical_speed=0.03736987, ground_speed=24.97457, wind_vel=0.004330042, airspeed=24.910234, gps_hdop=1.21, roll=0.66, pitch=-2.26, yaw=33.01, ch3percent=63.50, ch9out=0, tot=0.0, toh=0.0, time_in_air=0.0, ch10out=0, ch11out=0, ch12out=0, battery_voltage=0, battery_current=-1, waypoints_count=0, waypoints=[], home_location={lon=0.0, lat=0.0}, ch3out=1635}
[2025-04-09 18:24:52] {GCS_IP=202.165.85.175, timestamp=2025-04-09 18:24:52, systemid=3, lat=35.0706883, lon=129.0888633, alt=29.949, dist_traveled=null, wp_dist=483, dist_to_home=1.3462104273961727E7, vertical_speed=0.0334784, ground_speed=24.981905, wind_vel=0.0039141322, airspeed=24.919682, gps_hdop=1.21, roll=0.51, pitch=-2.30, yaw=33.15, ch3percent=63.30, ch9out=0, tot=0.0, toh=0.0, time_in_air=0.0, ch10out=0, ch11out=0, ch12out=0, battery_voltage=0, battery_current=-1, waypoints_count=0, waypoints=[], home_location={lon=0.0, lat=0.0}, ch3out=1633}
[2025-04-09 18:24:53] {GCS_IP=202.165.85.175, timestamp=2025-04-09 18:24:53, systemid=3, lat=35.0708766, lon=129.0890131, alt=29.966, dist_traveled=null, wp_dist=458, dist_to_home=1.3462107771283915E7, vertical_speed=0.0043933387, ground_speed=24.996721, wind_vel=0.003431562, airspeed=24.949291, gps_hdop=1.21, roll=0.45, pitch=-2.33, yaw=33.42, ch3percent=63.10, ch9out=0, tot=0.0, toh=0.0, time_in_air=0.0, ch10out=0, ch11out=0, ch12out=0, battery_voltage=0, battery_current=-1, waypoints_count=0, waypoints=[], home_location={lon=0.0, lat=0.0}, ch3out=1631}
[2025-04-09 18:24:54] {GCS_IP=202.165.85.175, timestamp=2025-04-09 18:24:54, systemid=3, lat=35.0710645, lon=129.0891636, alt=29.958, dist_traveled=null, wp_dist=433, dist_to_home=1.3462111345020786E7, vertical_speed=0.038133316, ground_speed=24.993214, wind_vel=0.003378796, airspeed=24.958885, gps_hdop=1.21, roll=0.09, pitch=-2.21, yaw=33.51, ch3percent=63.30, ch9out=0, tot=0.0, toh=0.0, time_in_air=0.0, ch10out=0, ch11out=0, ch12out=0, battery_voltage=0, battery_current=-1, waypoints_count=0, waypoints=[], home_location={lon=0.0, lat=0.0}, ch3out=1633}
[2025-04-09 18:24:55] {GCS_IP=202.165.85.175, timestamp=2025-04-09 18:24:55, systemid=3, lat=35.0712526, lon=129.0893144, alt=29.99, dist_traveled=null, wp_dist=408, dist_to_home=1.3462114933966868E7, vertical_speed=0.031796977, ground_speed=25.007872, wind_vel=0.0024317063, airspeed=24.966976, gps_hdop=1.21, roll=-0.13, pitch=-2.29, yaw=33.52, ch3percent=63.20, ch9out=0, tot=0.0, toh=0.0, time_in_air=0.0, ch10out=0, ch11out=0, ch12out=0, battery_voltage=0, battery_current=-1, waypoints_count=0, waypoints=[], home_location={lon=0.0, lat=0.0}, ch3out=1632}
[2025-04-09 18:24:56] {GCS_IP=202.165.85.175, timestamp=2025-04-09 18:24:56, systemid=3, lat=35.0714409, lon=129.0894651, alt=29.996, dist_traveled=null, wp_dist=383, dist_to_home=1.3462118505135916E7, vertical_speed=0.016919209, ground_speed=25.030931, wind_vel=0.001422693, airspeed=24.946102, gps_hdop=1.21, roll=0.09, pitch=-2.38, yaw=33.42, ch3percent=63.50, ch9out=0, tot=0.0, toh=0.0, time_in_air=0.0, ch10out=0, ch11out=0, ch12out=0, battery_voltage=0, battery_current=-1, waypoints_count=0, waypoints=[], home_location={lon=0.0, lat=0.0}, ch3out=1635}
[2025-04-09 18:24:57] {GCS_IP=202.165.85.175, timestamp=2025-04-09 18:24:57, systemid=3, lat=35.0716292, lon=129.0896158, alt=30.012, dist_traveled=null, wp_dist=358, dist_to_home=1.346212207618081E7, vertical_speed=0.021843469, ground_speed=25.033073, wind_vel=0.0010062557, airspeed=24.980795, gps_hdop=1.21, roll=0.11, pitch=-2.38, yaw=33.53, ch3percent=63.30, ch9out=0, tot=0.0, toh=0.0, time_in_air=0.0, ch10out=0, ch11out=0, ch12out=0, battery_voltage=0, battery_current=-1, waypoints_count=0, waypoints=[], home_location={lon=0.0, lat=0.0}, ch3out=1633}
[2025-04-09 18:24:58] {GCS_IP=202.165.85.175, timestamp=2025-04-09 18:24:58, systemid=3, lat=35.0718176, lon=129.0897667, alt=30.005, dist_traveled=null, wp_dist=332, dist_to_home=1.346212565889093E7, vertical_speed=0.0062676272, ground_speed=25.043285, wind_vel=0.0015970331, airspeed=24.95845, gps_hdop=1.21, roll=0.18, pitch=-2.41, yaw=33.54, ch3percent=63.30, ch9out=0, tot=0.0, toh=0.0, time_in_air=0.0, ch10out=0, ch11out=0, ch12out=0, battery_voltage=0, battery_current=-1, waypoints_count=0, waypoints=[], home_location={lon=0.0, lat=0.0}, ch3out=1633}
[2025-04-09 18:24:59] {GCS_IP=202.165.85.175, timestamp=2025-04-09 18:24:59, systemid=3, lat=35.0720059, lon=129.0899175, alt=30.016, dist_traveled=null, wp_dist=307, dist_to_home=1.3462129237933738E7, vertical_speed=0.0026405335, ground_speed=25.062853, wind_vel=0.0031923708, airspeed=24.938059, gps_hdop=1.21, roll=-0.04, pitch=-2.41, yaw=33.57, ch3percent=63.70, ch9out=0, tot=0.0, toh=0.0, time_in_air=0.0, ch10out=0, ch11out=0, ch12out=0, battery_voltage=0, battery_current=-1, waypoints_count=0, waypoints=[], home_location={lon=0.0, lat=0.0}, ch3out=1637}
[2025-04-09 18:25:00] {GCS_IP=202.165.85.175, timestamp=2025-04-09 18:25:00, systemid=3, lat=35.0721934, lon=129.0900675, alt=30.024, dist_traveled=null, wp_dist=282, dist_to_home=1.3462132788509402E7, vertical_speed=-0.010990168, ground_speed=25.01264, wind_vel=0.0015650211, airspeed=25.02236, gps_hdop=1.21, roll=0.09, pitch=-2.35, yaw=33.48, ch3percent=63.20, ch9out=0, tot=0.0, toh=0.0, time_in_air=0.0, ch10out=0, ch11out=0, ch12out=0, battery_voltage=0, battery_current=-1, waypoints_count=0, waypoints=[], home_location={lon=0.0, lat=0.0}, ch3out=1632}
[2025-04-09 18:25:01] {GCS_IP=202.165.85.175, timestamp=2025-04-09 18:25:01, systemid=3, lat=35.0723808, lon=129.0902175, alt=29.992, dist_traveled=null, wp_dist=258, dist_to_home=1.346213634366547E7, vertical_speed=-0.045912694, ground_speed=24.979168, wind_vel=4.673437E-4, airspeed=24.994911, gps_hdop=1.21, roll=0.12, pitch=-2.35, yaw=33.48, ch3percent=63.20, ch9out=0, tot=0.0, toh=0.0, time_in_air=0.0, ch10out=0, ch11out=0, ch12out=0, battery_voltage=0, battery_current=-1, waypoints_count=0, waypoints=[], home_location={lon=0.0, lat=0.0}, ch3out=1632}
[2025-04-09 18:25:02] {GCS_IP=202.165.85.175, timestamp=2025-04-09 18:25:02, systemid=3, lat=35.0725688, lon=129.0903678, alt=29.983, dist_traveled=null, wp_dist=233, dist_to_home=1.3462139895216206E7, vertical_speed=-0.03167511, ground_speed=24.98982, wind_vel=9.773673E-4, airspeed=24.998833, gps_hdop=1.21, roll=0.23, pitch=-2.31, yaw=33.47, ch3percent=63.40, ch9out=0, tot=0.0, toh=0.0, time_in_air=0.0, ch10out=0, ch11out=0, ch12out=0, battery_voltage=0, battery_current=-1, waypoints_count=0, waypoints=[], home_location={lon=0.0, lat=0.0}, ch3out=1634}
[2025-04-09 18:25:03] {GCS_IP=202.165.85.175, timestamp=2025-04-09 18:25:03, systemid=3, lat=35.0727571, lon=129.0905187, alt=29.988, dist_traveled=null, wp_dist=207, dist_to_home=1.3462143482009808E7, vertical_speed=0.06202576, ground_speed=24.999876, wind_vel=0.0010527486, airspeed=24.984753, gps_hdop=1.21, roll=0.25, pitch=-2.23, yaw=33.50, ch3percent=63.60, ch9out=0, tot=0.0, toh=0.0, time_in_air=0.0, ch10out=0, ch11out=0, ch12out=0, battery_voltage=0, battery_current=-1, waypoints_count=0, waypoints=[], home_location={lon=0.0, lat=0.0}, ch3out=1636}
[2025-04-09 18:25:04] {GCS_IP=202.165.85.175, timestamp=2025-04-09 18:25:04, systemid=3, lat=35.0729455, lon=129.0906695, alt=30.0, dist_traveled=null, wp_dist=182, dist_to_home=1.3462147055729382E7, vertical_speed=-0.019708263, ground_speed=25.0227, wind_vel=6.433025E-4, airspeed=25.004402, gps_hdop=1.21, roll=0.05, pitch=-2.43, yaw=33.56, ch3percent=63.30, ch9out=0, tot=0.0, toh=0.0, time_in_air=0.0, ch10out=0, ch11out=0, ch12out=0, battery_voltage=0, battery_current=-1, waypoints_count=0, waypoints=[], home_location={lon=0.0, lat=0.0}, ch3out=1633}
[2025-04-09 18:25:05] {GCS_IP=202.165.85.175, timestamp=2025-04-09 18:25:05, systemid=3, lat=35.0731339, lon=129.0908202, alt=30.014, dist_traveled=null, wp_dist=157, dist_to_home=1.3462150621078534E7, vertical_speed=0.0126341265, ground_speed=25.032887, wind_vel=1.7415694E-4, airspeed=25.007544, gps_hdop=1.21, roll=0.30, pitch=-2.33, yaw=33.46, ch3percent=63.40, ch9out=0, tot=0.0, toh=0.0, time_in_air=0.0, ch10out=0, ch11out=0, ch12out=0, battery_voltage=0, battery_current=-1, waypoints_count=0, waypoints=[], home_location={lon=0.0, lat=0.0}, ch3out=1634}
[2025-04-09 18:25:06] {GCS_IP=202.165.85.175, timestamp=2025-04-09 18:25:06, systemid=3, lat=35.0733225, lon=129.0909711, alt=30.025, dist_traveled=null, wp_dist=132, dist_to_home=1.3462154193388315E7, vertical_speed=0.033353176, ground_speed=25.038408, wind_vel=1.3528223E-4, airspeed=25.021322, gps_hdop=1.21, roll=0.17, pitch=-2.31, yaw=33.56, ch3percent=63.20, ch9out=0, tot=0.0, toh=0.0, time_in_air=0.0, ch10out=0, ch11out=0, ch12out=0, battery_voltage=0, battery_current=-1, waypoints_count=0, waypoints=[], home_location={lon=0.0, lat=0.0}, ch3out=1632}
[2025-04-09 18:25:07] {GCS_IP=202.165.85.175, timestamp=2025-04-09 18:25:07, systemid=3, lat=35.0735106, lon=129.0911218, alt=30.037, dist_traveled=null, wp_dist=107, dist_to_home=1.3462157772599943E7, vertical_speed=0.022483468, ground_speed=25.023565, wind_vel=2.6025914E-4, airspeed=24.997217, gps_hdop=1.21, roll=0.13, pitch=-2.34, yaw=33.62, ch3percent=63.10, ch9out=0, tot=0.0, toh=0.0, time_in_air=0.0, ch10out=0, ch11out=0, ch12out=0, battery_voltage=0, battery_current=-1, waypoints_count=0, waypoints=[], home_location={lon=0.0, lat=0.0}, ch3out=1631}
[2025-04-09 18:25:08] {GCS_IP=202.165.85.175, timestamp=2025-04-09 18:25:08, systemid=3, lat=35.0736989, lon=129.091273, alt=30.035, dist_traveled=null, wp_dist=82, dist_to_home=1.3462161383510202E7, vertical_speed=0.008146535, ground_speed=25.048264, wind_vel=0.0018094009, airspeed=24.95882, gps_hdop=1.21, roll=0.03, pitch=-2.40, yaw=33.54, ch3percent=63.20, ch9out=0, tot=0.0, toh=0.0, time_in_air=0.0, ch10out=0, ch11out=0, ch12out=0, battery_voltage=0, battery_current=-1, waypoints_count=0, waypoints=[], home_location={lon=0.0, lat=0.0}, ch3out=1632}
[2025-04-09 18:25:09] {GCS_IP=202.165.85.175, timestamp=2025-04-09 18:25:09, systemid=3, lat=35.0738875, lon=129.091424, alt=30.041, dist_traveled=null, wp_dist=57, dist_to_home=1.3462164963692669E7, vertical_speed=-0.02042023, ground_speed=25.074438, wind_vel=0.0037968017, airspeed=24.971382, gps_hdop=1.21, roll=-0.09, pitch=-2.42, yaw=33.52, ch3percent=63.30, ch9out=0, tot=0.0, toh=0.0, time_in_air=0.0, ch10out=0, ch11out=0, ch12out=0, battery_voltage=0, battery_current=-1, waypoints_count=0, waypoints=[], home_location={lon=0.0, lat=0.0}, ch3out=1633}
[2025-04-09 18:25:10] {GCS_IP=202.165.85.175, timestamp=2025-04-09 18:25:10, systemid=3, lat=35.0740727, lon=129.091581, alt=29.995, dist_traveled=null, wp_dist=653, dist_to_home=1.346216919843727E7, vertical_speed=-0.7215183, ground_speed=25.142426, wind_vel=0.006693563, airspeed=24.980955, gps_hdop=1.21, roll=70.03, pitch=-1.99, yaw=42.96, ch3percent=75.90, ch9out=0, tot=0.0, toh=0.0, time_in_air=0.0, ch10out=0, ch11out=0, ch12out=0, battery_voltage=0, battery_current=-1, waypoints_count=0, waypoints=[], home_location={lon=0.0, lat=0.0}, ch3out=1759}
[2025-04-09 18:25:11] {GCS_IP=202.165.85.175, timestamp=2025-04-09 18:25:11, systemid=3, lat=35.0741322, lon=129.091827, alt=31.009, dist_traveled=null, wp_dist=667, dist_to_home=1.3462186684671285E7, vertical_speed=1.3237708, ground_speed=23.089272, wind_vel=0.007112193, airspeed=23.7963, gps_hdop=1.21, roll=53.81, pitch=2.60, yaw=88.38, ch3percent=29.00, ch9out=0, tot=0.0, toh=0.0, time_in_air=0.0, ch10out=0, ch11out=0, ch12out=0, battery_voltage=0, battery_current=-1, waypoints_count=0, waypoints=[], home_location={lon=0.0, lat=0.0}, ch3out=1290}
[2025-04-09 18:25:12] {GCS_IP=202.165.85.175, timestamp=2025-04-09 18:25:12, systemid=3, lat=35.074103, lon=129.0920714, alt=30.009, dist_traveled=null, wp_dist=671, dist_to_home=1.3462208211243875E7, vertical_speed=-2.2117603, ground_speed=22.499037, wind_vel=0.017751338, airspeed=22.67049, gps_hdop=1.21, roll=53.83, pitch=-4.66, yaw=107.28, ch3percent=44.40, ch9out=0, tot=0.0, toh=0.0, time_in_air=0.0, ch10out=0, ch11out=0, ch12out=0, battery_voltage=0, battery_current=-1, waypoints_count=0, waypoints=[], home_location={lon=0.0, lat=0.0}, ch3out=1444}
[2025-04-09 18:25:13] {GCS_IP=202.165.85.175, timestamp=2025-04-09 18:25:13, systemid=3, lat=35.0739921, lon=129.092277, alt=27.67, dist_traveled=null, wp_dist=667, dist_to_home=1.3462230381480029E7, vertical_speed=-2.0471268, ground_speed=23.160461, wind_vel=0.018166509, airspeed=23.06197, gps_hdop=1.21, roll=54.75, pitch=-3.71, yaw=137.94, ch3percent=61.60, ch9out=0, tot=0.0, toh=0.0, time_in_air=0.0, ch10out=0, ch11out=0, ch12out=0, battery_voltage=0, battery_current=-1, waypoints_count=0, waypoints=[], home_location={lon=0.0, lat=0.0}, ch3out=1616}
[2025-04-09 18:25:14] {GCS_IP=202.165.85.175, timestamp=2025-04-09 18:25:14, systemid=3, lat=35.0738011, lon=129.0923838, alt=26.112, dist_traveled=null, wp_dist=651, dist_to_home=1.3462248172588326E7, vertical_speed=-1.0429473, ground_speed=24.113241, wind_vel=0.014704342, airspeed=23.919138, gps_hdop=1.21, roll=53.47, pitch=-1.62, yaw=169.49, ch3percent=68.60, ch9out=0, tot=0.0, toh=0.0, time_in_air=0.0, ch10out=0, ch11out=0, ch12out=0, battery_voltage=0, battery_current=-1, waypoints_count=0, waypoints=[], home_location={lon=0.0, lat=0.0}, ch3out=1686}
[2025-04-09 18:25:15] {GCS_IP=202.165.85.175, timestamp=2025-04-09 18:25:15, systemid=3, lat=35.0735839, lon=129.0923646, alt=25.288, dist_traveled=null, wp_dist=628, dist_to_home=1.3462256806204135E7, vertical_speed=-0.7025627, ground_speed=24.70645, wind_vel=0.014237307, airspeed=24.566463, gps_hdop=1.21, roll=46.54, pitch=-1.66, yaw=-166.43, ch3percent=64.70, ch9out=0, tot=0.0, toh=0.0, time_in_air=0.0, ch10out=0, ch11out=0, ch12out=0, battery_voltage=0, battery_current=-1, waypoints_count=0, waypoints=[], home_location={lon=0.0, lat=0.0}, ch3out=1647}
[2025-04-09 18:25:16] {GCS_IP=202.165.85.175, timestamp=2025-04-09 18:25:16, systemid=3, lat=35.0733804, lon=129.0922521, alt=24.476, dist_traveled=null, wp_dist=603, dist_to_home=1.3462257101808835E7, vertical_speed=-0.82541585, ground_speed=24.961851, wind_vel=0.016246552, airspeed=24.915792, gps_hdop=1.21, roll=32.22, pitch=-3.02, yaw=-150.82, ch3percent=61.50, ch9out=0, tot=0.0, toh=0.0, time_in_air=0.0, ch10out=0, ch11out=0, ch12out=0, battery_voltage=0, battery_current=-1, waypoints_count=0, waypoints=[], home_location={lon=0.0, lat=0.0}, ch3out=1615}
[2025-04-09 18:25:17] {GCS_IP=202.165.85.175, timestamp=2025-04-09 18:25:17, systemid=3, lat=35.0731988, lon=129.0920906, alt=23.755, dist_traveled=null, wp_dist=579, dist_to_home=1.3462252326609245E7, vertical_speed=-0.49068895, ground_speed=25.160051, wind_vel=0.018934052, airspeed=25.078798, gps_hdop=1.21, roll=12.21, pitch=-3.39, yaw=-141.97, ch3percent=63.60, ch9out=0, tot=0.0, toh=0.0, time_in_air=0.0, ch10out=0, ch11out=0, ch12out=0, battery_voltage=0, battery_current=-1, waypoints_count=0, waypoints=[], home_location={lon=0.0, lat=0.0}, ch3out=1636}
[2025-04-09 18:25:18] {GCS_IP=202.165.85.175, timestamp=2025-04-09 18:25:18, systemid=3, lat=35.0730247, lon=129.0919105, alt=23.534, dist_traveled=null, wp_dist=555, dist_to_home=1.3462245664730944E7, vertical_speed=0.117218755, ground_speed=25.336088, wind_vel=0.020501452, airspeed=25.230085, gps_hdop=1.21, roll=-3.03, pitch=-2.24, yaw=-139.54, ch3percent=67.80, ch9out=0, tot=0.0, toh=0.0, time_in_air=0.0, ch10out=0, ch11out=0, ch12out=0, battery_voltage=0, battery_current=-1, waypoints_count=0, waypoints=[], home_location={lon=0.0, lat=0.0}, ch3out=1678}
[2025-04-09 18:25:19] {GCS_IP=202.165.85.175, timestamp=2025-04-09 18:25:19, systemid=3, lat=35.0728482, lon=129.0917346, alt=23.931, dist_traveled=null, wp_dist=531, dist_to_home=1.3462239461946012E7, vertical_speed=0.545964, ground_speed=25.42643, wind_vel=0.020926222, airspeed=25.323574, gps_hdop=1.21, roll=-10.36, pitch=-1.22, yaw=-141.50, ch3percent=69.60, ch9out=0, tot=0.0, toh=0.0, time_in_air=0.0, ch10out=0, ch11out=0, ch12out=0, battery_voltage=0, battery_current=-1, waypoints_count=0, waypoints=[], home_location={lon=0.0, lat=0.0}, ch3out=1696}
[2025-04-09 18:25:20] {GCS_IP=202.165.85.175, timestamp=2025-04-09 18:25:20, systemid=3, lat=35.0726637, lon=129.0915732, alt=24.652, dist_traveled=null, wp_dist=507, dist_to_home=1.3462234831014626E7, vertical_speed=0.78890944, ground_speed=25.361233, wind_vel=0.018281944, airspeed=25.3886, gps_hdop=1.21, roll=-12.65, pitch=-0.53, yaw=-145.45, ch3percent=69.50, ch9out=0, tot=0.0, toh=0.0, time_in_air=0.0, ch10out=0, ch11out=0, ch12out=0, battery_voltage=0, battery_current=-1, waypoints_count=0, waypoints=[], home_location={lon=0.0, lat=0.0}, ch3out=1695}
[2025-04-09 18:25:21] {GCS_IP=202.165.85.175, timestamp=2025-04-09 18:25:21, systemid=3, lat=35.0724695, lon=129.0914289, alt=25.426, dist_traveled=null, wp_dist=482, dist_to_home=1.346223206630448E7, vertical_speed=0.7484482, ground_speed=25.320719, wind_vel=0.016361183, airspeed=25.339151, gps_hdop=1.21, roll=-12.21, pitch=-0.60, yaw=-149.72, ch3percent=68.60, ch9out=0, tot=0.0, toh=0.0, time_in_air=0.0, ch10out=0, ch11out=0, ch12out=0, battery_voltage=0, battery_current=-1, waypoints_count=0, waypoints=[], home_location={lon=0.0, lat=0.0}, ch3out=1686}
[2025-04-09 18:25:22] {GCS_IP=202.165.85.175, timestamp=2025-04-09 18:25:22, systemid=3, lat=35.0722686, lon=129.0913028, alt=26.187, dist_traveled=null, wp_dist=457, dist_to_home=1.3462231117422307E7, vertical_speed=0.74829626, ground_speed=25.184965, wind_vel=0.0137824295, airspeed=25.268206, gps_hdop=1.21, roll=-10.63, pitch=-0.56, yaw=-153.80, ch3percent=67.50, ch9out=0, tot=0.0, toh=0.0, time_in_air=0.0, ch10out=0, ch11out=0, ch12out=0, battery_voltage=0, battery_current=-1, waypoints_count=0, waypoints=[], home_location={lon=0.0, lat=0.0}, ch3out=1675}
[2025-04-09 18:25:23] {GCS_IP=202.165.85.175, timestamp=2025-04-09 18:25:23, systemid=3, lat=35.0720608, lon=129.0911919, alt=26.858, dist_traveled=null, wp_dist=432, dist_to_home=1.3462231746399129E7, vertical_speed=0.59929097, ground_speed=25.12757, wind_vel=0.012572068, airspeed=25.152578, gps_hdop=1.21, roll=-8.17, pitch=-0.94, yaw=-156.94, ch3percent=66.60, ch9out=0, tot=0.0, toh=0.0, time_in_air=0.0, ch10out=0, ch11out=0, ch12out=0, battery_voltage=0, battery_current=-1, waypoints_count=0, waypoints=[], home_location={lon=0.0, lat=0.0}, ch3out=1666}
[2025-04-09 18:25:24] {GCS_IP=202.165.85.175, timestamp=2025-04-09 18:25:24, systemid=3, lat=35.0718502, lon=129.0910932, alt=27.421, dist_traveled=null, wp_dist=407, dist_to_home=1.3462233513010023E7, vertical_speed=0.49605578, ground_speed=25.045687, wind_vel=0.01132276, airspeed=25.092138, gps_hdop=1.21, roll=-5.63, pitch=-1.26, yaw=-159.47, ch3percent=65.70, ch9out=0, tot=0.0, toh=0.0, time_in_air=0.0, ch10out=0, ch11out=0, ch12out=0, battery_voltage=0, battery_current=-1, waypoints_count=0, waypoints=[], home_location={lon=0.0, lat=0.0}, ch3out=1657}
[2025-04-09 18:25:25] {GCS_IP=202.165.85.175, timestamp=2025-04-09 18:25:25, systemid=3, lat=35.0716382, lon=129.0910036, alt=27.863, dist_traveled=null, wp_dist=382, dist_to_home=1.346223609577982E7, vertical_speed=0.42170885, ground_speed=24.973667, wind_vel=0.010491168, airspeed=24.995626, gps_hdop=1.21, roll=-3.13, pitch=-1.40, yaw=-161.05, ch3percent=65.60, ch9out=0, tot=0.0, toh=0.0, time_in_air=0.0, ch10out=0, ch11out=0, ch12out=0, battery_voltage=0, battery_current=-1, waypoints_count=0, waypoints=[], home_location={lon=0.0, lat=0.0}, ch3out=1656}
[2025-04-09 18:25:26] {GCS_IP=202.165.85.175, timestamp=2025-04-09 18:25:26, systemid=3, lat=35.0714237, lon=129.0909184, alt=28.218, dist_traveled=null, wp_dist=357, dist_to_home=1.3462239158876058E7, vertical_speed=0.3591947, ground_speed=24.990204, wind_vel=0.009577342, airspeed=24.973732, gps_hdop=1.21, roll=-1.39, pitch=-1.54, yaw=-161.99, ch3percent=65.20, ch9out=0, tot=0.0, toh=0.0, time_in_air=0.0, ch10out=0, ch11out=0, ch12out=0, battery_voltage=0, battery_current=-1, waypoints_count=0, waypoints=[], home_location={lon=0.0, lat=0.0}, ch3out=1652}
[2025-04-09 18:25:27] {GCS_IP=202.165.85.175, timestamp=2025-04-09 18:25:27, systemid=3, lat=35.0712104, lon=129.0908362, alt=28.55, dist_traveled=null, wp_dist=332, dist_to_home=1.34622424128243E7, vertical_speed=0.26190335, ground_speed=24.94135, wind_vel=0.0097108185, airspeed=24.948036, gps_hdop=1.21, roll=0.10, pitch=-1.75, yaw=-162.29, ch3percent=64.60, ch9out=0, tot=0.0, toh=0.0, time_in_air=0.0, ch10out=0, ch11out=0, ch12out=0, battery_voltage=0, battery_current=-1, waypoints_count=0, waypoints=[], home_location={lon=0.0, lat=0.0}, ch3out=1646}
[2025-04-09 18:25:28] {GCS_IP=202.165.85.175, timestamp=2025-04-09 18:25:28, systemid=3, lat=35.070997, lon=129.0907543, alt=28.799, dist_traveled=null, wp_dist=307, dist_to_home=1.3462245696119662E7, vertical_speed=0.23521118, ground_speed=24.906769, wind_vel=0.010649721, airspeed=24.930775, gps_hdop=1.21, roll=0.89, pitch=-1.81, yaw=-162.15, ch3percent=64.50, ch9out=0, tot=0.0, toh=0.0, time_in_air=0.0, ch10out=0, ch11out=0, ch12out=0, battery_voltage=0, battery_current=-1, waypoints_count=0, waypoints=[], home_location={lon=0.0, lat=0.0}, ch3out=1645}
[2025-04-09 18:25:29] {GCS_IP=202.165.85.175, timestamp=2025-04-09 18:25:29, systemid=3, lat=35.0707831, lon=129.090671, alt=29.033, dist_traveled=null, wp_dist=282, dist_to_home=1.346224888738616E7, vertical_speed=0.2285843, ground_speed=24.93628, wind_vel=0.010914613, airspeed=24.960388, gps_hdop=1.21, roll=1.03, pitch=-1.83, yaw=-161.98, ch3percent=64.40, ch9out=0, tot=0.0, toh=0.0, time_in_air=0.0, ch10out=0, ch11out=0, ch12out=0, battery_voltage=0, battery_current=-1, waypoints_count=0, waypoints=[], home_location={lon=0.0, lat=0.0}, ch3out=1644}
[2025-04-09 18:25:30] {GCS_IP=202.165.85.175, timestamp=2025-04-09 18:25:30, systemid=3, lat=35.0705696, lon=129.0905864, alt=29.235, dist_traveled=null, wp_dist=257, dist_to_home=1.3462251952538323E7, vertical_speed=0.2029304, ground_speed=24.944708, wind_vel=0.011187744, airspeed=24.92915, gps_hdop=1.21, roll=1.28, pitch=-1.85, yaw=-161.63, ch3percent=64.10, ch9out=0, tot=0.0, toh=0.0, time_in_air=0.0, ch10out=0, ch11out=0, ch12out=0, battery_voltage=0, battery_current=-1, waypoints_count=0, waypoints=[], home_location={lon=0.0, lat=0.0}, ch3out=1641}
[2025-04-09 18:25:31] {GCS_IP=202.165.85.175, timestamp=2025-04-09 18:25:31, systemid=3, lat=35.0703561, lon=129.0904997, alt=29.398, dist_traveled=null, wp_dist=232, dist_to_home=1.3462254844416281E7, vertical_speed=0.16888022, ground_speed=24.966219, wind_vel=0.010282789, airspeed=24.907187, gps_hdop=1.21, roll=1.16, pitch=-2.01, yaw=-161.18, ch3percent=64.10, ch9out=0, tot=0.0, toh=0.0, time_in_air=0.0, ch10out=0, ch11out=0, ch12out=0, battery_voltage=0, battery_current=-1, waypoints_count=0, waypoints=[], home_location={lon=0.0, lat=0.0}, ch3out=1641}
[2025-04-09 18:25:32] {GCS_IP=202.165.85.175, timestamp=2025-04-09 18:25:32, systemid=3, lat=35.0701437, lon=129.0904115, alt=29.526, dist_traveled=null, wp_dist=207, dist_to_home=1.3462257560761193E7, vertical_speed=0.09150108, ground_speed=24.99198, wind_vel=0.009464089, airspeed=24.91878, gps_hdop=1.21, roll=0.91, pitch=-2.19, yaw=-160.83, ch3percent=63.90, ch9out=0, tot=0.0, toh=0.0, time_in_air=0.0, ch10out=0, ch11out=0, ch12out=0, battery_voltage=0, battery_current=-1, waypoints_count=0, waypoints=[], home_location={lon=0.0, lat=0.0}, ch3out=1639}
[2025-04-09 18:25:33] {GCS_IP=202.165.85.175, timestamp=2025-04-09 18:25:33, systemid=3, lat=35.0699312, lon=129.0903218, alt=29.618, dist_traveled=null, wp_dist=182, dist_to_home=1.3462260158011517E7, vertical_speed=0.10850346, ground_speed=25.012062, wind_vel=0.008400535, airspeed=24.93185, gps_hdop=1.21, roll=0.30, pitch=-2.12, yaw=-160.66, ch3percent=63.90, ch9out=0, tot=0.0, toh=0.0, time_in_air=0.0, ch10out=0, ch11out=0, ch12out=0, battery_voltage=0, battery_current=-1, waypoints_count=0, waypoints=[], home_location={lon=0.0, lat=0.0}, ch3out=1639}
[2025-04-09 18:25:34] {GCS_IP=202.165.85.175, timestamp=2025-04-09 18:25:34, systemid=3, lat=35.0697191, lon=129.0902317, alt=29.704, dist_traveled=null, wp_dist=157, dist_to_home=1.3462262703362426E7, vertical_speed=0.085043974, ground_speed=25.007542, wind_vel=0.007677009, airspeed=24.941387, gps_hdop=1.21, roll=0.47, pitch=-2.25, yaw=-160.49, ch3percent=63.60, ch9out=0, tot=0.0, toh=0.0, time_in_air=0.0, ch10out=0, ch11out=0, ch12out=0, battery_voltage=0, battery_current=-1, waypoints_count=0, waypoints=[], home_location={lon=0.0, lat=0.0}, ch3out=1636}
[2025-04-09 18:25:35] {GCS_IP=202.165.85.175, timestamp=2025-04-09 18:25:35, systemid=3, lat=35.0695069, lon=129.0901409, alt=29.762, dist_traveled=null, wp_dist=132, dist_to_home=1.3462265195589816E7, vertical_speed=0.06943747, ground_speed=25.025143, wind_vel=0.0069332747, airspeed=24.920872, gps_hdop=1.21, roll=0.10, pitch=-2.18, yaw=-160.38, ch3percent=63.90, ch9out=0, tot=0.0, toh=0.0, time_in_air=0.0, ch10out=0, ch11out=0, ch12out=0, battery_voltage=0, battery_current=-1, waypoints_count=0, waypoints=[], home_location={lon=0.0, lat=0.0}, ch3out=1639}
[2025-04-09 18:25:36] {GCS_IP=202.165.85.175, timestamp=2025-04-09 18:25:36, systemid=3, lat=35.0692948, lon=129.09005, alt=29.819, dist_traveled=null, wp_dist=107, dist_to_home=1.3462267674766734E7, vertical_speed=0.046669055, ground_speed=25.0266, wind_vel=0.0066014617, airspeed=24.955292, gps_hdop=1.21, roll=-0.17, pitch=-2.30, yaw=-160.37, ch3percent=63.80, ch9out=0, tot=0.0, toh=0.0, time_in_air=0.0, ch10out=0, ch11out=0, ch12out=0, battery_voltage=0, battery_current=-1, waypoints_count=0, waypoints=[], home_location={lon=0.0, lat=0.0}, ch3out=1638}
[2025-04-09 18:25:37] {GCS_IP=202.165.85.175, timestamp=2025-04-09 18:25:37, systemid=3, lat=35.0690824, lon=129.0899593, alt=29.843, dist_traveled=null, wp_dist=82, dist_to_home=1.3462270184445783E7, vertical_speed=0.0065523773, ground_speed=25.03409, wind_vel=0.006169502, airspeed=25.003128, gps_hdop=1.21, roll=0.19, pitch=-2.36, yaw=-160.42, ch3percent=63.40, ch9out=0, tot=0.0, toh=0.0, time_in_air=0.0, ch10out=0, ch11out=0, ch12out=0, battery_voltage=0, battery_current=-1, waypoints_count=0, waypoints=[], home_location={lon=0.0, lat=0.0}, ch3out=1634}
[2025-04-09 18:25:38] {GCS_IP=202.165.85.175, timestamp=2025-04-09 18:25:38, systemid=3, lat=35.0688702, lon=129.0898686, alt=29.882, dist_traveled=null, wp_dist=57, dist_to_home=1.3462272684617976E7, vertical_speed=0.0556592, ground_speed=25.021328, wind_vel=0.005826437, airspeed=24.991293, gps_hdop=1.21, roll=0.10, pitch=-2.24, yaw=-160.49, ch3percent=63.30, ch9out=0, tot=0.0, toh=0.0, time_in_air=0.0, ch10out=0, ch11out=0, ch12out=0, battery_voltage=0, battery_current=-1, waypoints_count=0, waypoints=[], home_location={lon=0.0, lat=0.0}, ch3out=1633}
[2025-04-09 18:25:39] {GCS_IP=202.165.85.175, timestamp=2025-04-09 18:25:39, systemid=3, lat=35.0686577, lon=129.089778, alt=29.903, dist_traveled=null, wp_dist=284, dist_to_home=1.3462275207045525E7, vertical_speed=0.018362487, ground_speed=25.019403, wind_vel=0.0056326617, airspeed=25.008085, gps_hdop=1.21, roll=0.01, pitch=-2.32, yaw=-160.44, ch3percent=63.30, ch9out=0, tot=0.0, toh=0.0, time_in_air=0.0, ch10out=0, ch11out=0, ch12out=0, battery_voltage=0, battery_current=-1, waypoints_count=0, waypoints=[], home_location={lon=0.0, lat=0.0}, ch3out=1633}
[2025-04-09 18:25:40] {GCS_IP=202.165.85.175, timestamp=2025-04-09 18:25:40, systemid=3, lat=35.0684507, lon=129.089672, alt=29.942, dist_traveled=null, wp_dist=262, dist_to_home=1.3462276200695498E7, vertical_speed=0.54644895, ground_speed=25.126978, wind_vel=0.004037272, airspeed=25.055386, gps_hdop=1.21, roll=39.41, pitch=2.13, yaw=-150.88, ch3percent=74.50, ch9out=0, tot=0.0, toh=0.0, time_in_air=0.0, ch10out=0, ch11out=0, ch12out=0, battery_voltage=0, battery_current=-1, waypoints_count=0, waypoints=[], home_location={lon=0.0, lat=0.0}, ch3out=1745}
[2025-04-09 18:25:41] {GCS_IP=202.165.85.175, timestamp=2025-04-09 18:25:41, systemid=3, lat=35.0682687, lon=129.089509, alt=30.437, dist_traveled=null, wp_dist=238, dist_to_home=1.3462271317784354E7, vertical_speed=-0.25209448, ground_speed=25.055288, wind_vel=0.007948847, airspeed=25.019876, gps_hdop=1.21, roll=25.61, pitch=-2.36, yaw=-141.13, ch3percent=62.30, ch9out=0, tot=0.0, toh=0.0, time_in_air=0.0, ch10out=0, ch11out=0, ch12out=0, battery_voltage=0, battery_current=-1, waypoints_count=0, waypoints=[], home_location={lon=0.0, lat=0.0}, ch3out=1623}
[2025-04-09 18:25:42] {GCS_IP=202.165.85.175, timestamp=2025-04-09 18:25:42, systemid=3, lat=35.0681076, lon=129.0893161, alt=30.367, dist_traveled=null, wp_dist=213, dist_to_home=1.3462262986012427E7, vertical_speed=-0.18407391, ground_speed=25.045748, wind_vel=0.010990346, airspeed=25.037666, gps_hdop=1.21, roll=18.35, pitch=-2.50, yaw=-133.07, ch3percent=61.70, ch9out=0, tot=0.0, toh=0.0, time_in_air=0.0, ch10out=0, ch11out=0, ch12out=0, battery_voltage=0, battery_current=-1, waypoints_count=0, waypoints=[], home_location={lon=0.0, lat=0.0}, ch3out=1617}
[2025-04-09 18:25:43] {GCS_IP=202.165.85.175, timestamp=2025-04-09 18:25:43, systemid=3, lat=35.0679655, lon=129.0891023, alt=30.195, dist_traveled=null, wp_dist=188, dist_to_home=1.3462252036954973E7, vertical_speed=-0.18591982, ground_speed=25.028349, wind_vel=0.012597169, airspeed=24.978031, gps_hdop=1.21, roll=12.68, pitch=-2.64, yaw=-127.51, ch3percent=61.80, ch9out=0, tot=0.0, toh=0.0, time_in_air=0.0, ch10out=0, ch11out=0, ch12out=0, battery_voltage=0, battery_current=-1, waypoints_count=0, waypoints=[], home_location={lon=0.0, lat=0.0}, ch3out=1618}
[2025-04-09 18:25:44] {GCS_IP=202.165.85.175, timestamp=2025-04-09 18:25:44, systemid=3, lat=35.0678378, lon=129.0888781, alt=29.997, dist_traveled=null, wp_dist=163, dist_to_home=1.3462239552877955E7, vertical_speed=-0.14375284, ground_speed=24.985033, wind_vel=0.011342102, airspeed=24.959595, gps_hdop=1.21, roll=6.88, pitch=-2.74, yaw=-123.84, ch3percent=62.50, ch9out=0, tot=0.0, toh=0.0, time_in_air=0.0, ch10out=0, ch11out=0, ch12out=0, battery_voltage=0, battery_current=-1, waypoints_count=0, waypoints=[], home_location={lon=0.0, lat=0.0}, ch3out=1625}
[2025-04-09 18:25:45] {GCS_IP=202.165.85.175, timestamp=2025-04-09 18:25:45, systemid=3, lat=35.067717, lon=129.0886471, alt=29.868, dist_traveled=null, wp_dist=138, dist_to_home=1.3462226183392089E7, vertical_speed=-0.09154832, ground_speed=24.987915, wind_vel=0.010235073, airspeed=24.985619, gps_hdop=1.21, roll=2.35, pitch=-2.64, yaw=-122.08, ch3percent=63.00, ch9out=0, tot=0.0, toh=0.0, time_in_air=0.0, ch10out=0, ch11out=0, ch12out=0, battery_voltage=0, battery_current=-1, waypoints_count=0, waypoints=[], home_location={lon=0.0, lat=0.0}, ch3out=1630}
[2025-04-09 18:25:46] {GCS_IP=202.165.85.175, timestamp=2025-04-09 18:25:46, systemid=3, lat=35.0675985, lon=129.0884138, alt=29.794, dist_traveled=null, wp_dist=113, dist_to_home=1.346221251594267E7, vertical_speed=-0.0093992045, ground_speed=25.02212, wind_vel=0.01007386, airspeed=24.983656, gps_hdop=1.21, roll=-0.67, pitch=-2.38, yaw=-121.57, ch3percent=63.40, ch9out=0, tot=0.0, toh=0.0, time_in_air=0.0, ch10out=0, ch11out=0, ch12out=0, battery_voltage=0, battery_current=-1, waypoints_count=0, waypoints=[], home_location={lon=0.0, lat=0.0}, ch3out=1634}
[2025-04-09 18:25:47] {GCS_IP=202.165.85.175, timestamp=2025-04-09 18:25:47, systemid=3, lat=35.0674787, lon=129.0881797, alt=29.791, dist_traveled=null, wp_dist=88, dist_to_home=1.3462198843533946E7, vertical_speed=0.022937989, ground_speed=25.043041, wind_vel=0.009426325, airspeed=25.037409, gps_hdop=1.21, roll=-2.13, pitch=-2.35, yaw=-121.99, ch3percent=63.40, ch9out=0, tot=0.0, toh=0.0, time_in_air=0.0, ch10out=0, ch11out=0, ch12out=0, battery_voltage=0, battery_current=-1, waypoints_count=0, waypoints=[], home_location={lon=0.0, lat=0.0}, ch3out=1634}
[2025-04-09 18:25:48] {GCS_IP=202.165.85.175, timestamp=2025-04-09 18:25:48, systemid=3, lat=35.0673571, lon=129.0879487, alt=29.829, dist_traveled=null, wp_dist=63, dist_to_home=1.3462185511312477E7, vertical_speed=0.03335803, ground_speed=25.045378, wind_vel=0.009273749, airspeed=25.0206, gps_hdop=1.21, roll=-2.69, pitch=-2.36, yaw=-122.85, ch3percent=63.60, ch9out=0, tot=0.0, toh=0.0, time_in_air=0.0, ch10out=0, ch11out=0, ch12out=0, battery_voltage=0, battery_current=-1, waypoints_count=0, waypoints=[], home_location={lon=0.0, lat=0.0}, ch3out=1636}
[2025-04-09 18:25:49] {GCS_IP=202.165.85.175, timestamp=2025-04-09 18:25:49, systemid=3, lat=35.0672318, lon=129.0877192, alt=29.881, dist_traveled=null, wp_dist=38, dist_to_home=1.346217247667494E7, vertical_speed=0.081393555, ground_speed=25.069698, wind_vel=0.010268443, airspeed=24.971994, gps_hdop=1.21, roll=-2.57, pitch=-2.25, yaw=-123.69, ch3percent=63.30, ch9out=0, tot=0.0, toh=0.0, time_in_air=0.0, ch10out=0, ch11out=0, ch12out=0, battery_voltage=0, battery_current=-1, waypoints_count=0, waypoints=[], home_location={lon=0.0, lat=0.0}, ch3out=1633}
[2025-04-09 18:25:50] {GCS_IP=202.165.85.175, timestamp=2025-04-09 18:25:50, systemid=3, lat=35.0671037, lon=129.0874922, alt=29.924, dist_traveled=null, wp_dist=13, dist_to_home=1.3462159779765852E7, vertical_speed=-0.015674535, ground_speed=25.068321, wind_vel=0.011481039, airspeed=24.980492, gps_hdop=1.21, roll=-2.20, pitch=-2.45, yaw=-124.53, ch3percent=63.20, ch9out=0, tot=0.0, toh=0.0, time_in_air=0.0, ch10out=0, ch11out=0, ch12out=0, battery_voltage=0, battery_current=-1, waypoints_count=0, waypoints=[], home_location={lon=0.0, lat=0.0}, ch3out=1632}
[2025-04-09 18:25:51] {GCS_IP=202.165.85.175, timestamp=2025-04-09 18:25:51, systemid=3, lat=35.0669735, lon=129.0872677, alt=29.943, dist_traveled=null, wp_dist=116, dist_to_home=1.3462147387665998E7, vertical_speed=-0.04069034, ground_speed=25.072556, wind_vel=0.013714186, airspeed=24.976412, gps_hdop=1.21, roll=-1.24, pitch=-2.52, yaw=-125.18, ch3percent=63.50, ch9out=0, tot=0.0, toh=0.0, time_in_air=0.0, ch10out=0, ch11out=0, ch12out=0, battery_voltage=0, battery_current=-1, waypoints_count=0, waypoints=[], home_location={lon=0.0, lat=0.0}, ch3out=1635}
[2025-04-09 18:25:52] {GCS_IP=202.165.85.175, timestamp=2025-04-09 18:25:52, systemid=3, lat=35.0668602, lon=129.0870301, alt=29.925, dist_traveled=null, wp_dist=98, dist_to_home=1.3462133120340081E7, vertical_speed=0.8957229, ground_speed=25.367651, wind_vel=0.014833723, airspeed=25.090738, gps_hdop=1.21, roll=49.32, pitch=5.05, yaw=-106.86, ch3percent=90.30, ch9out=0, tot=0.0, toh=0.0, time_in_air=0.0, ch10out=0, ch11out=0, ch12out=0, battery_voltage=0, battery_current=-1, waypoints_count=0, waypoints=[], home_location={lon=0.0, lat=0.0}, ch3out=1903}
[2025-04-09 18:25:53] {GCS_IP=202.165.85.175, timestamp=2025-04-09 18:25:53, systemid=3, lat=35.0668304, lon=129.086758, alt=31.14, dist_traveled=null, wp_dist=77, dist_to_home=1.3462112081063855E7, vertical_speed=-0.3506893, ground_speed=25.052423, wind_vel=0.014194267, airspeed=25.116386, gps_hdop=1.21, roll=39.29, pitch=-1.99, yaw=-94.50, ch3percent=62.80, ch9out=0, tot=0.0, toh=0.0, time_in_air=0.0, ch10out=0, ch11out=0, ch12out=0, battery_voltage=0, battery_current=-1, waypoints_count=0, waypoints=[], home_location={lon=0.0, lat=0.0}, ch3out=1628}
[2025-04-09 18:25:54] {GCS_IP=202.165.85.175, timestamp=2025-04-09 18:25:54, systemid=3, lat=35.066854, lon=129.0864858, alt=31.035, dist_traveled=null, wp_dist=958, dist_to_home=1.346208852238813E7, vertical_speed=-0.2416357, ground_speed=25.128231, wind_vel=0.011513072, airspeed=25.096312, gps_hdop=1.21, roll=56.81, pitch=-0.82, yaw=-74.39, ch3percent=81.90, ch9out=0, tot=0.0, toh=0.0, time_in_air=0.0, ch10out=0, ch11out=0, ch12out=0, battery_voltage=0, battery_current=-1, waypoints_count=0, waypoints=[], home_location={lon=0.0, lat=0.0}, ch3out=1819}
[2025-04-09 18:25:55] {GCS_IP=202.165.85.175, timestamp=2025-04-09 18:25:55, systemid=3, lat=35.066985, lon=129.0862636, alt=31.951, dist_traveled=null, wp_dist=957, dist_to_home=1.34620640369297E7, vertical_speed=1.7713792, ground_speed=25.402939, wind_vel=0.015125576, airspeed=25.554575, gps_hdop=1.21, roll=52.85, pitch=3.98, yaw=-40.28, ch3percent=69.40, ch9out=0, tot=0.0, toh=0.0, time_in_air=0.0, ch10out=0, ch11out=0, ch12out=0, battery_voltage=0, battery_current=-1, waypoints_count=0, waypoints=[], home_location={lon=0.0, lat=0.0}, ch3out=1694}
[2025-04-09 18:25:56] {GCS_IP=202.165.85.175, timestamp=2025-04-09 18:25:56, systemid=3, lat=35.0671827, lon=129.0861272, alt=32.507, dist_traveled=null, wp_dist=945, dist_to_home=1.3462043491106408E7, vertical_speed=-0.19216436, ground_speed=25.252459, wind_vel=0.013007101, airspeed=25.36174, gps_hdop=1.21, roll=52.04, pitch=-0.26, yaw=-21.31, ch3percent=63.40, ch9out=0, tot=0.0, toh=0.0, time_in_air=0.0, ch10out=0, ch11out=0, ch12out=0, battery_voltage=0, battery_current=-1, waypoints_count=0, waypoints=[], home_location={lon=0.0, lat=0.0}, ch3out=1634}
[2025-04-09 18:25:57] {GCS_IP=202.165.85.175, timestamp=2025-04-09 18:25:57, systemid=3, lat=35.0674057, lon=129.086089, alt=32.148, dist_traveled=null, wp_dist=927, dist_to_home=1.3462029854314666E7, vertical_speed=-0.50679016, ground_speed=25.097157, wind_vel=0.011520106, airspeed=25.207685, gps_hdop=1.21, roll=47.71, pitch=-1.29, yaw=0.40, ch3percent=58.70, ch9out=0, tot=0.0, toh=0.0, time_in_air=0.0, ch10out=0, ch11out=0, ch12out=0, battery_voltage=0, battery_current=-1, waypoints_count=0, waypoints=[], home_location={lon=0.0, lat=0.0}, ch3out=1587}
[2025-04-09 18:25:58] {GCS_IP=202.165.85.175, timestamp=2025-04-09 18:25:58, systemid=3, lat=35.0676254, lon=129.0861452, alt=31.345, dist_traveled=null, wp_dist=904, dist_to_home=1.3462024157966925E7, vertical_speed=-0.9063489, ground_speed=24.936459, wind_vel=0.010190345, airspeed=24.985363, gps_hdop=1.21, roll=40.27, pitch=-2.71, yaw=17.91, ch3percent=55.90, ch9out=0, tot=0.0, toh=0.0, time_in_air=0.0, ch10out=0, ch11out=0, ch12out=0, battery_voltage=0, battery_current=-1, waypoints_count=0, waypoints=[], home_location={lon=0.0, lat=0.0}, ch3out=1559}
[2025-04-09 18:25:59] {GCS_IP=202.165.85.175, timestamp=2025-04-09 18:25:59, systemid=3, lat=35.0678243, lon=129.0862709, alt=30.278, dist_traveled=null, wp_dist=879, dist_to_home=1.3462025171381492E7, vertical_speed=-1.001872, ground_speed=24.870094, wind_vel=0.008189483, airspeed=24.894281, gps_hdop=1.21, roll=29.08, pitch=-3.62, yaw=31.23, ch3percent=56.00, ch9out=0, tot=0.0, toh=0.0, time_in_air=0.0, ch10out=0, ch11out=0, ch12out=0, battery_voltage=0, battery_current=-1, waypoints_count=0, waypoints=[], home_location={lon=0.0, lat=0.0}, ch3out=1560}
[2025-04-09 18:26:00] {GCS_IP=202.165.85.175, timestamp=2025-04-09 18:26:00, systemid=3, lat=35.068001, lon=129.0864392, alt=29.269, dist_traveled=null, wp_dist=854, dist_to_home=1.3462030741887074E7, vertical_speed=-0.7981017, ground_speed=24.903065, wind_vel=0.005650772, airspeed=24.840628, gps_hdop=1.21, roll=15.48, pitch=-3.79, yaw=39.71, ch3percent=58.60, ch9out=0, tot=0.0, toh=0.0, time_in_air=0.0, ch10out=0, ch11out=0, ch12out=0, battery_voltage=0, battery_current=-1, waypoints_count=0, waypoints=[], home_location={lon=0.0, lat=0.0}, ch3out=1586}
[2025-04-09 18:26:01] {GCS_IP=202.165.85.175, timestamp=2025-04-09 18:26:01, systemid=3, lat=35.068164, lon=129.0866276, alt=28.616, dist_traveled=null, wp_dist=830, dist_to_home=1.3462038614169147E7, vertical_speed=-0.40601966, ground_speed=24.99755, wind_vel=0.0037148516, airspeed=24.87957, gps_hdop=1.21, roll=4.25, pitch=-3.18, yaw=43.74, ch3percent=61.60, ch9out=0, tot=0.0, toh=0.0, time_in_air=0.0, ch10out=0, ch11out=0, ch12out=0, battery_voltage=0, battery_current=-1, waypoints_count=0, waypoints=[], home_location={lon=0.0, lat=0.0}, ch3out=1616}
[2025-04-09 18:26:02] {GCS_IP=202.165.85.175, timestamp=2025-04-09 18:26:02, systemid=3, lat=35.0683228, lon=129.0868208, alt=28.392, dist_traveled=null, wp_dist=805, dist_to_home=1.3462047079687586E7, vertical_speed=-0.04628344, ground_speed=25.00913, wind_vel=0.0053838324, airspeed=24.953747, gps_hdop=1.21, roll=-2.96, pitch=-2.40, yaw=44.23, ch3percent=63.60, ch9out=0, tot=0.0, toh=0.0, time_in_air=0.0, ch10out=0, ch11out=0, ch12out=0, battery_voltage=0, battery_current=-1, waypoints_count=0, waypoints=[], home_location={lon=0.0, lat=0.0}, ch3out=1636}
[2025-04-09 18:26:03] {GCS_IP=202.165.85.175, timestamp=2025-04-09 18:26:03, systemid=3, lat=35.068484, lon=129.08701, alt=28.45, dist_traveled=null, wp_dist=781, dist_to_home=1.3462055102335665E7, vertical_speed=0.10131248, ground_speed=24.99791, wind_vel=0.0068200305, airspeed=24.972906, gps_hdop=1.21, roll=-6.41, pitch=-1.99, yaw=42.86, ch3percent=64.40, ch9out=0, tot=0.0, toh=0.0, time_in_air=0.0, ch10out=0, ch11out=0, ch12out=0, battery_voltage=0, battery_current=-1, waypoints_count=0, waypoints=[], home_location={lon=0.0, lat=0.0}, ch3out=1644}
[2025-04-09 18:26:04] {GCS_IP=202.165.85.175, timestamp=2025-04-09 18:26:04, systemid=3, lat=35.068652, lon=129.0871928, alt=28.64, dist_traveled=null, wp_dist=756, dist_to_home=1.3462062277269665E7, vertical_speed=0.18463546, ground_speed=25.001223, wind_vel=0.0074219867, airspeed=24.961079, gps_hdop=1.21, roll=-7.12, pitch=-1.87, yaw=40.55, ch3percent=64.70, ch9out=0, tot=0.0, toh=0.0, time_in_air=0.0, ch10out=0, ch11out=0, ch12out=0, battery_voltage=0, battery_current=-1, waypoints_count=0, waypoints=[], home_location={lon=0.0, lat=0.0}, ch3out=1647}
[2025-04-09 18:26:05] {GCS_IP=202.165.85.175, timestamp=2025-04-09 18:26:05, systemid=3, lat=35.0688262, lon=129.087367, alt=28.891, dist_traveled=null, wp_dist=731, dist_to_home=1.3462068451272111E7, vertical_speed=0.23993377, ground_speed=25.022577, wind_vel=0.006687191, airspeed=25.001448, gps_hdop=1.21, roll=-6.88, pitch=-1.80, yaw=38.09, ch3percent=64.60, ch9out=0, tot=0.0, toh=0.0, time_in_air=0.0, ch10out=0, ch11out=0, ch12out=0, battery_voltage=0, battery_current=-1, waypoints_count=0, waypoints=[], home_location={lon=0.0, lat=0.0}, ch3out=1646}
[2025-04-09 18:26:06] {GCS_IP=202.165.85.175, timestamp=2025-04-09 18:26:06, systemid=3, lat=35.0690067, lon=129.0875327, alt=29.151, dist_traveled=null, wp_dist=706, dist_to_home=1.3462073627888074E7, vertical_speed=0.25149232, ground_speed=25.020073, wind_vel=0.0062891124, airspeed=24.955963, gps_hdop=1.21, roll=-5.76, pitch=-1.81, yaw=35.95, ch3percent=63.90, ch9out=0, tot=0.0, toh=0.0, time_in_air=0.0, ch10out=0, ch11out=0, ch12out=0, battery_voltage=0, battery_current=-1, waypoints_count=0, waypoints=[], home_location={lon=0.0, lat=0.0}, ch3out=1639}
[2025-04-09 18:26:07] {GCS_IP=202.165.85.175, timestamp=2025-04-09 18:26:07, systemid=3, lat=35.0691909, lon=129.0876905, alt=29.381, dist_traveled=null, wp_dist=681, dist_to_home=1.346207797887254E7, vertical_speed=0.15765125, ground_speed=24.99343, wind_vel=0.006282757, airspeed=24.928478, gps_hdop=1.21, roll=-4.10, pitch=-2.04, yaw=34.27, ch3percent=63.30, ch9out=0, tot=0.0, toh=0.0, time_in_air=0.0, ch10out=0, ch11out=0, ch12out=0, battery_voltage=0, battery_current=-1, waypoints_count=0, waypoints=[], home_location={lon=0.0, lat=0.0}, ch3out=1633}
[2025-04-09 18:26:08] {GCS_IP=202.165.85.175, timestamp=2025-04-09 18:26:08, systemid=3, lat=35.0693773, lon=129.0878422, alt=29.533, dist_traveled=null, wp_dist=656, dist_to_home=1.3462081723214129E7, vertical_speed=0.09970959, ground_speed=24.952858, wind_vel=0.0068135373, airspeed=24.8826, gps_hdop=1.21, roll=-2.67, pitch=-2.14, yaw=33.04, ch3percent=63.70, ch9out=0, tot=0.0, toh=0.0, time_in_air=0.0, ch10out=0, ch11out=0, ch12out=0, battery_voltage=0, battery_current=-1, waypoints_count=0, waypoints=[], home_location={lon=0.0, lat=0.0}, ch3out=1637}
[2025-04-09 18:26:09] {GCS_IP=202.165.85.175, timestamp=2025-04-09 18:26:09, systemid=3, lat=35.0695646, lon=129.0879899, alt=29.645, dist_traveled=null, wp_dist=631, dist_to_home=1.3462085095235934E7, vertical_speed=0.024468537, ground_speed=24.928526, wind_vel=0.0073429565, airspeed=24.837137, gps_hdop=1.21, roll=-1.46, pitch=-2.33, yaw=32.35, ch3percent=63.80, ch9out=0, tot=0.0, toh=0.0, time_in_air=0.0, ch10out=0, ch11out=0, ch12out=0, battery_voltage=0, battery_current=-1, waypoints_count=0, waypoints=[], home_location={lon=0.0, lat=0.0}, ch3out=1638}
