[2025-04-10 06:51:25] {GCS_IP=13.213.62.184, timestamp=2025-04-10 06:51:25, systemid=3, lat=35.0724056, lon=129.0913732, alt=27.162, dist_traveled=null, wp_dist=474, dist_to_home=1.3462230478799336E7, vertical_speed=0.48322156, ground_speed=25.201523, wind_vel=0.1097188, airspeed=24.78562, gps_hdop=1.21, roll=-11.46, pitch=-1.11, yaw=-154.13, ch3percent=69.00, ch9out=0, tot=0.0, toh=0.0, time_in_air=0.0, ch10out=0, ch11out=0, ch12out=0, battery_voltage=0, battery_current=-1, waypoints_count=0, ch3out=1690}
[2025-04-10 06:51:26] {GCS_IP=13.213.62.184, timestamp=2025-04-10 06:51:26, systemid=3, lat=35.0721999, lon=129.0912576, alt=27.677, dist_traveled=null, wp_dist=449, dist_to_home=1.3462230621500654E7, vertical_speed=0.39642644, ground_speed=25.246979, wind_vel=0.09982847, airspeed=24.83727, gps_hdop=1.21, roll=-8.60, pitch=-1.42, yaw=-157.61, ch3percent=68.30, ch9out=0, tot=0.0, toh=0.0, time_in_air=0.0, ch10out=0, ch11out=0, ch12out=0, battery_voltage=0, battery_current=-1, waypoints_count=0, ch3out=1683, waypoints=[], home_location={lat=0.0, lon=0.0}}
[2025-04-10 06:51:27] {GCS_IP=13.213.62.184, timestamp=2025-04-10 06:51:27, systemid=3, lat=35.0719879, lon=129.091155, alt=28.132, dist_traveled=null, wp_dist=424, dist_to_home=1.3462232132426638E7, vertical_speed=0.35855857, ground_speed=25.278667, wind_vel=0.09268086, airspeed=24.802378, gps_hdop=1.21, roll=-5.76, pitch=-1.56, yaw=-160.16, ch3percent=67.20, ch9out=0, tot=0.0, toh=0.0, time_in_air=0.0, ch10out=0, ch11out=0, ch12out=0, battery_voltage=0, battery_current=-1, waypoints_count=0, ch3out=1672, waypoints=[], home_location={lat=0.0, lon=0.0}}
[2025-04-10 06:51:28] {GCS_IP=13.213.62.184, timestamp=2025-04-10 06:51:28, systemid=3, lat=35.0717736, lon=129.0910627, alt=28.485, dist_traveled=null, wp_dist=398, dist_to_home=1.346223460079344E7, vertical_speed=0.2822202, ground_speed=25.299902, wind_vel=0.088937744, airspeed=24.85116, gps_hdop=1.21, roll=-3.28, pitch=-1.79, yaw=-161.79, ch3percent=66.80, ch9out=0, tot=0.0, toh=0.0, time_in_air=0.0, ch10out=0, ch11out=0, ch12out=0, battery_voltage=0, battery_current=-1, waypoints_count=0, ch3out=1668, waypoints=[], home_location={lat=0.0, lon=0.0}}
[2025-04-10 06:51:29] {GCS_IP=13.213.62.184, timestamp=2025-04-10 06:51:29, systemid=3, lat=35.0715577, lon=129.0909766, alt=28.77, dist_traveled=null, wp_dist=373, dist_to_home=1.346223765558544E7, vertical_speed=0.23087768, ground_speed=25.275105, wind_vel=0.0883395, airspeed=24.853598, gps_hdop=1.21, roll=-1.25, pitch=-1.92, yaw=-162.77, ch3percent=66.40, ch9out=0, tot=0.0, toh=0.0, time_in_air=0.0, ch10out=0, ch11out=0, ch12out=0, battery_voltage=0, battery_current=-1, waypoints_count=0, ch3out=1664, waypoints=[], home_location={lat=0.0, lon=0.0}}
[2025-04-10 06:51:30] {GCS_IP=13.213.62.184, timestamp=2025-04-10 06:51:30, systemid=3, lat=35.0713404, lon=129.090893, alt=29.001, dist_traveled=null, wp_dist=348, dist_to_home=1.3462240982285071E7, vertical_speed=0.19664426, ground_speed=25.348055, wind_vel=0.09075719, airspeed=24.860632, gps_hdop=1.21, roll=0.34, pitch=-2.06, yaw=-162.95, ch3percent=66.40, ch9out=0, tot=0.0, toh=0.0, time_in_air=0.0, ch10out=0, ch11out=0, ch12out=0, battery_voltage=0, battery_current=-1, waypoints_count=0, ch3out=1664, waypoints=[], home_location={lat=0.0, lon=0.0}}
[2025-04-10 06:51:31] {GCS_IP=13.213.62.184, timestamp=2025-04-10 06:51:31, systemid=3, lat=35.0711225, lon=129.0908093, alt=29.215, dist_traveled=null, wp_dist=322, dist_to_home=1.3462244328859795E7, vertical_speed=0.18409128, ground_speed=25.375708, wind_vel=0.09443196, airspeed=24.861874, gps_hdop=1.21, roll=0.63, pitch=-2.10, yaw=-162.72, ch3percent=66.20, ch9out=0, tot=0.0, toh=0.0, time_in_air=0.0, ch10out=0, ch11out=0, ch12out=0, battery_voltage=0, battery_current=-1, waypoints_count=0, ch3out=1662, waypoints=[], home_location={lat=0.0, lon=0.0}}
[2025-04-10 06:51:32] {GCS_IP=13.213.62.184, timestamp=2025-04-10 06:51:32, systemid=3, lat=35.0709054, lon=129.0907248, alt=29.389, dist_traveled=null, wp_dist=297, dist_to_home=1.3462247571736416E7, vertical_speed=0.07119286, ground_speed=25.372875, wind_vel=0.099032216, airspeed=24.854336, gps_hdop=1.21, roll=1.29, pitch=-2.28, yaw=-162.42, ch3percent=66.30, ch9out=0, tot=0.0, toh=0.0, time_in_air=0.0, ch10out=0, ch11out=0, ch12out=0, battery_voltage=0, battery_current=-1, waypoints_count=0, ch3out=1663, waypoints=[], home_location={lat=0.0, lon=0.0}}
[2025-04-10 06:51:33] {GCS_IP=13.213.62.184, timestamp=2025-04-10 06:51:33, systemid=3, lat=35.0706883, lon=129.0906382, alt=29.527, dist_traveled=null, wp_dist=271, dist_to_home=1.346225064133769E7, vertical_speed=0.12309868, ground_speed=25.427671, wind_vel=0.10373164, airspeed=24.895226, gps_hdop=1.21, roll=1.11, pitch=-2.18, yaw=-161.96, ch3percent=66.20, ch9out=0, tot=0.0, toh=0.0, time_in_air=0.0, ch10out=0, ch11out=0, ch12out=0, battery_voltage=0, battery_current=-1, waypoints_count=0, ch3out=1662, waypoints=[], home_location={lat=0.0, lon=0.0}}
[2025-04-10 06:51:34] {GCS_IP=13.213.62.184, timestamp=2025-04-10 06:51:34, systemid=3, lat=35.0704719, lon=129.0905497, alt=29.638, dist_traveled=null, wp_dist=246, dist_to_home=1.346225352123117E7, vertical_speed=0.06259994, ground_speed=25.423117, wind_vel=0.10890207, airspeed=24.883276, gps_hdop=1.21, roll=1.10, pitch=-2.23, yaw=-161.43, ch3percent=65.90, ch9out=0, tot=0.0, toh=0.0, time_in_air=0.0, ch10out=0, ch11out=0, ch12out=0, battery_voltage=0, battery_current=-1, waypoints_count=0, ch3out=1659, waypoints=[], home_location={lat=0.0, lon=0.0}}
[2025-04-10 06:51:35] {GCS_IP=13.213.62.184, timestamp=2025-04-10 06:51:35, systemid=3, lat=35.0702567, lon=129.0904596, alt=29.718, dist_traveled=null, wp_dist=221, dist_to_home=1.3462256212638726E7, vertical_speed=0.041163936, ground_speed=25.38914, wind_vel=0.11514443, airspeed=24.902311, gps_hdop=1.21, roll=0.60, pitch=-2.22, yaw=-161.12, ch3percent=65.80, ch9out=0, tot=0.0, toh=0.0, time_in_air=0.0, ch10out=0, ch11out=0, ch12out=0, battery_voltage=0, battery_current=-1, waypoints_count=0, ch3out=1658, waypoints=[], home_location={lat=0.0, lon=0.0}}
[2025-04-10 06:51:36] {GCS_IP=13.213.62.184, timestamp=2025-04-10 06:51:36, systemid=3, lat=35.0700427, lon=129.0903688, alt=29.766, dist_traveled=null, wp_dist=195, dist_to_home=1.3462258789779035E7, vertical_speed=-0.026821468, ground_speed=25.339766, wind_vel=0.12294789, airspeed=24.90779, gps_hdop=1.21, roll=0.33, pitch=-2.35, yaw=-160.93, ch3percent=66.00, ch9out=0, tot=0.0, toh=0.0, time_in_air=0.0, ch10out=0, ch11out=0, ch12out=0, battery_voltage=0, battery_current=-1, waypoints_count=0, ch3out=1660, waypoints=[], home_location={lat=0.0, lon=0.0}}
[2025-04-10 06:51:37] {GCS_IP=13.213.62.184, timestamp=2025-04-10 06:51:37, systemid=3, lat=35.0698273, lon=129.0902768, alt=29.795, dist_traveled=null, wp_dist=170, dist_to_home=1.3462261333703427E7, vertical_speed=-6.292865E-4, ground_speed=25.384062, wind_vel=0.13010196, airspeed=24.947958, gps_hdop=1.21, roll=0.09, pitch=-2.29, yaw=-160.79, ch3percent=66.10, ch9out=0, tot=0.0, toh=0.0, time_in_air=0.0, ch10out=0, ch11out=0, ch12out=0, battery_voltage=0, battery_current=-1, waypoints_count=0, ch3out=1661, waypoints=[], home_location={lat=0.0, lon=0.0}}
[2025-04-10 06:51:38] {GCS_IP=13.213.62.184, timestamp=2025-04-10 06:51:38, systemid=3, lat=35.0696125, lon=129.0901846, alt=29.845, dist_traveled=null, wp_dist=145, dist_to_home=1.3462263832811797E7, vertical_speed=0.0086261965, ground_speed=25.333525, wind_vel=0.13909672, airspeed=24.944942, gps_hdop=1.21, roll=-0.02, pitch=-2.32, yaw=-160.70, ch3percent=65.70, ch9out=0, tot=0.0, toh=0.0, time_in_air=0.0, ch10out=0, ch11out=0, ch12out=0, battery_voltage=0, battery_current=-1, waypoints_count=0, ch3out=1657, waypoints=[], home_location={lat=0.0, lon=0.0}}
[2025-04-10 06:51:39] {GCS_IP=13.213.62.184, timestamp=2025-04-10 06:51:39, systemid=3, lat=35.0693971, lon=129.090092, alt=29.868, dist_traveled=null, wp_dist=119, dist_to_home=1.346226632704911E7, vertical_speed=0.013537573, ground_speed=25.395048, wind_vel=0.14655821, airspeed=24.96087, gps_hdop=1.21, roll=-0.38, pitch=-2.36, yaw=-160.74, ch3percent=65.80, ch9out=0, tot=0.0, toh=0.0, time_in_air=0.0, ch10out=0, ch11out=0, ch12out=0, battery_voltage=0, battery_current=-1, waypoints_count=0, ch3out=1658, waypoints=[], home_location={lat=0.0, lon=0.0}}
[2025-04-10 06:51:40] {GCS_IP=13.213.62.184, timestamp=2025-04-10 06:51:40, systemid=3, lat=35.0691813, lon=129.0899997, alt=29.897, dist_traveled=null, wp_dist=94, dist_to_home=1.3462268864735054E7, vertical_speed=0.023886694, ground_speed=25.376358, wind_vel=0.15518084, airspeed=24.959976, gps_hdop=1.21, roll=-0.14, pitch=-2.20, yaw=-160.79, ch3percent=65.70, ch9out=0, tot=0.0, toh=0.0, time_in_air=0.0, ch10out=0, ch11out=0, ch12out=0, battery_voltage=0, battery_current=-1, waypoints_count=0, ch3out=1657, waypoints=[], home_location={lat=0.0, lon=0.0}}
[2025-04-10 06:51:41] {GCS_IP=13.213.62.184, timestamp=2025-04-10 06:51:41, systemid=3, lat=35.0689653, lon=129.0899076, alt=29.922, dist_traveled=null, wp_dist=68, dist_to_home=1.3462271428216614E7, vertical_speed=0.050377328, ground_speed=25.425692, wind_vel=0.16166534, airspeed=24.949598, gps_hdop=1.21, roll=-0.16, pitch=-2.30, yaw=-160.87, ch3percent=65.80, ch9out=0, tot=0.0, toh=0.0, time_in_air=0.0, ch10out=0, ch11out=0, ch12out=0, battery_voltage=0, battery_current=-1, waypoints_count=0, ch3out=1658, waypoints=[], home_location={lat=0.0, lon=0.0}}
[2025-04-10 06:51:42] {GCS_IP=13.213.62.184, timestamp=2025-04-10 06:51:42, systemid=3, lat=35.0686413, lon=129.0897699, alt=30.006, dist_traveled=null, wp_dist=282, dist_to_home=1.3462275310354427E7, vertical_speed=0.03457972, ground_speed=25.408306, wind_vel=0.17266288, airspeed=24.981337, gps_hdop=1.21, roll=-0.17, pitch=-2.31, yaw=-160.92, ch3percent=65.30, ch9out=0, tot=0.0, toh=0.0, time_in_air=0.0, ch10out=0, ch11out=0, ch12out=0, battery_voltage=0, battery_current=-1, waypoints_count=0, ch3out=1653, waypoints=[], home_location={lat=0.0, lon=0.0}}
[2025-04-10 06:51:43] {GCS_IP=13.213.62.184, timestamp=2025-04-10 06:51:43, systemid=3, lat=35.0684305, lon=129.089661, alt=30.034, dist_traveled=null, wp_dist=272, dist_to_home=1.3462276243552228E7, vertical_speed=-0.20505065, ground_speed=25.508865, wind_vel=0.17456417, airspeed=24.953085, gps_hdop=1.21, roll=45.19, pitch=-0.76, yaw=-155.73, ch3percent=67.90, ch9out=0, tot=0.0, toh=0.0, time_in_air=0.0, ch10out=0, ch11out=0, ch12out=0, battery_voltage=0, battery_current=-1, waypoints_count=0, ch3out=1679, waypoints=[], home_location={lat=0.0, lon=0.0}}
[2025-04-10 06:51:44] {GCS_IP=13.213.62.184, timestamp=2025-04-10 06:51:44, systemid=3, lat=35.0682466, lon=129.0894934, alt=30.541, dist_traveled=null, wp_dist=236, dist_to_home=1.3462271070629971E7, vertical_speed=-0.19511634, ground_speed=25.488773, wind_vel=0.18164529, airspeed=25.050833, gps_hdop=1.21, roll=26.08, pitch=-2.24, yaw=-140.84, ch3percent=64.40, ch9out=0, tot=0.0, toh=0.0, time_in_air=0.0, ch10out=0, ch11out=0, ch12out=0, battery_voltage=0, battery_current=-1, waypoints_count=0, ch3out=1644, waypoints=[], home_location={lat=0.0, lon=0.0}}
[2025-04-10 06:51:45] {GCS_IP=13.213.62.184, timestamp=2025-04-10 06:51:45, systemid=3, lat=35.0680843, lon=129.089296, alt=30.425, dist_traveled=null, wp_dist=211, dist_to_home=1.3462262424168462E7, vertical_speed=-0.13890766, ground_speed=25.467333, wind_vel=0.18447764, airspeed=25.024948, gps_hdop=1.21, roll=19.19, pitch=-2.38, yaw=-132.81, ch3percent=63.90, ch9out=0, tot=0.0, toh=0.0, time_in_air=0.0, ch10out=0, ch11out=0, ch12out=0, battery_voltage=0, battery_current=-1, waypoints_count=0, ch3out=1639, waypoints=[], home_location={lat=0.0, lon=0.0}}
[2025-04-10 06:51:46] {GCS_IP=13.213.62.184, timestamp=2025-04-10 06:51:46, systemid=3, lat=35.0679423, lon=129.0890777, alt=30.231, dist_traveled=null, wp_dist=186, dist_to_home=1.3462251099280158E7, vertical_speed=-0.21692917, ground_speed=25.386219, wind_vel=0.18562052, airspeed=24.933672, gps_hdop=1.21, roll=12.72, pitch=-2.84, yaw=-126.75, ch3percent=64.20, ch9out=0, tot=0.0, toh=0.0, time_in_air=0.0, ch10out=0, ch11out=0, ch12out=0, battery_voltage=0, battery_current=-1, waypoints_count=0, ch3out=1642, waypoints=[], home_location={lat=0.0, lon=0.0}}
[2025-04-10 06:51:47] {GCS_IP=13.213.62.184, timestamp=2025-04-10 06:51:47, systemid=3, lat=35.0678767, lon=129.0889633, alt=30.11, dist_traveled=null, wp_dist=173, dist_to_home=1.3462244749868497E7, vertical_speed=-0.1954516, ground_speed=25.424973, wind_vel=0.18601039, airspeed=24.936144, gps_hdop=1.21, roll=7.66, pitch=-2.81, yaw=-124.05, ch3percent=64.20, ch9out=0, tot=0.0, toh=0.0, time_in_air=0.0, ch10out=0, ch11out=0, ch12out=0, battery_voltage=0, battery_current=-1, waypoints_count=0, ch3out=1642, waypoints=[], home_location={lat=0.0, lon=0.0}}
[2025-04-10 06:51:48] {GCS_IP=13.213.62.184, timestamp=2025-04-10 06:51:48, systemid=3, lat=35.0677521, lon=129.0887284, alt=29.905, dist_traveled=null, wp_dist=147, dist_to_home=1.3462231237499082E7, vertical_speed=-0.13611461, ground_speed=25.484617, wind_vel=0.1860028, airspeed=24.978346, gps_hdop=1.21, roll=2.69, pitch=-2.72, yaw=-121.97, ch3percent=65.00, ch9out=0, tot=0.0, toh=0.0, time_in_air=0.0, ch10out=0, ch11out=0, ch12out=0, battery_voltage=0, battery_current=-1, waypoints_count=0, ch3out=1650, waypoints=[], home_location={lat=0.0, lon=0.0}}
[2025-04-10 06:51:49] {GCS_IP=13.213.62.184, timestamp=2025-04-10 06:51:49, systemid=3, lat=35.0675718, lon=129.0883699, alt=29.76, dist_traveled=null, wp_dist=109, dist_to_home=1.346221015113864E7, vertical_speed=-0.05371742, ground_speed=25.494234, wind_vel=0.18607004, airspeed=24.967005, gps_hdop=1.21, roll=-1.33, pitch=-2.61, yaw=-121.58, ch3percent=65.90, ch9out=0, tot=0.0, toh=0.0, time_in_air=0.0, ch10out=0, ch11out=0, ch12out=0, battery_voltage=0, battery_current=-1, waypoints_count=0, ch3out=1659, waypoints=[], home_location={lat=0.0, lon=0.0}}
[2025-04-10 06:51:50] {GCS_IP=13.213.62.184, timestamp=2025-04-10 06:51:50, systemid=3, lat=35.0674506, lon=129.088132, alt=29.735, dist_traveled=null, wp_dist=84, dist_to_home=1.3462196231155714E7, vertical_speed=0.020531364, ground_speed=25.518787, wind_vel=0.18676205, airspeed=24.990288, gps_hdop=1.21, roll=-2.53, pitch=-2.33, yaw=-122.10, ch3percent=66.60, ch9out=0, tot=0.0, toh=0.0, time_in_air=0.0, ch10out=0, ch11out=0, ch12out=0, battery_voltage=0, battery_current=-1, waypoints_count=0, ch3out=1666, waypoints=[], home_location={lat=0.0, lon=0.0}}
[2025-04-10 06:51:51] {GCS_IP=13.213.62.184, timestamp=2025-04-10 06:51:51, systemid=3, lat=35.0673895, lon=129.0880146, alt=29.747, dist_traveled=null, wp_dist=71, dist_to_home=1.346218942246085E7, vertical_speed=0.007691217, ground_speed=25.471838, wind_vel=0.1880859, airspeed=24.99403, gps_hdop=1.21, roll=-2.90, pitch=-2.26, yaw=-122.81, ch3percent=66.20, ch9out=0, tot=0.0, toh=0.0, time_in_air=0.0, ch10out=0, ch11out=0, ch12out=0, battery_voltage=0, battery_current=-1, waypoints_count=0, ch3out=1662, waypoints=[], home_location={lat=0.0, lon=0.0}}
[2025-04-10 06:51:52] {GCS_IP=13.213.62.184, timestamp=2025-04-10 06:51:52, systemid=3, lat=35.0671995, lon=129.0876641, alt=29.806, dist_traveled=null, wp_dist=33, dist_to_home=1.3462169451468604E7, vertical_speed=0.0699339, ground_speed=25.505037, wind_vel=0.19035666, airspeed=24.996624, gps_hdop=1.21, roll=-2.88, pitch=-2.18, yaw=-123.91, ch3percent=66.20, ch9out=0, tot=0.0, toh=0.0, time_in_air=0.0, ch10out=0, ch11out=0, ch12out=0, battery_voltage=0, battery_current=-1, waypoints_count=0, ch3out=1662, waypoints=[], home_location={lat=0.0, lon=0.0}}
[2025-04-10 06:51:53] {GCS_IP=13.213.62.184, timestamp=2025-04-10 06:51:53, systemid=3, lat=35.0670692, lon=129.0874348, alt=29.867, dist_traveled=null, wp_dist=7, dist_to_home=1.3462156668301607E7, vertical_speed=0.0052551846, ground_speed=25.45971, wind_vel=0.19423492, airspeed=25.045698, gps_hdop=1.21, roll=-2.28, pitch=-2.28, yaw=-124.94, ch3percent=65.90, ch9out=0, tot=0.0, toh=0.0, time_in_air=0.0, ch10out=0, ch11out=0, ch12out=0, battery_voltage=0, battery_current=-1, waypoints_count=0, ch3out=1659, waypoints=[], home_location={lat=0.0, lon=0.0}}
[2025-04-10 06:51:54] {GCS_IP=13.213.62.184, timestamp=2025-04-10 06:51:54, systemid=3, lat=35.0669359, lon=129.0872068, alt=29.901, dist_traveled=null, wp_dist=112, dist_to_home=1.346214413329726E7, vertical_speed=0.05468324, ground_speed=25.452782, wind_vel=0.19749168, airspeed=25.027063, gps_hdop=1.21, roll=15.72, pitch=-2.82, yaw=-122.75, ch3percent=65.80, ch9out=0, tot=0.0, toh=0.0, time_in_air=0.0, ch10out=0, ch11out=0, ch12out=0, battery_voltage=0, battery_current=-1, waypoints_count=0, ch3out=1658, waypoints=[], home_location={lat=0.0, lon=0.0}}
[2025-04-10 06:51:55] {GCS_IP=13.213.62.184, timestamp=2025-04-10 06:51:55, systemid=3, lat=35.0668488, lon=129.0869505, alt=30.43, dist_traveled=null, wp_dist=93, dist_to_home=1.3462127091662752E7, vertical_speed=2.2461517, ground_speed=25.654627, wind_vel=0.20141366, airspeed=25.30829, gps_hdop=1.21, roll=35.32, pitch=4.30, yaw=-101.16, ch3percent=69.30, ch9out=0, tot=0.0, toh=0.0, time_in_air=0.0, ch10out=0, ch11out=0, ch12out=0, battery_voltage=0, battery_current=-1, waypoints_count=0, ch3out=1693, waypoints=[], home_location={lat=0.0, lon=0.0}}
[2025-04-10 06:51:56] {GCS_IP=13.213.62.184, timestamp=2025-04-10 06:51:56, systemid=3, lat=35.0668305, lon=129.0866708, alt=30.995, dist_traveled=null, wp_dist=70, dist_to_home=1.3462104884798666E7, vertical_speed=-0.1522426, ground_speed=25.559557, wind_vel=0.20381984, airspeed=25.139648, gps_hdop=1.21, roll=42.27, pitch=-0.67, yaw=-89.42, ch3percent=69.10, ch9out=0, tot=0.0, toh=0.0, time_in_air=0.0, ch10out=0, ch11out=0, ch12out=0, battery_voltage=0, battery_current=-1, waypoints_count=0, ch3out=1691, waypoints=[], home_location={lat=0.0, lon=0.0}}
[2025-04-10 06:51:57] {GCS_IP=13.213.62.184, timestamp=2025-04-10 06:51:57, systemid=3, lat=35.0668814, lon=129.0864013, alt=30.995, dist_traveled=null, wp_dist=960, dist_to_home=1.3462080265030764E7, vertical_speed=0.2971871, ground_speed=25.893198, wind_vel=0.20566379, airspeed=25.369772, gps_hdop=1.21, roll=59.82, pitch=2.65, yaw=-61.59, ch3percent=98.30, ch9out=0, tot=0.0, toh=0.0, time_in_air=0.0, ch10out=0, ch11out=0, ch12out=0, battery_voltage=0, battery_current=-1, waypoints_count=0, ch3out=1983, waypoints=[], home_location={lat=0.0, lon=0.0}}
[2025-04-10 06:51:58] {GCS_IP=13.213.62.184, timestamp=2025-04-10 06:51:58, systemid=3, lat=35.0670465, lon=129.0862058, alt=32.438, dist_traveled=null, wp_dist=954, dist_to_home=1.3462056378069684E7, vertical_speed=0.96601886, ground_speed=25.76784, wind_vel=0.20198783, airspeed=25.590237, gps_hdop=1.21, roll=52.70, pitch=1.91, yaw=-35.29, ch3percent=67.40, ch9out=0, tot=0.0, toh=0.0, time_in_air=0.0, ch10out=0, ch11out=0, ch12out=0, battery_voltage=0, battery_current=-1, waypoints_count=0, ch3out=1674, waypoints=[], home_location={lat=0.0, lon=0.0}}
[2025-04-10 06:51:59] {GCS_IP=13.213.62.184, timestamp=2025-04-10 06:51:59, systemid=3, lat=35.0672577, lon=129.0860956, alt=32.586, dist_traveled=null, wp_dist=940, dist_to_home=1.3462037358194951E7, vertical_speed=-0.24290742, ground_speed=25.589886, wind_vel=0.19522518, airspeed=25.287994, gps_hdop=1.21, roll=51.68, pitch=-0.31, yaw=-14.25, ch3percent=64.10, ch9out=0, tot=0.0, toh=0.0, time_in_air=0.0, ch10out=0, ch11out=0, ch12out=0, battery_voltage=0, battery_current=-1, waypoints_count=0, ch3out=1641, waypoints=[], home_location={lat=0.0, lon=0.0}}
[2025-04-10 06:52:00] {GCS_IP=13.213.62.184, timestamp=2025-04-10 06:52:00, systemid=3, lat=35.0674868, lon=129.0860888, alt=32.103, dist_traveled=null, wp_dist=920, dist_to_home=1.3462026024157122E7, vertical_speed=-0.64300567, ground_speed=25.430834, wind_vel=0.18601234, airspeed=25.085077, gps_hdop=1.21, roll=46.71, pitch=-1.62, yaw=6.35, ch3percent=59.50, ch9out=0, tot=0.0, toh=0.0, time_in_air=0.0, ch10out=0, ch11out=0, ch12out=0, battery_voltage=0, battery_current=-1, waypoints_count=0, ch3out=1595, waypoints=[], home_location={lat=0.0, lon=0.0}}
[2025-04-10 06:52:01] {GCS_IP=13.213.62.184, timestamp=2025-04-10 06:52:01, systemid=3, lat=35.0677038, lon=129.086172, alt=31.196, dist_traveled=null, wp_dist=896, dist_to_home=1.3462022681473067E7, vertical_speed=-1.0337454, ground_speed=25.262758, wind_vel=0.17406294, airspeed=24.877447, gps_hdop=1.21, roll=38.10, pitch=-3.08, yaw=22.81, ch3percent=57.20, ch9out=0, tot=0.0, toh=0.0, time_in_air=0.0, ch10out=0, ch11out=0, ch12out=0, battery_voltage=0, battery_current=-1, waypoints_count=0, ch3out=1572, waypoints=[], home_location={lat=0.0, lon=0.0}}
[2025-04-10 06:52:02] {GCS_IP=13.213.62.184, timestamp=2025-04-10 06:52:02, systemid=3, lat=35.0678967, lon=129.0863172, alt=30.079, dist_traveled=null, wp_dist=871, dist_to_home=1.3462025585180072E7, vertical_speed=-1.0773578, ground_speed=25.197584, wind_vel=0.16039911, airspeed=24.740746, gps_hdop=1.21, roll=25.39, pitch=-3.95, yaw=34.76, ch3percent=58.30, ch9out=0, tot=0.0, toh=0.0, time_in_air=0.0, ch10out=0, ch11out=0, ch12out=0, battery_voltage=0, battery_current=-1, waypoints_count=0, ch3out=1583, waypoints=[], home_location={lat=0.0, lon=0.0}}
[2025-04-10 06:52:03] {GCS_IP=13.213.62.184, timestamp=2025-04-10 06:52:03, systemid=3, lat=35.0680685, lon=129.0864972, alt=29.069, dist_traveled=null, wp_dist=846, dist_to_home=1.3462032350969866E7, vertical_speed=-0.784132, ground_speed=25.25324, wind_vel=0.14538386, airspeed=24.791914, gps_hdop=1.21, roll=11.67, pitch=-3.87, yaw=41.90, ch3percent=61.40, ch9out=0, tot=0.0, toh=0.0, time_in_air=0.0, ch10out=0, ch11out=0, ch12out=0, battery_voltage=0, battery_current=-1, waypoints_count=0, ch3out=1614, waypoints=[], home_location={lat=0.0, lon=0.0}}
[2025-04-10 06:52:04] {GCS_IP=13.213.62.184, timestamp=2025-04-10 06:52:04, systemid=3, lat=35.0682294, lon=129.0866916, alt=28.47, dist_traveled=null, wp_dist=821, dist_to_home=1.3462040816780053E7, vertical_speed=-0.35545018, ground_speed=25.316603, wind_vel=0.12845363, airspeed=24.807695, gps_hdop=1.21, roll=1.25, pitch=-3.11, yaw=44.69, ch3percent=64.80, ch9out=0, tot=0.0, toh=0.0, time_in_air=0.0, ch10out=0, ch11out=0, ch12out=0, battery_voltage=0, battery_current=-1, waypoints_count=0, ch3out=1648, waypoints=[], home_location={lat=0.0, lon=0.0}}
[2025-04-10 06:52:05] {GCS_IP=13.213.62.184, timestamp=2025-04-10 06:52:05, systemid=3, lat=35.0683908, lon=129.0868895, alt=28.271, dist_traveled=null, wp_dist=796, dist_to_home=1.3462049547590587E7, vertical_speed=0.01825277, ground_speed=25.437986, wind_vel=0.11435137, airspeed=24.9107, gps_hdop=1.21, roll=-4.82, pitch=-2.20, yaw=44.31, ch3percent=67.10, ch9out=0, tot=0.0, toh=0.0, time_in_air=0.0, ch10out=0, ch11out=0, ch12out=0, battery_voltage=0, battery_current=-1, waypoints_count=0, ch3out=1671, waypoints=[], home_location={lat=0.0, lon=0.0}}
[2025-04-10 06:52:06] {GCS_IP=13.213.62.184, timestamp=2025-04-10 06:52:06, systemid=3, lat=35.068556, lon=129.0870812, alt=28.368, dist_traveled=null, wp_dist=771, dist_to_home=1.34620575882555E7, vertical_speed=0.16547738, ground_speed=25.43963, wind_vel=0.098039955, airspeed=24.963762, gps_hdop=1.21, roll=-7.10, pitch=-1.81, yaw=42.43, ch3percent=68.00, ch9out=0, tot=0.0, toh=0.0, time_in_air=0.0, ch10out=0, ch11out=0, ch12out=0, battery_voltage=0, battery_current=-1, waypoints_count=0, ch3out=1680, waypoints=[], home_location={lat=0.0, lon=0.0}}
[2025-04-10 06:52:07] {GCS_IP=13.213.62.184, timestamp=2025-04-10 06:52:07, systemid=3, lat=35.0687285, lon=129.0872647, alt=28.603, dist_traveled=null, wp_dist=746, dist_to_home=1.3462064609243095E7, vertical_speed=0.21936329, ground_speed=25.462404, wind_vel=0.084317334, airspeed=25.017572, gps_hdop=1.21, roll=-7.51, pitch=-1.77, yaw=39.96, ch3percent=67.60, ch9out=0, tot=0.0, toh=0.0, time_in_air=0.0, ch10out=0, ch11out=0, ch12out=0, battery_voltage=0, battery_current=-1, waypoints_count=0, ch3out=1676, waypoints=[], home_location={lat=0.0, lon=0.0}}
[2025-04-10 06:52:08] {GCS_IP=13.213.62.184, timestamp=2025-04-10 06:52:08, systemid=3, lat=35.0689083, lon=129.0874395, alt=28.89, dist_traveled=null, wp_dist=720, dist_to_home=1.3462070569318023E7, vertical_speed=0.28023297, ground_speed=25.488916, wind_vel=0.07351014, airspeed=25.015993, gps_hdop=1.21, roll=-6.95, pitch=-1.63, yaw=37.53, ch3percent=67.10, ch9out=0, tot=0.0, toh=0.0, time_in_air=0.0, ch10out=0, ch11out=0, ch12out=0, battery_voltage=0, battery_current=-1, waypoints_count=0, ch3out=1671, waypoints=[], home_location={lat=0.0, lon=0.0}}
[2025-04-10 06:52:09] {GCS_IP=13.213.62.184, timestamp=2025-04-10 06:52:09, systemid=3, lat=35.069094, lon=129.0876056, alt=29.196, dist_traveled=null, wp_dist=695, dist_to_home=1.346207553431912E7, vertical_speed=0.24108724, ground_speed=25.47476, wind_vel=0.06427931, airspeed=25.001532, gps_hdop=1.21, roll=-5.26, pitch=-1.77, yaw=35.47, ch3percent=66.00, ch9out=0, tot=0.0, toh=0.0, time_in_air=0.0, ch10out=0, ch11out=0, ch12out=0, battery_voltage=0, battery_current=-1, waypoints_count=0, ch3out=1660, waypoints=[], home_location={lat=0.0, lon=0.0}}
[2025-04-10 06:52:10] {GCS_IP=13.213.62.184, timestamp=2025-04-10 06:52:10, systemid=3, lat=35.0692825, lon=129.0877637, alt=29.442, dist_traveled=null, wp_dist=669, dist_to_home=1.3462079707763484E7, vertical_speed=0.1739544, ground_speed=25.409277, wind_vel=0.05644163, airspeed=24.93374, gps_hdop=1.21, roll=-3.41, pitch=-1.93, yaw=33.87, ch3percent=65.70, ch9out=0, tot=0.0, toh=0.0, time_in_air=0.0, ch10out=0, ch11out=0, ch12out=0, battery_voltage=0, battery_current=-1, waypoints_count=0, ch3out=1657, waypoints=[], home_location={lat=0.0, lon=0.0}}
[2025-04-10 06:52:11] {GCS_IP=13.213.62.184, timestamp=2025-04-10 06:52:11, systemid=3, lat=35.0694734, lon=129.0879167, alt=29.593, dist_traveled=null, wp_dist=644, dist_to_home=1.3462083347624013E7, vertical_speed=0.07251454, ground_speed=25.390654, wind_vel=0.052414414, airspeed=24.88613, gps_hdop=1.21, roll=-1.87, pitch=-2.20, yaw=32.92, ch3percent=65.90, ch9out=0, tot=0.0, toh=0.0, time_in_air=0.0, ch10out=0, ch11out=0, ch12out=0, battery_voltage=0, battery_current=-1, waypoints_count=0, ch3out=1659, waypoints=[], home_location={lat=0.0, lon=0.0}}
[2025-04-10 06:52:12] {GCS_IP=13.213.62.184, timestamp=2025-04-10 06:52:12, systemid=3, lat=35.0696657, lon=129.0880671, alt=29.687, dist_traveled=null, wp_dist=618, dist_to_home=1.3462086707100779E7, vertical_speed=0.078094654, ground_speed=25.391134, wind_vel=0.050826132, airspeed=24.904633, gps_hdop=1.21, roll=-0.92, pitch=-2.17, yaw=32.41, ch3percent=65.90, ch9out=0, tot=0.0, toh=0.0, time_in_air=0.0, ch10out=0, ch11out=0, ch12out=0, battery_voltage=0, battery_current=-1, waypoints_count=0, ch3out=1659, waypoints=[], home_location={lat=0.0, lon=0.0}}
[2025-04-10 06:52:13] {GCS_IP=13.213.62.184, timestamp=2025-04-10 06:52:13, systemid=3, lat=35.0698583, lon=129.0882156, alt=29.736, dist_traveled=null, wp_dist=593, dist_to_home=1.3462089895654174E7, vertical_speed=0.032008518, ground_speed=25.383017, wind_vel=0.05227894, airspeed=24.899595, gps_hdop=1.21, roll=-0.02, pitch=-2.23, yaw=32.14, ch3percent=66.10, ch9out=0, tot=0.0, toh=0.0, time_in_air=0.0, ch10out=0, ch11out=0, ch12out=0, battery_voltage=0, battery_current=-1, waypoints_count=0, ch3out=1661, waypoints=[], home_location={lat=0.0, lon=0.0}}
[2025-04-10 06:52:14] {GCS_IP=13.213.62.184, timestamp=2025-04-10 06:52:14, systemid=3, lat=35.0700514, lon=129.0883643, alt=29.81, dist_traveled=null, wp_dist=568, dist_to_home=1.3462093077060001E7, vertical_speed=0.08110463, ground_speed=25.401224, wind_vel=0.05579989, airspeed=24.894617, gps_hdop=1.21, roll=0.35, pitch=-2.14, yaw=32.27, ch3percent=66.00, ch9out=0, tot=0.0, toh=0.0, time_in_air=0.0, ch10out=0, ch11out=0, ch12out=0, battery_voltage=0, battery_current=-1, waypoints_count=0, ch3out=1660, waypoints=[], home_location={lat=0.0, lon=0.0}}
[2025-04-10 06:52:15] {GCS_IP=13.213.62.184, timestamp=2025-04-10 06:52:15, systemid=3, lat=35.0702428, lon=129.0885127, alt=29.845, dist_traveled=null, wp_dist=542, dist_to_home=1.3462096313550778E7, vertical_speed=-0.034529135, ground_speed=25.323746, wind_vel=0.06269926, airspeed=24.918972, gps_hdop=1.21, roll=0.50, pitch=-2.33, yaw=32.38, ch3percent=66.00, ch9out=0, tot=0.0, toh=0.0, time_in_air=0.0, ch10out=0, ch11out=0, ch12out=0, battery_voltage=0, battery_current=-1, waypoints_count=0, ch3out=1660, waypoints=[], home_location={lat=0.0, lon=0.0}}
[2025-04-10 06:52:16] {GCS_IP=13.213.62.184, timestamp=2025-04-10 06:52:16, systemid=3, lat=35.0704344, lon=129.0886623, alt=29.848, dist_traveled=null, wp_dist=517, dist_to_home=1.3462099639469717E7, vertical_speed=0.020898625, ground_speed=25.327547, wind_vel=0.07173591, airspeed=24.969116, gps_hdop=1.21, roll=0.67, pitch=-2.17, yaw=32.58, ch3percent=65.90, ch9out=0, tot=0.0, toh=0.0, time_in_air=0.0, ch10out=0, ch11out=0, ch12out=0, battery_voltage=0, battery_current=-1, waypoints_count=0, ch3out=1659, waypoints=[], home_location={lat=0.0, lon=0.0}}
[2025-04-10 06:52:17] {GCS_IP=13.213.62.184, timestamp=2025-04-10 06:52:17, systemid=3, lat=35.0706268, lon=129.0888139, alt=29.918, dist_traveled=null, wp_dist=492, dist_to_home=1.3462103092569305E7, vertical_speed=0.051298205, ground_speed=25.364626, wind_vel=0.08017612, airspeed=24.976904, gps_hdop=1.21, roll=0.54, pitch=-2.19, yaw=32.90, ch3percent=65.70, ch9out=0, tot=0.0, toh=0.0, time_in_air=0.0, ch10out=0, ch11out=0, ch12out=0, battery_voltage=0, battery_current=-1, waypoints_count=0, ch3out=1657, waypoints=[], home_location={lat=0.0, lon=0.0}}
[2025-04-10 06:52:18] {GCS_IP=13.213.62.184, timestamp=2025-04-10 06:52:18, systemid=3, lat=35.0708189, lon=129.0889666, alt=29.972, dist_traveled=null, wp_dist=466, dist_to_home=1.346210665036226E7, vertical_speed=0.008345279, ground_speed=25.404028, wind_vel=0.08787806, airspeed=24.976446, gps_hdop=1.21, roll=0.39, pitch=-2.35, yaw=33.10, ch3percent=65.60, ch9out=0, tot=0.0, toh=0.0, time_in_air=0.0, ch10out=0, ch11out=0, ch12out=0, battery_voltage=0, battery_current=-1, waypoints_count=0, ch3out=1656, waypoints=[], home_location={lat=0.0, lon=0.0}}
[2025-04-10 06:52:19] {GCS_IP=13.213.62.184, timestamp=2025-04-10 06:52:19, systemid=3, lat=35.0710111, lon=129.0891202, alt=30.02, dist_traveled=null, wp_dist=441, dist_to_home=1.3462110277542064E7, vertical_speed=0.011023106, ground_speed=25.428038, wind_vel=0.09484057, airspeed=24.898191, gps_hdop=1.21, roll=0.07, pitch=-2.38, yaw=33.23, ch3percent=65.80, ch9out=0, tot=0.0, toh=0.0, time_in_air=0.0, ch10out=0, ch11out=0, ch12out=0, battery_voltage=0, battery_current=-1, waypoints_count=0, ch3out=1658, waypoints=[], home_location={lat=0.0, lon=0.0}}
[2025-04-10 06:52:20] {GCS_IP=13.213.62.184, timestamp=2025-04-10 06:52:20, systemid=3, lat=35.071201, lon=129.0892721, alt=30.024, dist_traveled=null, wp_dist=415, dist_to_home=1.346211387257677E7, vertical_speed=0.0121909585, ground_speed=25.398233, wind_vel=0.103663966, airspeed=24.964495, gps_hdop=1.21, roll=0.02, pitch=-2.35, yaw=33.14, ch3percent=65.60, ch9out=0, tot=0.0, toh=0.0, time_in_air=0.0, ch10out=0, ch11out=0, ch12out=0, battery_voltage=0, battery_current=-1, waypoints_count=0, ch3out=1656, waypoints=[], home_location={lat=0.0, lon=0.0}}
[2025-04-10 06:52:21] {GCS_IP=13.213.62.184, timestamp=2025-04-10 06:52:21, systemid=3, lat=35.0713935, lon=129.089426, alt=30.017, dist_traveled=null, wp_dist=390, dist_to_home=1.3462117510129204E7, vertical_speed=0.0057573244, ground_speed=25.440798, wind_vel=0.110281266, airspeed=24.935097, gps_hdop=1.21, roll=0.03, pitch=-2.38, yaw=33.16, ch3percent=65.70, ch9out=0, tot=0.0, toh=0.0, time_in_air=0.0, ch10out=0, ch11out=0, ch12out=0, battery_voltage=0, battery_current=-1, waypoints_count=0, ch3out=1657, waypoints=[], home_location={lat=0.0, lon=0.0}}
[2025-04-10 06:52:22] {GCS_IP=13.213.62.184, timestamp=2025-04-10 06:52:22, systemid=3, lat=35.0715841, lon=129.0895783, alt=30.026, dist_traveled=null, wp_dist=364, dist_to_home=1.3462121104972284E7, vertical_speed=-0.038080953, ground_speed=25.414566, wind_vel=0.118827626, airspeed=24.993282, gps_hdop=1.21, roll=0.21, pitch=-2.44, yaw=33.23, ch3percent=65.70, ch9out=0, tot=0.0, toh=0.0, time_in_air=0.0, ch10out=0, ch11out=0, ch12out=0, battery_voltage=0, battery_current=-1, waypoints_count=0, ch3out=1657, waypoints=[], home_location={lat=0.0, lon=0.0}}
[2025-04-10 06:52:23] {GCS_IP=13.213.62.184, timestamp=2025-04-10 06:52:23, systemid=3, lat=35.071776, lon=129.0897322, alt=30.049, dist_traveled=null, wp_dist=339, dist_to_home=1.346212477048677E7, vertical_speed=0.0060264007, ground_speed=25.45657, wind_vel=0.12538989, airspeed=24.979532, gps_hdop=1.21, roll=-0.15, pitch=-2.42, yaw=33.31, ch3percent=65.50, ch9out=0, tot=0.0, toh=0.0, time_in_air=0.0, ch10out=0, ch11out=0, ch12out=0, battery_voltage=0, battery_current=-1, waypoints_count=0, ch3out=1655, waypoints=[], home_location={lat=0.0, lon=0.0}}
[2025-04-10 06:52:24] {GCS_IP=13.213.62.184, timestamp=2025-04-10 06:52:24, systemid=3, lat=35.0719662, lon=129.0898845, alt=30.06, dist_traveled=null, wp_dist=314, dist_to_home=1.3462128383888226E7, vertical_speed=-0.047267396, ground_speed=25.39113, wind_vel=0.13498858, airspeed=24.9745, gps_hdop=1.21, roll=0.08, pitch=-2.54, yaw=33.30, ch3percent=65.50, ch9out=0, tot=0.0, toh=0.0, time_in_air=0.0, ch10out=0, ch11out=0, ch12out=0, battery_voltage=0, battery_current=-1, waypoints_count=0, ch3out=1655, waypoints=[], home_location={lat=0.0, lon=0.0}}
[2025-04-10 06:52:25] {GCS_IP=13.213.62.184, timestamp=2025-04-10 06:52:25, systemid=3, lat=35.0721579, lon=129.0900381, alt=30.033, dist_traveled=null, wp_dist=288, dist_to_home=1.3462132033813553E7, vertical_speed=0.043051858, ground_speed=25.447073, wind_vel=0.14129388, airspeed=24.970982, gps_hdop=1.21, roll=0.04, pitch=-2.28, yaw=33.32, ch3percent=65.50, ch9out=0, tot=0.0, toh=0.0, time_in_air=0.0, ch10out=0, ch11out=0, ch12out=0, battery_voltage=0, battery_current=-1, waypoints_count=0, ch3out=1655, waypoints=[], home_location={lat=0.0, lon=0.0}}
[2025-04-10 06:52:26] {GCS_IP=13.213.62.184, timestamp=2025-04-10 06:52:26, systemid=3, lat=35.072349, lon=129.0901913, alt=30.061, dist_traveled=null, wp_dist=263, dist_to_home=1.3462135678845776E7, vertical_speed=-0.012255722, ground_speed=25.424631, wind_vel=0.14897297, airspeed=24.934889, gps_hdop=1.21, roll=0.12, pitch=-2.38, yaw=33.42, ch3percent=65.70, ch9out=0, tot=0.0, toh=0.0, time_in_air=0.0, ch10out=0, ch11out=0, ch12out=0, battery_voltage=0, battery_current=-1, waypoints_count=0, ch3out=1657, waypoints=[], home_location={lat=0.0, lon=0.0}}
[2025-04-10 06:52:27] {GCS_IP=13.213.62.184, timestamp=2025-04-10 06:52:27, systemid=3, lat=35.0725403, lon=129.0903448, alt=30.06, dist_traveled=null, wp_dist=237, dist_to_home=1.3462139339081634E7, vertical_speed=-0.024849754, ground_speed=25.454117, wind_vel=0.15473445, airspeed=24.957207, gps_hdop=1.21, roll=-0.09, pitch=-2.44, yaw=33.26, ch3percent=65.50, ch9out=0, tot=0.0, toh=0.0, time_in_air=0.0, ch10out=0, ch11out=0, ch12out=0, battery_voltage=0, battery_current=-1, waypoints_count=0, ch3out=1655, waypoints=[], home_location={lat=0.0, lon=0.0}}
[2025-04-10 06:52:28] {GCS_IP=13.213.62.184, timestamp=2025-04-10 06:52:28, systemid=3, lat=35.0727314, lon=129.0904978, alt=30.077, dist_traveled=null, wp_dist=212, dist_to_home=1.346214296736518E7, vertical_speed=-0.0353995, ground_speed=25.446842, wind_vel=0.16119584, airspeed=24.960955, gps_hdop=1.21, roll=0.18, pitch=-2.46, yaw=33.32, ch3percent=65.60, ch9out=0, tot=0.0, toh=0.0, time_in_air=0.0, ch10out=0, ch11out=0, ch12out=0, battery_voltage=0, battery_current=-1, waypoints_count=0, ch3out=1656, waypoints=[], home_location={lat=0.0, lon=0.0}}
[2025-04-10 06:52:29] {GCS_IP=13.213.62.184, timestamp=2025-04-10 06:52:29, systemid=3, lat=35.0729226, lon=129.0906511, alt=30.046, dist_traveled=null, wp_dist=186, dist_to_home=1.3462146615555715E7, vertical_speed=-0.002886168, ground_speed=25.436426, wind_vel=0.1675067, airspeed=24.969664, gps_hdop=1.21, roll=-0.23, pitch=-2.35, yaw=33.39, ch3percent=65.80, ch9out=0, tot=0.0, toh=0.0, time_in_air=0.0, ch10out=0, ch11out=0, ch12out=0, battery_voltage=0, battery_current=-1, waypoints_count=0, ch3out=1658, waypoints=[], home_location={lat=0.0, lon=0.0}}
[2025-04-10 06:52:30] {GCS_IP=13.213.62.184, timestamp=2025-04-10 06:52:30, systemid=3, lat=35.0731137, lon=129.0908041, alt=30.051, dist_traveled=null, wp_dist=161, dist_to_home=1.3462150243583282E7, vertical_speed=0.022285827, ground_speed=25.442888, wind_vel=0.17345834, airspeed=24.963163, gps_hdop=1.21, roll=0.04, pitch=-2.35, yaw=33.35, ch3percent=65.90, ch9out=0, tot=0.0, toh=0.0, time_in_air=0.0, ch10out=0, ch11out=0, ch12out=0, battery_voltage=0, battery_current=-1, waypoints_count=0, ch3out=1659, waypoints=[], home_location={lat=0.0, lon=0.0}}
[2025-04-10 06:52:31] {GCS_IP=13.213.62.184, timestamp=2025-04-10 06:52:31, systemid=3, lat=35.073306, lon=129.0909581, alt=30.059, dist_traveled=null, wp_dist=135, dist_to_home=1.3462153897499995E7, vertical_speed=0.055421226, ground_speed=25.475311, wind_vel=0.17806737, airspeed=24.960875, gps_hdop=1.21, roll=-0.00, pitch=-2.32, yaw=33.33, ch3percent=65.90, ch9out=0, tot=0.0, toh=0.0, time_in_air=0.0, ch10out=0, ch11out=0, ch12out=0, battery_voltage=0, battery_current=-1, waypoints_count=0, ch3out=1659, waypoints=[], home_location={lat=0.0, lon=0.0}}
[2025-04-10 06:52:32] {GCS_IP=13.213.62.184, timestamp=2025-04-10 06:52:32, systemid=3, lat=35.0734952, lon=129.0911096, alt=30.073, dist_traveled=null, wp_dist=110, dist_to_home=1.3462157490950257E7, vertical_speed=0.0038769615, ground_speed=25.36754, wind_vel=0.18792844, airspeed=24.980036, gps_hdop=1.21, roll=-0.19, pitch=-2.27, yaw=33.25, ch3percent=65.70, ch9out=0, tot=0.0, toh=0.0, time_in_air=0.0, ch10out=0, ch11out=0, ch12out=0, battery_voltage=0, battery_current=-1, waypoints_count=0, ch3out=1657, waypoints=[], home_location={lat=0.0, lon=0.0}}
[2025-04-10 06:52:33] {GCS_IP=13.213.62.184, timestamp=2025-04-10 06:52:33, systemid=3, lat=35.0736863, lon=129.0912624, alt=30.05, dist_traveled=null, wp_dist=85, dist_to_home=1.3462161102102486E7, vertical_speed=-0.013982415, ground_speed=25.389168, wind_vel=0.19529657, airspeed=24.995811, gps_hdop=1.21, roll=0.17, pitch=-2.31, yaw=33.27, ch3percent=65.70, ch9out=0, tot=0.0, toh=0.0, time_in_air=0.0, ch10out=0, ch11out=0, ch12out=0, battery_voltage=0, battery_current=-1, waypoints_count=0, ch3out=1657, waypoints=[], home_location={lat=0.0, lon=0.0}}
[2025-04-10 06:52:34] {GCS_IP=13.213.62.184, timestamp=2025-04-10 06:52:34, systemid=3, lat=35.0738773, lon=129.0914151, alt=30.053, dist_traveled=null, wp_dist=59, dist_to_home=1.3462164709584719E7, vertical_speed=-0.01880459, ground_speed=25.390858, wind_vel=0.20224032, airspeed=25.027102, gps_hdop=1.21, roll=0.08, pitch=-2.33, yaw=33.22, ch3percent=65.60, ch9out=0, tot=0.0, toh=0.0, time_in_air=0.0, ch10out=0, ch11out=0, ch12out=0, battery_voltage=0, battery_current=-1, waypoints_count=0, ch3out=1656, waypoints=[], home_location={lat=0.0, lon=0.0}}
[2025-04-10 06:52:35] {GCS_IP=13.213.62.184, timestamp=2025-04-10 06:52:35, systemid=3, lat=35.0740676, lon=129.0915727, alt=30.035, dist_traveled=null, wp_dist=652, dist_to_home=1.3462168753917687E7, vertical_speed=-0.4733918, ground_speed=25.460487, wind_vel=0.20638798, airspeed=24.911829, gps_hdop=1.21, roll=64.86, pitch=-3.21, yaw=39.88, ch3percent=83.00, ch9out=0, tot=0.0, toh=0.0, time_in_air=0.0, ch10out=0, ch11out=0, ch12out=0, battery_voltage=0, battery_current=-1, waypoints_count=0, ch3out=1830, waypoints=[], home_location={lat=0.0, lon=0.0}}
[2025-04-10 06:52:36] {GCS_IP=13.213.62.184, timestamp=2025-04-10 06:52:36, systemid=3, lat=35.0741441, lon=129.0918156, alt=30.878, dist_traveled=null, wp_dist=668, dist_to_home=1.3462185184876813E7, vertical_speed=1.5340562, ground_speed=23.66847, wind_vel=0.21221796, airspeed=24.063917, gps_hdop=1.21, roll=53.67, pitch=3.12, yaw=85.79, ch3percent=28.00, ch9out=0, tot=0.0, toh=0.0, time_in_air=0.0, ch10out=0, ch11out=0, ch12out=0, battery_voltage=0, battery_current=-1, waypoints_count=0, ch3out=1280, waypoints=[], home_location={lat=0.0, lon=0.0}}
[2025-04-10 06:52:37] {GCS_IP=13.213.62.184, timestamp=2025-04-10 06:52:37, systemid=3, lat=35.0741231, lon=129.0920683, alt=30.195, dist_traveled=null, wp_dist=673, dist_to_home=1.3462207010139557E7, vertical_speed=-1.6665744, ground_speed=22.98203, wind_vel=0.21364689, airspeed=22.760656, gps_hdop=1.21, roll=54.66, pitch=-2.98, yaw=106.16, ch3percent=46.00, ch9out=0, tot=0.0, toh=0.0, time_in_air=0.0, ch10out=0, ch11out=0, ch12out=0, battery_voltage=0, battery_current=-1, waypoints_count=0, ch3out=1460, waypoints=[], home_location={lat=0.0, lon=0.0}}
[2025-04-10 06:52:38] {GCS_IP=13.213.62.184, timestamp=2025-04-10 06:52:38, systemid=3, lat=35.0740115, lon=129.0922779, alt=28.555, dist_traveled=null, wp_dist=669, dist_to_home=1.346222954313628E7, vertical_speed=-1.217775, ground_speed=23.27748, wind_vel=0.21252578, airspeed=22.802221, gps_hdop=1.21, roll=55.41, pitch=-1.51, yaw=138.23, ch3percent=61.00, ch9out=0, tot=0.0, toh=0.0, time_in_air=0.0, ch10out=0, ch11out=0, ch12out=0, battery_voltage=0, battery_current=-1, waypoints_count=0, ch3out=1610, waypoints=[], home_location={lat=0.0, lon=0.0}}
[2025-04-10 06:52:39] {GCS_IP=13.213.62.184, timestamp=2025-04-10 06:52:39, systemid=3, lat=35.0738218, lon=129.0923826, alt=27.719, dist_traveled=null, wp_dist=654, dist_to_home=1.3462247099929946E7, vertical_speed=-0.46290758, ground_speed=23.728296, wind_vel=0.20740157, airspeed=23.217573, gps_hdop=1.21, roll=53.43, pitch=-0.14, yaw=168.86, ch3percent=64.60, ch9out=0, tot=0.0, toh=0.0, time_in_air=0.0, ch10out=0, ch11out=0, ch12out=0, battery_voltage=0, battery_current=-1, waypoints_count=0, ch3out=1646, waypoints=[], home_location={lat=0.0, lon=0.0}}
[2025-04-10 06:52:40] {GCS_IP=13.213.62.184, timestamp=2025-04-10 06:52:40, systemid=3, lat=35.0736086, lon=129.092366, alt=27.25, dist_traveled=null, wp_dist=632, dist_to_home=1.3462255759790523E7, vertical_speed=-0.36336678, ground_speed=24.063238, wind_vel=0.19827648, airspeed=23.541525, gps_hdop=1.21, roll=46.58, pitch=-0.57, yaw=-167.08, ch3percent=61.40, ch9out=0, tot=0.0, toh=0.0, time_in_air=0.0, ch10out=0, ch11out=0, ch12out=0, battery_voltage=0, battery_current=-1, waypoints_count=0, ch3out=1614, waypoints=[], home_location={lat=0.0, lon=0.0}}
[2025-04-10 06:52:41] {GCS_IP=13.213.62.184, timestamp=2025-04-10 06:52:41, systemid=3, lat=35.0734129, lon=129.0922597, alt=26.718, dist_traveled=null, wp_dist=608, dist_to_home=1.346225619975708E7, vertical_speed=-0.7161072, ground_speed=24.133913, wind_vel=0.18427733, airspeed=23.73145, gps_hdop=1.21, roll=32.57, pitch=-2.62, yaw=-151.40, ch3percent=58.20, ch9out=0, tot=0.0, toh=0.0, time_in_air=0.0, ch10out=0, ch11out=0, ch12out=0, battery_voltage=0, battery_current=-1, waypoints_count=0, ch3out=1582, waypoints=[], home_location={lat=0.0, lon=0.0}}
[2025-04-10 06:52:42] {GCS_IP=13.213.62.184, timestamp=2025-04-10 06:52:42, systemid=3, lat=35.0732358, lon=129.0921027, alt=25.948, dist_traveled=null, wp_dist=584, dist_to_home=1.3462251583973527E7, vertical_speed=-0.58491176, ground_speed=24.386728, wind_vel=0.16941875, airspeed=23.899508, gps_hdop=1.21, roll=12.88, pitch=-3.37, yaw=-142.25, ch3percent=61.00, ch9out=0, tot=0.0, toh=0.0, time_in_air=0.0, ch10out=0, ch11out=0, ch12out=0, battery_voltage=0, battery_current=-1, waypoints_count=0, ch3out=1610, waypoints=[], home_location={lat=0.0, lon=0.0}}
[2025-04-10 06:52:43] {GCS_IP=13.213.62.184, timestamp=2025-04-10 06:52:43, systemid=3, lat=35.0730684, lon=129.091928, alt=25.601, dist_traveled=null, wp_dist=561, dist_to_home=1.3462245052250348E7, vertical_speed=-0.047344543, ground_speed=24.659025, wind_vel=0.15394725, airspeed=24.12711, gps_hdop=1.21, roll=-2.47, pitch=-2.39, yaw=-139.67, ch3percent=66.00, ch9out=0, tot=0.0, toh=0.0, time_in_air=0.0, ch10out=0, ch11out=0, ch12out=0, battery_voltage=0, battery_current=-1, waypoints_count=0, ch3out=1660, waypoints=[], home_location={lat=0.0, lon=0.0}}
[2025-04-10 06:52:44] {GCS_IP=13.213.62.184, timestamp=2025-04-10 06:52:44, systemid=3, lat=35.0728971, lon=129.0917546, alt=25.771, dist_traveled=null, wp_dist=537, dist_to_home=1.3462238811048254E7, vertical_speed=0.3469587, ground_speed=24.895887, wind_vel=0.13902047, airspeed=24.33908, gps_hdop=1.21, roll=-10.30, pitch=-1.40, yaw=-141.54, ch3percent=69.00, ch9out=0, tot=0.0, toh=0.0, time_in_air=0.0, ch10out=0, ch11out=0, ch12out=0, battery_voltage=0, battery_current=-1, waypoints_count=0, ch3out=1690, waypoints=[], home_location={lat=0.0, lon=0.0}}
[2025-04-10 06:52:45] {GCS_IP=13.213.62.184, timestamp=2025-04-10 06:52:45, systemid=3, lat=35.0727148, lon=129.0915923, alt=26.249, dist_traveled=null, wp_dist=513, dist_to_home=1.3462234002446877E7, vertical_speed=0.5614419, ground_speed=25.122402, wind_vel=0.12654148, airspeed=24.544333, gps_hdop=1.21, roll=-13.21, pitch=-0.84, yaw=-145.64, ch3percent=69.80, ch9out=0, tot=0.0, toh=0.0, time_in_air=0.0, ch10out=0, ch11out=0, ch12out=0, battery_voltage=0, battery_current=-1, waypoints_count=0, ch3out=1698, waypoints=[], home_location={lat=0.0, lon=0.0}}
[2025-04-10 06:52:46] {GCS_IP=13.213.62.184, timestamp=2025-04-10 06:52:46, systemid=3, lat=35.0725229, lon=129.0914487, alt=26.862, dist_traveled=null, wp_dist=489, dist_to_home=1.3462231187302323E7, vertical_speed=0.57478094, ground_speed=25.17409, wind_vel=0.11283769, airspeed=24.63655, gps_hdop=1.21, roll=-12.81, pitch=-0.84, yaw=-150.22, ch3percent=69.60, ch9out=0, tot=0.0, toh=0.0, time_in_air=0.0, ch10out=0, ch11out=0, ch12out=0, battery_voltage=0, battery_current=-1, waypoints_count=0, ch3out=1696, waypoints=[], home_location={lat=0.0, lon=0.0}}
[2025-04-10 06:52:48] {GCS_IP=13.213.62.184, timestamp=2025-04-10 06:52:47, systemid=3, lat=35.0723209, lon=129.0913225, alt=27.391, dist_traveled=null, wp_dist=464, dist_to_home=1.3462230281940011E7, vertical_speed=0.4579387, ground_speed=25.266298, wind_vel=0.10197332, airspeed=24.752626, gps_hdop=1.21, roll=-11.09, pitch=-1.19, yaw=-154.36, ch3percent=68.60, ch9out=0, tot=0.0, toh=0.0, time_in_air=0.0, ch10out=0, ch11out=0, ch12out=0, battery_voltage=0, battery_current=-1, waypoints_count=0, ch3out=1686, waypoints=[], home_location={lat=0.0, lon=0.0}}
[2025-04-10 06:52:49] {GCS_IP=13.213.62.184, timestamp=2025-04-10 06:52:48, systemid=3, lat=35.0721128, lon=129.0912126, alt=27.872, dist_traveled=null, wp_dist=439, dist_to_home=1.3462231007515177E7, vertical_speed=0.40056154, ground_speed=25.283552, wind_vel=0.091991305, airspeed=24.79586, gps_hdop=1.21, roll=-8.22, pitch=-1.37, yaw=-157.67, ch3percent=68.00, ch9out=0, tot=0.0, toh=0.0, time_in_air=0.0, ch10out=0, ch11out=0, ch12out=0, battery_voltage=0, battery_current=-1, waypoints_count=0, ch3out=1680, waypoints=[], home_location={lat=0.0, lon=0.0}}
[2025-04-10 06:52:50] {GCS_IP=13.213.62.184, timestamp=2025-04-10 06:52:49, systemid=3, lat=35.0719002, lon=129.0911148, alt=28.259, dist_traveled=null, wp_dist=413, dist_to_home=1.3462232942438018E7, vertical_speed=0.31567383, ground_speed=25.289614, wind_vel=0.084431864, airspeed=24.861155, gps_hdop=1.21, roll=-5.38, pitch=-1.59, yaw=-160.24, ch3percent=67.30, ch9out=0, tot=0.0, toh=0.0, time_in_air=0.0, ch10out=0, ch11out=0, ch12out=0, battery_voltage=0, battery_current=-1, waypoints_count=0, ch3out=1673, waypoints=[], home_location={lat=0.0, lon=0.0}}
[2025-04-10 06:52:51] {GCS_IP=13.213.62.184, timestamp=2025-04-10 06:52:50, systemid=3, lat=35.0716864, lon=129.0910259, alt=28.57, dist_traveled=null, wp_dist=388, dist_to_home=1.3462235667618794E7, vertical_speed=0.22331198, ground_speed=25.252779, wind_vel=0.07993597, airspeed=24.852688, gps_hdop=1.21, roll=-2.98, pitch=-1.78, yaw=-161.72, ch3percent=67.10, ch9out=0, tot=0.0, toh=0.0, time_in_air=0.0, ch10out=0, ch11out=0, ch12out=0, battery_voltage=0, battery_current=-1, waypoints_count=0, ch3out=1671, waypoints=[], home_location={lat=0.0, lon=0.0}}
[2025-04-10 06:52:52] {GCS_IP=13.213.62.184, timestamp=2025-04-10 06:52:51, systemid=3, lat=35.0714695, lon=129.0909407, alt=28.833, dist_traveled=null, wp_dist=363, dist_to_home=1.3462238843621612E7, vertical_speed=0.19137973, ground_speed=25.298418, wind_vel=0.0795939, airspeed=24.87333, gps_hdop=1.21, roll=-1.00, pitch=-1.88, yaw=-162.43, ch3percent=66.60, ch9out=0, tot=0.0, toh=0.0, time_in_air=0.0, ch10out=0, ch11out=0, ch12out=0, battery_voltage=0, battery_current=-1, waypoints_count=0, ch3out=1666, waypoints=[], home_location={lat=0.0, lon=0.0}}
[2025-04-10 06:52:53] {GCS_IP=13.213.62.184, timestamp=2025-04-10 06:52:52, systemid=3, lat=35.0712515, lon=129.0908566, alt=29.063, dist_traveled=null, wp_dist=337, dist_to_home=1.3462242161972571E7, vertical_speed=0.19238074, ground_speed=25.34544, wind_vel=0.08202742, airspeed=24.891718, gps_hdop=1.21, roll=-0.03, pitch=-2.05, yaw=-162.59, ch3percent=66.10, ch9out=0, tot=0.0, toh=0.0, time_in_air=0.0, ch10out=0, ch11out=0, ch12out=0, battery_voltage=0, battery_current=-1, waypoints_count=0, ch3out=1661, waypoints=[], home_location={lat=0.0, lon=0.0}}
[2025-04-10 06:52:54] {GCS_IP=13.213.62.184, timestamp=2025-04-10 06:52:53, systemid=3, lat=35.0710343, lon=129.0907726, alt=29.253, dist_traveled=null, wp_dist=312, dist_to_home=1.346224545084282E7, vertical_speed=0.1516708, ground_speed=25.317345, wind_vel=0.08675545, airspeed=24.882008, gps_hdop=1.21, roll=0.91, pitch=-2.05, yaw=-162.43, ch3percent=66.10, ch9out=0, tot=0.0, toh=0.0, time_in_air=0.0, ch10out=0, ch11out=0, ch12out=0, battery_voltage=0, battery_current=-1, waypoints_count=0, ch3out=1661, waypoints=[], home_location={lat=0.0, lon=0.0}}
[2025-04-10 06:52:55] {GCS_IP=13.213.62.184, timestamp=2025-04-10 06:52:54, systemid=3, lat=35.0708184, lon=129.0906878, alt=29.405, dist_traveled=null, wp_dist=287, dist_to_home=1.3462248612498311E7, vertical_speed=0.10276704, ground_speed=25.331852, wind_vel=0.09297608, airspeed=24.902039, gps_hdop=1.21, roll=1.00, pitch=-2.16, yaw=-162.24, ch3percent=66.10, ch9out=0, tot=0.0, toh=0.0, time_in_air=0.0, ch10out=0, ch11out=0, ch12out=0, battery_voltage=0, battery_current=-1, waypoints_count=0, ch3out=1661, waypoints=[], home_location={lat=0.0, lon=0.0}}
[2025-04-10 06:52:56] {GCS_IP=13.213.62.184, timestamp=2025-04-10 06:52:55, systemid=3, lat=35.0705993, lon=129.0906, alt=29.554, dist_traveled=null, wp_dist=261, dist_to_home=1.3462251677167445E7, vertical_speed=0.13106611, ground_speed=25.4154, wind_vel=0.09838942, airspeed=24.879135, gps_hdop=1.21, roll=1.18, pitch=-2.16, yaw=-161.88, ch3percent=65.90, ch9out=0, tot=0.0, toh=0.0, time_in_air=0.0, ch10out=0, ch11out=0, ch12out=0, battery_voltage=0, battery_current=-1, waypoints_count=0, ch3out=1659, waypoints=[], home_location={lat=0.0, lon=0.0}}
[2025-04-10 06:52:57] {GCS_IP=13.213.62.184, timestamp=2025-04-10 06:52:56, systemid=3, lat=35.0703837, lon=129.0905116, alt=29.687, dist_traveled=null, wp_dist=236, dist_to_home=1.3462254527638445E7, vertical_speed=0.119954534, ground_speed=25.385344, wind_vel=0.104857005, airspeed=24.885736, gps_hdop=1.21, roll=0.75, pitch=-2.15, yaw=-161.42, ch3percent=65.70, ch9out=0, tot=0.0, toh=0.0, time_in_air=0.0, ch10out=0, ch11out=0, ch12out=0, battery_voltage=0, battery_current=-1, waypoints_count=0, ch3out=1657, waypoints=[], home_location={lat=0.0, lon=0.0}}
[2025-04-10 06:52:58] {GCS_IP=13.213.62.184, timestamp=2025-04-10 06:52:57, systemid=3, lat=35.0701679, lon=129.0904216, alt=29.742, dist_traveled=null, wp_dist=210, dist_to_home=1.3462257255469956E7, vertical_speed=0.06181361, ground_speed=25.375559, wind_vel=0.11176682, airspeed=24.848331, gps_hdop=1.21, roll=0.61, pitch=-2.19, yaw=-161.12, ch3percent=65.80, ch9out=0, tot=0.0, toh=0.0, time_in_air=0.0, ch10out=0, ch11out=0, ch12out=0, battery_voltage=0, battery_current=-1, waypoints_count=0, ch3out=1658, waypoints=[], home_location={lat=0.0, lon=0.0}}
[2025-04-10 06:52:59] {GCS_IP=13.213.62.184, timestamp=2025-04-10 06:52:58, systemid=3, lat=35.0699525, lon=129.0903308, alt=29.79, dist_traveled=null, wp_dist=185, dist_to_home=1.346225989841334E7, vertical_speed=0.06726596, ground_speed=25.394962, wind_vel=0.11807765, airspeed=24.924181, gps_hdop=1.21, roll=0.40, pitch=-2.13, yaw=-160.96, ch3percent=66.20, ch9out=0, tot=0.0, toh=0.0, time_in_air=0.0, ch10out=0, ch11out=0, ch12out=0, battery_voltage=0, battery_current=-1, waypoints_count=0, ch3out=1662, waypoints=[], home_location={lat=0.0, lon=0.0}}
[2025-04-10 06:53:00] {GCS_IP=13.213.62.184, timestamp=2025-04-10 06:52:59, systemid=3, lat=35.0697366, lon=129.0902389, alt=29.852, dist_traveled=null, wp_dist=160, dist_to_home=1.3462262474057218E7, vertical_speed=0.031954847, ground_speed=25.401793, wind_vel=0.12522633, airspeed=24.921103, gps_hdop=1.21, roll=0.20, pitch=-2.29, yaw=-160.78, ch3percent=65.60, ch9out=0, tot=0.0, toh=0.0, time_in_air=0.0, ch10out=0, ch11out=0, ch12out=0, battery_voltage=0, battery_current=-1, waypoints_count=0, ch3out=1656, waypoints=[], home_location={lat=0.0, lon=0.0}}
[2025-04-10 06:53:01] {GCS_IP=13.213.62.184, timestamp=2025-04-10 06:53:00, systemid=3, lat=35.0695221, lon=129.0901471, alt=29.881, dist_traveled=null, wp_dist=134, dist_to_home=1.3462264991999397E7, vertical_speed=0.023644459, ground_speed=25.371927, wind_vel=0.13370948, airspeed=24.952698, gps_hdop=1.21, roll=0.13, pitch=-2.29, yaw=-160.76, ch3percent=65.60, ch9out=0, tot=0.0, toh=0.0, time_in_air=0.0, ch10out=0, ch11out=0, ch12out=0, battery_voltage=0, battery_current=-1, waypoints_count=0, ch3out=1656, waypoints=[], home_location={lat=0.0, lon=0.0}}
[2025-04-10 06:53:02] {GCS_IP=13.213.62.184, timestamp=2025-04-10 06:53:01, systemid=3, lat=35.0693063, lon=129.0900549, alt=29.92, dist_traveled=null, wp_dist=109, dist_to_home=1.346226753799287E7, vertical_speed=0.025757056, ground_speed=25.406904, wind_vel=0.1408627, airspeed=24.935167, gps_hdop=1.21, roll=0.19, pitch=-2.33, yaw=-160.76, ch3percent=65.70, ch9out=0, tot=0.0, toh=0.0, time_in_air=0.0, ch10out=0, ch11out=0, ch12out=0, battery_voltage=0, battery_current=-1, waypoints_count=0, ch3out=1657, waypoints=[], home_location={lat=0.0, lon=0.0}}
[2025-04-10 06:53:03] {GCS_IP=13.213.62.184, timestamp=2025-04-10 06:53:02, systemid=3, lat=35.0690907, lon=129.089963, alt=29.95, dist_traveled=null, wp_dist=83, dist_to_home=1.3462270099216297E7, vertical_speed=-0.003131629, ground_speed=25.40528, wind_vel=0.14812028, airspeed=24.900236, gps_hdop=1.21, roll=0.12, pitch=-2.34, yaw=-160.79, ch3percent=66.00, ch9out=0, tot=0.0, toh=0.0, time_in_air=0.0, ch10out=0, ch11out=0, ch12out=0, battery_voltage=0, battery_current=-1, waypoints_count=0, ch3out=1660, waypoints=[], home_location={lat=0.0, lon=0.0}}
[2025-04-10 06:53:04] {GCS_IP=13.213.62.184, timestamp=2025-04-10 06:53:03, systemid=3, lat=35.0688748, lon=129.0898709, alt=29.999, dist_traveled=null, wp_dist=58, dist_to_home=1.3462272657951796E7, vertical_speed=0.026629522, ground_speed=25.420143, wind_vel=0.15501381, airspeed=24.93911, gps_hdop=1.21, roll=0.16, pitch=-2.37, yaw=-160.72, ch3percent=65.60, ch9out=0, tot=0.0, toh=0.0, time_in_air=0.0, ch10out=0, ch11out=0, ch12out=0, battery_voltage=0, battery_current=-1, waypoints_count=0, ch3out=1656, waypoints=[], home_location={lat=0.0, lon=0.0}}
[2025-04-10 06:53:05] {GCS_IP=13.213.62.184, timestamp=2025-04-10 06:53:04, systemid=3, lat=35.068659, lon=129.0897787, alt=30.016, dist_traveled=null, wp_dist=33, dist_to_home=1.3462275203633476E7, vertical_speed=0.011595252, ground_speed=25.426056, wind_vel=0.16176893, airspeed=24.964872, gps_hdop=1.21, roll=0.04, pitch=-2.35, yaw=-160.75, ch3percent=65.50, ch9out=0, tot=0.0, toh=0.0, time_in_air=0.0, ch10out=0, ch11out=0, ch12out=0, battery_voltage=0, battery_current=-1, waypoints_count=0, ch3out=1655, waypoints=[], home_location={lat=0.0, lon=0.0}}
[2025-04-10 06:53:06] {GCS_IP=13.213.62.184, timestamp=2025-04-10 06:53:05, systemid=3, lat=35.0684475, lon=129.0896742, alt=29.993, dist_traveled=null, wp_dist=263, dist_to_home=1.3462276532622019E7, vertical_speed=0.25276944, ground_speed=25.555342, wind_vel=0.16775146, airspeed=24.96783, gps_hdop=1.21, roll=42.73, pitch=1.59, yaw=-152.26, ch3percent=79.80, ch9out=0, tot=0.0, toh=0.0, time_in_air=0.0, ch10out=0, ch11out=0, ch12out=0, battery_voltage=0, battery_current=-1, waypoints_count=0, ch3out=1798, waypoints=[], home_location={lat=0.0, lon=0.0}}
[2025-04-10 06:53:07] {GCS_IP=13.213.62.184, timestamp=2025-04-10 06:53:06, systemid=3, lat=35.0682621, lon=129.089509, alt=30.511, dist_traveled=null, wp_dist=238, dist_to_home=1.3462271628180403E7, vertical_speed=-0.23918062, ground_speed=25.520926, wind_vel=0.17423618, airspeed=25.096443, gps_hdop=1.21, roll=25.39, pitch=-2.41, yaw=-141.62, ch3percent=64.30, ch9out=0, tot=0.0, toh=0.0, time_in_air=0.0, ch10out=0, ch11out=0, ch12out=0, battery_voltage=0, battery_current=-1, waypoints_count=0, ch3out=1643, waypoints=[], home_location={lat=0.0, lon=0.0}}
[2025-04-10 06:53:08] {GCS_IP=13.213.62.184, timestamp=2025-04-10 06:53:07, systemid=3, lat=35.0680978, lon=129.0893129, alt=30.405, dist_traveled=null, wp_dist=213, dist_to_home=1.34622631829988E7, vertical_speed=-0.106681354, ground_speed=25.480566, wind_vel=0.17805618, airspeed=25.041687, gps_hdop=1.21, roll=19.42, pitch=-2.22, yaw=-133.26, ch3percent=63.90, ch9out=0, tot=0.0, toh=0.0, time_in_air=0.0, ch10out=0, ch11out=0, ch12out=0, battery_voltage=0, battery_current=-1, waypoints_count=0, ch3out=1639, waypoints=[], home_location={lat=0.0, lon=0.0}}
[2025-04-10 06:53:09] {GCS_IP=13.213.62.184, timestamp=2025-04-10 06:53:08, systemid=3, lat=35.0679542, lon=129.0890957, alt=30.219, dist_traveled=null, wp_dist=188, dist_to_home=1.3462252024083948E7, vertical_speed=-0.20362112, ground_speed=25.439386, wind_vel=0.18010837, airspeed=24.99054, gps_hdop=1.21, roll=13.07, pitch=-2.61, yaw=-127.50, ch3percent=64.10, ch9out=0, tot=0.0, toh=0.0, time_in_air=0.0, ch10out=0, ch11out=0, ch12out=0, battery_voltage=0, battery_current=-1, waypoints_count=0, ch3out=1641, waypoints=[], home_location={lat=0.0, lon=0.0}}
[2025-04-10 06:53:10] {GCS_IP=13.213.62.184, timestamp=2025-04-10 06:53:09, systemid=3, lat=35.0678256, lon=129.0888685, alt=30.026, dist_traveled=null, wp_dist=163, dist_to_home=1.3462239334917046E7, vertical_speed=-0.19138455, ground_speed=25.340725, wind_vel=0.18056826, airspeed=24.94039, gps_hdop=1.21, roll=6.85, pitch=-2.74, yaw=-123.76, ch3percent=64.60, ch9out=0, tot=0.0, toh=0.0, time_in_air=0.0, ch10out=0, ch11out=0, ch12out=0, battery_voltage=0, battery_current=-1, waypoints_count=0, ch3out=1646, waypoints=[], home_location={lat=0.0, lon=0.0}}
[2025-04-10 06:53:11] {GCS_IP=13.213.62.184, timestamp=2025-04-10 06:53:10, systemid=3, lat=35.0677029, lon=129.0886326, alt=29.862, dist_traveled=null, wp_dist=137, dist_to_home=1.3462225650674049E7, vertical_speed=-0.086531915, ground_speed=25.391619, wind_vel=0.18170938, airspeed=24.991146, gps_hdop=1.21, roll=2.31, pitch=-2.58, yaw=-122.02, ch3percent=65.20, ch9out=0, tot=0.0, toh=0.0, time_in_air=0.0, ch10out=0, ch11out=0, ch12out=0, battery_voltage=0, battery_current=-1, waypoints_count=0, ch3out=1652, waypoints=[], home_location={lat=0.0, lon=0.0}}
[2025-04-10 06:53:12] {GCS_IP=13.213.62.184, timestamp=2025-04-10 06:53:11, systemid=3, lat=35.0675832, lon=129.0883957, alt=29.792, dist_traveled=null, wp_dist=112, dist_to_home=1.3462211742754916E7, vertical_speed=-0.027082896, ground_speed=25.386782, wind_vel=0.18338163, airspeed=24.97547, gps_hdop=1.21, roll=-0.64, pitch=-2.46, yaw=-121.54, ch3percent=65.60, ch9out=0, tot=0.0, toh=0.0, time_in_air=0.0, ch10out=0, ch11out=0, ch12out=0, battery_voltage=0, battery_current=-1, waypoints_count=0, ch3out=1656, waypoints=[], home_location={lat=0.0, lon=0.0}}
